Category;Real Category;Business Name;Address;City;State;Postal Code;Country;Phone;Latitude;Longitude;Map Link
"perumahan";"Pembangunan Perumahan";"Kampong ulim";"VMC2+H7P, Membalong, Kabupaten Belitung, Kepulauan Bangka Belitung";"Kabupaten Belitung, Kepulauan Bangka Belitung";"KEPULAUAN BANGKA BELITUNG";"";"Indonesia";"";"-3.128547";"107.650703";"https://maps.google.com/?cid=0x0:0x1c97f9bda78976a1"
"perumahan";"perumahan";"Membalong";"Membalong, Kabupaten Belitung, Kepulauan Bangka Belitung";"Kabupaten Belitung, Kepulauan Bangka Belitung";"KEPULAUAN BANGKA BELITUNG";"";"Indonesia";"";"-3.128547";"107.650703";"https://maps.google.com/?cid=0x0:0x4039d80b2210490"
"perumahan";"Kantor Pemerintah";"desa perpat";"VMC2+H7P, Membalong, Kabupaten Belitung, Kepulauan Bangka Belitung";"Kabupaten Belitung, Kepulauan Bangka Belitung";"KEPULAUAN BANGKA BELITUNG";"";"Indonesia";"";"-3.128547";"107.650703";"https://maps.google.com/?cid=0x0:0x6647e1348500345e"
"perumahan";"perumahan";"Kepulauan Bangka Belitung 33411";"Kabupaten Belitung, Kepulauan Bangka Belitung";"Kabupaten Belitung, Kepulauan Bangka Belitung";"KEPULAUAN BANGKA BELITUNG";"";"Indonesia";"";"-2.7693884";"107.7517775";"https://maps.google.com/?cid=0x0:0xa4727ada9d297546"
"perumahan";"Pembangunan Perumahan";"Perumahan Griya Permata Belitung";"Jl. Mualim I, Air Merbau, Kec. Tj. Pandan, Kabupaten Belitung, Kepulauan Bangka Belitung 33414";"Air Merbau, Kec. Tj. Pandan, Kabupaten Belitung";"KEPULAUAN BANGKA BELITUNG";"33414";"Indonesia";" 081278645444";"-2.7161172";"107.6659606";"https://maps.google.com/?cid=0x0:0x41d414b32e7216d8"
"perumahan";"Pembangunan Perumahan";"Perum Alam Lestari";"6MWH+CW9, Perawas, Kec. Tj. Pandan, Kabupaten Belitung, Kepulauan Bangka Belitung 33411";"Perawas, Kec. Tj. Pandan, Kabupaten Belitung";"KEPULAUAN BANGKA BELITUNG";"33411";"Indonesia";" 082279374643";"-2.7539676";"107.6798441";"https://maps.google.com/?cid=0x0:0x4fd2f40ab8cf4c9"
"perumahan";"Perumahan";"Griya Emerald 77";"7MP5+4C5, Jl. Mualim I, Paal Satu, Kec. Tj. Pandan, Kabupaten Belitung, Kepulauan Bangka Belitung 33411";"Jl. Mualim I, Paal Satu, Kec. Tj. Pandan, Kabupaten Belitung";"KEPULAUAN BANGKA BELITUNG";"33411";"Indonesia";" 087830244400";"-2.7147252";"107.6585954";"https://maps.google.com/?cid=0x0:0x36ec9a850e59838b"
"perumahan";"Komplek perumahan";"Perumahan Belitung Hijau";"Dukong, Kec. Tj. Pandan, Kabupaten Belitung, Kepulauan Bangka Belitung 33411";"Kec. Tj. Pandan, Kabupaten Belitung";"KEPULAUAN BANGKA BELITUNG";"33411";"Indonesia";"";"-2.7697643";"107.6605076";"https://maps.google.com/?cid=0x0:0xf176cbe11bbaae80"
"perumahan";"Kantor Perusahaan";"Belitung Regency";"6MXG+9MH, Perawas, Kec. Tj. Pandan, Kabupaten Belitung, Kepulauan Bangka Belitung 33411";"Perawas, Kec. Tj. Pandan, Kabupaten Belitung";"KEPULAUAN BANGKA BELITUNG";"33411";"Indonesia";"";"-2.7515549";"107.6767392";"https://maps.google.com/?cid=0x0:0x54b0472ffb574b84"
"perumahan";"Perhimpunan Pengembang Perumahan";"Perumahan Angkasa Residence";"Buluh Tumbang, Kec. Tj. Pandan, Kabupaten Belitung, Kepulauan Bangka Belitung 33414";"Kec. Tj. Pandan, Kabupaten Belitung";"KEPULAUAN BANGKA BELITUNG";"33414";"Indonesia";" 081367972368";"-2.7574983";"107.748167";"https://maps.google.com/?cid=0x0:0xc8f0f01d88b221c3"
"perumahan";"Pengembang Realestat";"Perumahan Puri Kirana1";"Batu Itam, Sijuk, Kabupaten Belitung, Kepulauan Bangka Belitung 33415";"Sijuk, Kabupaten Belitung";"KEPULAUAN BANGKA BELITUNG";"33415";"Indonesia";" 081908195005";"-2.6974114";"107.6534999";"https://maps.google.com/?cid=0x0:0x2dcfb67305c19342"
"perumahan";"Pembangunan Perumahan";"Perumahan Belitung Garden City";"Perawas, Kec. Tj. Pandan, Kabupaten Belitung, Kepulauan Bangka Belitung 33411";"Kec. Tj. Pandan, Kabupaten Belitung";"KEPULAUAN BANGKA BELITUNG";"33411";"Indonesia";" 081949385955";"-2.7754228";"107.668092";"https://maps.google.com/?cid=0x0:0x82b4f220c88b7f9b"
"perumahan";"Komplek perumahan";"Perumahan AS Regency";"Gg. Bunga, Air Saga, Kec. Tj. Pandan, Kabupaten Belitung, Kepulauan Bangka Belitung 33414";"Air Saga, Kec. Tj. Pandan, Kabupaten Belitung";"KEPULAUAN BANGKA BELITUNG";"33414";"Indonesia";" 08176665799";"-2.7096017";"107.632316";"https://maps.google.com/?cid=0x0:0x7a8fce3657785d67"
"perumahan";"Perumahan";"Perumahan Ketakong Indah residence 3";"Jl. Mualim I, Air Merbau, Kec. Tj. Pandan, Kabupaten Belitung, Kepulauan Bangka Belitung";"Kabupaten Belitung, Kepulauan Bangka Belitung";"KEPULAUAN BANGKA BELITUNG";"";"Indonesia";" 081929797329";"-2.7114904";"107.6620604";"https://maps.google.com/?cid=0x0:0x9559276b1ab369e8"
"perumahan";"Perumahan";"Perumahan Palem Permai";"7JHM+XH5, Jl. H Munir, Air Saga, Kec. Tj. Pandan, Kabupaten Belitung, Kepulauan Bangka Belitung 33411";"Jl. H Munir, Air Saga, Kec. Tj. Pandan, Kabupaten Belitung";"KEPULAUAN BANGKA BELITUNG";"33411";"Indonesia";"";"-2.7201118";"107.6339915";"https://maps.google.com/?cid=0x0:0x43c157a90372a7e9"
"perumahan";"Pembangunan Perumahan";"Perumahan Vanilla Garden Residence";"7MQ6+C3, Air Merbau, Kec. Tj. Pandan, Kabupaten Belitung, Kepulauan Bangka Belitung 33411";"Air Merbau, Kec. Tj. Pandan, Kabupaten Belitung";"KEPULAUAN BANGKA BELITUNG";"33411";"Indonesia";" 082298801323";"-2.7113887";"107.66016";"https://maps.google.com/?cid=0x0:0x81b05b5b32f62339"
"perumahan";"Perumahan";"Perumahan Lalang Asri";"Jl. Gunong Tambak, RT.51/RW.20, Pangkal Lalang, Kec. Tj. Pandan, Kabupaten Belitung, Kepulauan Bangka Belitung";"Kabupaten Belitung, Kepulauan Bangka Belitung";"KEPULAUAN BANGKA BELITUNG";"";"Indonesia";" 081272841818";"-2.769898";"107.663304";"https://maps.google.com/?cid=0x0:0x46f87174f1dad080"
"perumahan";"perumahan";"Kepulauan Bangka Belitung 33412";"Kec. Tj. Pandan, Kabupaten Belitung, Kepulauan Bangka Belitung";"Kabupaten Belitung, Kepulauan Bangka Belitung";"KEPULAUAN BANGKA BELITUNG";"";"Indonesia";"";"-2.7493048";"107.665927";"https://maps.google.com/?cid=0x0:0xa2d16aac79151bde"
"perumahan";"Komplek perumahan";"Perumahan Belitung Hijau";"Dukong, Kec. Tj. Pandan, Kabupaten Belitung, Kepulauan Bangka Belitung 33411";"Kec. Tj. Pandan, Kabupaten Belitung";"KEPULAUAN BANGKA BELITUNG";"33411";"Indonesia";"";"-2.7697643";"107.6605076";"https://maps.google.com/?cid=0x0:0xf176cbe11bbaae80"
"perumahan";"Kantor Perusahaan";"Belitung Regency";"6MXG+9MH, Perawas, Kec. Tj. Pandan, Kabupaten Belitung, Kepulauan Bangka Belitung 33411";"Perawas, Kec. Tj. Pandan, Kabupaten Belitung";"KEPULAUAN BANGKA BELITUNG";"33411";"Indonesia";"";"-2.7515549";"107.6767392";"https://maps.google.com/?cid=0x0:0x54b0472ffb574b84"
"perumahan";"Perumahan";"Perumahan Lalang Asri";"Jl. Gunong Tambak, RT.51/RW.20, Pangkal Lalang, Kec. Tj. Pandan, Kabupaten Belitung, Kepulauan Bangka Belitung";"Kabupaten Belitung, Kepulauan Bangka Belitung";"KEPULAUAN BANGKA BELITUNG";"";"Indonesia";" 081272841818";"-2.769898";"107.663304";"https://maps.google.com/?cid=0x0:0x46f87174f1dad080"
"perumahan";"Pembangunan Perumahan";"Perum Alam Lestari";"6MWH+CW9, Perawas, Kec. Tj. Pandan, Kabupaten Belitung, Kepulauan Bangka Belitung 33411";"Perawas, Kec. Tj. Pandan, Kabupaten Belitung";"KEPULAUAN BANGKA BELITUNG";"33411";"Indonesia";" 082279374643";"-2.7539676";"107.6798441";"https://maps.google.com/?cid=0x0:0x4fd2f40ab8cf4c9"
"perumahan";"Perumahan";"Perumahan Ketakong Indah residence 3";"Jl. Mualim I, Air Merbau, Kec. Tj. Pandan, Kabupaten Belitung, Kepulauan Bangka Belitung";"Kabupaten Belitung, Kepulauan Bangka Belitung";"KEPULAUAN BANGKA BELITUNG";"";"Indonesia";" 081929797329";"-2.7114904";"107.6620604";"https://maps.google.com/?cid=0x0:0x9559276b1ab369e8"
"perumahan";"Perhimpunan Pengembang Perumahan";"Perumahan Sastra";"7M44+698, Lesung Batang, Kec. Tj. Pandan, Kabupaten Belitung, Kepulauan Bangka Belitung 33412";"Lesung Batang, Kec. Tj. Pandan, Kabupaten Belitung";"KEPULAUAN BANGKA BELITUNG";"33412";"Indonesia";"";"-2.7444641";"107.6559642";"https://maps.google.com/?cid=0x0:0xae3e8df2cda0688c"
"perumahan";"Komplek perumahan";"Perumahan AS Regency";"Gg. Bunga, Air Saga, Kec. Tj. Pandan, Kabupaten Belitung, Kepulauan Bangka Belitung 33414";"Air Saga, Kec. Tj. Pandan, Kabupaten Belitung";"KEPULAUAN BANGKA BELITUNG";"33414";"Indonesia";" 08176665799";"-2.7096017";"107.632316";"https://maps.google.com/?cid=0x0:0x7a8fce3657785d67"
"perumahan";"Kafe";"komplek marakas indah";"6MW5+Q86, Lesung Batang, Kec. Tj. Pandan, Kabupaten Belitung, Kepulauan Bangka Belitung 33412";"Lesung Batang, Kec. Tj. Pandan, Kabupaten Belitung";"KEPULAUAN BANGKA BELITUNG";"33412";"Indonesia";"";"-2.7530763";"107.6582556";"https://maps.google.com/?cid=0x0:0xec95db8dea0299b4"
"perumahan";"Perhimpunan Pengembang Perumahan";"Rama";"6MW7+V8P, Jl. Air Kelubi Dalam, Lesung Batang, Kec. Tj. Pandan, Kabupaten Belitung, Kepulauan Bangka Belitung 33412";"Jl. Air Kelubi Dalam, Lesung Batang, Kec. Tj. Pandan, Kabupaten Belitung";"KEPULAUAN BANGKA BELITUNG";"33412";"Indonesia";"";"-2.7527983";"107.6633416";"https://maps.google.com/?cid=0x0:0x650749c1b5b3a299"
"perumahan";"Pembangunan Perumahan";"Perumahan Belitung Hijau 3";"6MM4+QV6, Jl. Dukong, Dukong, Kec. Tj. Pandan, Kabupaten Belitung, Kepulauan Bangka Belitung 33417";"Jl. Dukong, Dukong, Kec. Tj. Pandan, Kabupaten Belitung";"KEPULAUAN BANGKA BELITUNG";"33417";"Indonesia";" 081287121099";"-2.7655829";"107.6571383";"https://maps.google.com/?cid=0x0:0x2a5689d84f1cfa00"
"perumahan";"Komplek perumahan";"Biliton Regency";"Jalan Sriwijaya, Perawas, Kec. Tj. Pandan, Kabupaten Belitung, Kepulauan Bangka Belitung 33411";"Perawas, Kec. Tj. Pandan, Kabupaten Belitung";"KEPULAUAN BANGKA BELITUNG";"33411";"Indonesia";"";"-2.7513116";"107.6776752";"https://maps.google.com/?cid=0x0:0xab754b3c77ebedb2"
"perumahan";"Komplek perumahan";"White house Belitung";"Jl. Sentosa, Air Saga, Kec. Tj. Pandan, Kabupaten Belitung, Kepulauan Bangka Belitung 33411";"Air Saga, Kec. Tj. Pandan, Kabupaten Belitung";"KEPULAUAN BANGKA BELITUNG";"33411";"Indonesia";" 085169048679";"-2.7298746";"107.6707434";"https://maps.google.com/?cid=0x0:0xebaa4b15a8f95aa7"
"perumahan";"Komplek perumahan";"Komplek TNI AU "Garuda"";"Jl. Gaparman No.10-12, Lesung Batang, Kec. Tj. Pandan, Kabupaten Belitung, Kepulauan Bangka Belitung 33411";"Lesung Batang, Kec. Tj. Pandan, Kabupaten Belitung";"KEPULAUAN BANGKA BELITUNG";"33411";"Indonesia";"";"-2.7441508";"107.6534512";"https://maps.google.com/?cid=0x0:0x698343ecf16a1e88"
"perumahan";"perumahan";"Kepulauan Bangka Belitung 33413";"Kec. Tj. Pandan, Kabupaten Belitung, Kepulauan Bangka Belitung";"Kabupaten Belitung, Kepulauan Bangka Belitung";"KEPULAUAN BANGKA BELITUNG";"";"Indonesia";"";"-2.7462491";"107.7103291";"https://maps.google.com/?cid=0x0:0x7ee919762ad4f944"
"perumahan";"Perumahan";"Perumahan Ketakong Indah residence 3";"Jl. Mualim I, Air Merbau, Kec. Tj. Pandan, Kabupaten Belitung, Kepulauan Bangka Belitung";"Kabupaten Belitung, Kepulauan Bangka Belitung";"KEPULAUAN BANGKA BELITUNG";"";"Indonesia";" 081929797329";"-2.7114904";"107.6620604";"https://maps.google.com/?cid=0x0:0x9559276b1ab369e8"
"perumahan";"Pembangunan Perumahan";"Perum Alam Lestari";"6MWH+CW9, Perawas, Kec. Tj. Pandan, Kabupaten Belitung, Kepulauan Bangka Belitung 33411";"Perawas, Kec. Tj. Pandan, Kabupaten Belitung";"KEPULAUAN BANGKA BELITUNG";"33411";"Indonesia";" 082279374643";"-2.7539676";"107.6798441";"https://maps.google.com/?cid=0x0:0x4fd2f40ab8cf4c9"
"perumahan";"Pembangunan Perumahan";"Perumahan Timur Sentosa Village";"Jl. Pengayoman, Buluh Tumbang, Kec. Tj. Pandan, Kabupaten Belitung, Kepulauan Bangka Belitung 33413";"Buluh Tumbang, Kec. Tj. Pandan, Kabupaten Belitung";"KEPULAUAN BANGKA BELITUNG";"33413";"Indonesia";"";"-2.7698769";"107.7128661";"https://maps.google.com/?cid=0x0:0x16d9a5d454dd1a4d"
"perumahan";"Komplek perumahan";"Perumahan Belitung Hijau";"Dukong, Kec. Tj. Pandan, Kabupaten Belitung, Kepulauan Bangka Belitung 33411";"Kec. Tj. Pandan, Kabupaten Belitung";"KEPULAUAN BANGKA BELITUNG";"33411";"Indonesia";"";"-2.7697643";"107.6605076";"https://maps.google.com/?cid=0x0:0xf176cbe11bbaae80"
"perumahan";"Kantor Perusahaan";"Belitung Regency";"6MXG+9MH, Perawas, Kec. Tj. Pandan, Kabupaten Belitung, Kepulauan Bangka Belitung 33411";"Perawas, Kec. Tj. Pandan, Kabupaten Belitung";"KEPULAUAN BANGKA BELITUNG";"33411";"Indonesia";"";"-2.7515549";"107.6767392";"https://maps.google.com/?cid=0x0:0x54b0472ffb574b84"
"perumahan";"Perumahan";"Perumahan Belitong Estate Tahap 1";"Jl.kibejo Perumahan Belitong Estate, Buluh Tumbang, Kec. Tj. Pandan, Kabupaten Belitung, Kepulauan Bangka Belitung 33413";"Buluh Tumbang, Kec. Tj. Pandan, Kabupaten Belitung";"KEPULAUAN BANGKA BELITUNG";"33413";"Indonesia";" 087777731736";"-2.7607216";"107.7053215";"https://maps.google.com/?cid=0x0:0x4be07b4e409dd533"
"perumahan";"Pembangunan Perumahan";"Simpang tiga";"7MMH+PJ, Air Merbau, Kec. Tj. Pandan, Kabupaten Belitung, Kepulauan Bangka Belitung";"Kabupaten Belitung, Kepulauan Bangka Belitung";"KEPULAUAN BANGKA BELITUNG";"";"Indonesia";"";"-2.7151289";"107.678974";"https://maps.google.com/?cid=0x0:0xf2b9049e5e015946"
"perumahan";"Pembangunan Perumahan";"Perumahan Belitung Garden City";"Perawas, Kec. Tj. Pandan, Kabupaten Belitung, Kepulauan Bangka Belitung 33411";"Kec. Tj. Pandan, Kabupaten Belitung";"KEPULAUAN BANGKA BELITUNG";"33411";"Indonesia";" 081949385955";"-2.7754228";"107.668092";"https://maps.google.com/?cid=0x0:0x82b4f220c88b7f9b"
"perumahan";"Komplek perumahan";"Perum Faris Residence";"6PQ4+RJW, Jl. Jend. Sudirman, Perawas, Kec. Tj. Pandan, Kabupaten Belitung, Kepulauan Bangka Belitung 33413";"Jl. Jend. Sudirman, Perawas, Kec. Tj. Pandan, Kabupaten Belitung";"KEPULAUAN BANGKA BELITUNG";"33413";"Indonesia";"";"-2.7603807";"107.7065802";"https://maps.google.com/?cid=0x0:0xd8775d7e2d435a29"
"perumahan";"Komplek perumahan";"Perumahan AS Regency";"Gg. Bunga, Air Saga, Kec. Tj. Pandan, Kabupaten Belitung, Kepulauan Bangka Belitung 33414";"Air Saga, Kec. Tj. Pandan, Kabupaten Belitung";"KEPULAUAN BANGKA BELITUNG";"33414";"Indonesia";" 08176665799";"-2.7096017";"107.632316";"https://maps.google.com/?cid=0x0:0x7a8fce3657785d67"
"perumahan";"Pembangunan Perumahan";"Perumahan Belitung Estate";"jln kik bujo, Perawas, Kec. Tj. Pandan, Kabupaten Belitung, Kepulauan Bangka Belitung 33172";"Perawas, Kec. Tj. Pandan, Kabupaten Belitung";"KEPULAUAN BANGKA BELITUNG";"33172";"Indonesia";"";"-2.7600356";"107.7055209";"https://maps.google.com/?cid=0x0:0xb8a468b29040037f"
"perumahan";"Komplek perumahan";"Mutiara Perawas Residence";"Jl. Gunung Lalang Jl. Jerat Nangka, RT.02/RW.01, Perawas, Kec. Tj. Pandan, Kabupaten Belitung, Kepulauan Bangka Belitung 33413";"RT.02/RW.01, Perawas, Kec. Tj. Pandan, Kabupaten Belitung";"KEPULAUAN BANGKA BELITUNG";"33413";"Indonesia";"";"-2.7503884";"107.7051284";"https://maps.google.com/?cid=0x0:0xf6514c1b18b568dc"
"perumahan";"Bandara";"Komplek Bandara H.AS.Hanandjoeddin";"6QV2+GGW, Buluh Tumbang, Kec. Tj. Pandan, Kabupaten Belitung, Kepulauan Bangka Belitung 33411";"Buluh Tumbang, Kec. Tj. Pandan, Kabupaten Belitung";"KEPULAUAN BANGKA BELITUNG";"33411";"Indonesia";"";"-2.7561461";"107.751334";"https://maps.google.com/?cid=0x0:0x13be7ebe3f8a8ed1"
"perumahan";"perumahan";"Tanjung Pandan";"Kec. Tj. Pandan, Kabupaten Belitung, Kepulauan Bangka Belitung";"Kabupaten Belitung, Kepulauan Bangka Belitung";"KEPULAUAN BANGKA BELITUNG";"";"Indonesia";"";"-2.7416678";"107.6529988";"https://maps.google.com/?cid=0x0:0x4039d80b2210300"
"perumahan";"Pembangunan Perumahan";"Perumahan Griya Permata Belitung";"Jl. Mualim I, Air Merbau, Kec. Tj. Pandan, Kabupaten Belitung, Kepulauan Bangka Belitung 33414";"Air Merbau, Kec. Tj. Pandan, Kabupaten Belitung";"KEPULAUAN BANGKA BELITUNG";"33414";"Indonesia";" 081278645444";"-2.7161172";"107.6659606";"https://maps.google.com/?cid=0x0:0x41d414b32e7216d8"
"perumahan";"Komplek perumahan";"Perumahan AS Regency";"Gg. Bunga, Air Saga, Kec. Tj. Pandan, Kabupaten Belitung, Kepulauan Bangka Belitung 33414";"Air Saga, Kec. Tj. Pandan, Kabupaten Belitung";"KEPULAUAN BANGKA BELITUNG";"33414";"Indonesia";" 08176665799";"-2.7096017";"107.632316";"https://maps.google.com/?cid=0x0:0x7a8fce3657785d67"
"perumahan";"Perumahan";"Perumahan Ketakong Indah residence 3";"Jl. Mualim I, Air Merbau, Kec. Tj. Pandan, Kabupaten Belitung, Kepulauan Bangka Belitung";"Kabupaten Belitung, Kepulauan Bangka Belitung";"KEPULAUAN BANGKA BELITUNG";"";"Indonesia";" 081929797329";"-2.7114904";"107.6620604";"https://maps.google.com/?cid=0x0:0x9559276b1ab369e8"
"perumahan";"Komplek perumahan";"Perumahan Belitung Hijau";"Dukong, Kec. Tj. Pandan, Kabupaten Belitung, Kepulauan Bangka Belitung 33411";"Kec. Tj. Pandan, Kabupaten Belitung";"KEPULAUAN BANGKA BELITUNG";"33411";"Indonesia";"";"-2.7697643";"107.6605076";"https://maps.google.com/?cid=0x0:0xf176cbe11bbaae80"
"perumahan";"Perumahan";"Perumahan Lalang Asri";"Jl. Gunong Tambak, RT.51/RW.20, Pangkal Lalang, Kec. Tj. Pandan, Kabupaten Belitung, Kepulauan Bangka Belitung";"Kabupaten Belitung, Kepulauan Bangka Belitung";"KEPULAUAN BANGKA BELITUNG";"";"Indonesia";" 081272841818";"-2.769898";"107.663304";"https://maps.google.com/?cid=0x0:0x46f87174f1dad080"
"perumahan";"Pembangunan Perumahan";"Perumahan Belitung Garden City";"Perawas, Kec. Tj. Pandan, Kabupaten Belitung, Kepulauan Bangka Belitung 33411";"Kec. Tj. Pandan, Kabupaten Belitung";"KEPULAUAN BANGKA BELITUNG";"33411";"Indonesia";" 081949385955";"-2.7754228";"107.668092";"https://maps.google.com/?cid=0x0:0x82b4f220c88b7f9b"
"perumahan";"Pembangunan Perumahan";"Kompleks Perumahan Meirobie Land";"6J8V+X23, Dukong, Kec. Tj. Pandan, Kabupaten Belitung, Kepulauan Bangka Belitung 33417";"Dukong, Kec. Tj. Pandan, Kabupaten Belitung";"KEPULAUAN BANGKA BELITUNG";"33417";"Indonesia";"";"-2.7826217";"107.6425475";"https://maps.google.com/?cid=0x0:0xac681a9e20ef0943"
"perumahan";"Penginapan";"Perumahan Sumber Jaya C";"7MH4+2JM Perumahan Sumber Jaya C, Jl. Selembat Lama, Air Merbau, Kec. Tj. Pandan, Kabupaten Belitung, Kepulauan Bangka Belitung 33414";"Jl. Selembat Lama, Air Merbau, Kec. Tj. Pandan, Kabupaten Belitung";"KEPULAUAN BANGKA BELITUNG";"33414";"Indonesia";"";"-2.7224153";"107.6565573";"https://maps.google.com/?cid=0x0:0x8fa8c66c9d09f4f8"
"perumahan";"Perhimpunan Pengembang Perumahan";"Perumahan Sastra";"7M44+698, Lesung Batang, Kec. Tj. Pandan, Kabupaten Belitung, Kepulauan Bangka Belitung 33412";"Lesung Batang, Kec. Tj. Pandan, Kabupaten Belitung";"KEPULAUAN BANGKA BELITUNG";"33412";"Indonesia";"";"-2.7444641";"107.6559642";"https://maps.google.com/?cid=0x0:0xae3e8df2cda0688c"
"perumahan";"Komplek perumahan";"Rudin PPNTP";"7J4M+P95, Jl. Pantai, Tj. Pandan, Kec. Tj. Pandan, Kabupaten Belitung, Kepulauan Bangka Belitung";"Kabupaten Belitung, Kepulauan Bangka Belitung";"KEPULAUAN BANGKA BELITUNG";"";"Indonesia";"";"-2.7434222";"107.6334271";"https://maps.google.com/?cid=0x0:0x157240f6f6e66788"
"perumahan";"Perhimpunan Pengembang Perumahan";"Lorong M.Dimas Abie Mannyu";"Jl. Kamboja III No.26, Tj. Pandan, Kec. Tj. Pandan, Kabupaten Belitung, Kepulauan Bangka Belitung 33411";"Tj. Pandan, Kec. Tj. Pandan, Kabupaten Belitung";"KEPULAUAN BANGKA BELITUNG";"33411";"Indonesia";"";"-2.7407402";"107.6415105";"https://maps.google.com/?cid=0x0:0x89abccef824b0126"
"perumahan";"Pembangunan Perumahan";"Perumahan Vanilla Garden Residence";"7MQ6+C3, Air Merbau, Kec. Tj. Pandan, Kabupaten Belitung, Kepulauan Bangka Belitung 33411";"Air Merbau, Kec. Tj. Pandan, Kabupaten Belitung";"KEPULAUAN BANGKA BELITUNG";"33411";"Indonesia";" 082298801323";"-2.7113887";"107.66016";"https://maps.google.com/?cid=0x0:0x81b05b5b32f62339"
"perumahan";"Taman";"Danau biru estate";"7M9M+HQQ, Perawas, Kec. Tj. Pandan, Kabupaten Belitung, Kepulauan Bangka Belitung 33414";"Perawas, Kec. Tj. Pandan, Kabupaten Belitung";"KEPULAUAN BANGKA BELITUNG";"33414";"Indonesia";"";"-2.7310381";"107.6844844";"https://maps.google.com/?cid=0x0:0xac682dd4dd66c1fb"
"perumahan";"perumahan";"Kepulauan Bangka Belitung 33415";"Sijuk, Kabupaten Belitung, Kepulauan Bangka Belitung";"Kabupaten Belitung, Kepulauan Bangka Belitung";"KEPULAUAN BANGKA BELITUNG";"";"Indonesia";"";"-2.6899391";"107.6629672";"https://maps.google.com/?cid=0x0:0x736833c3cb9cc3f0"
"perumahan";"Komplek perumahan";"Perumahan Villa Pandan I";"7MJF+82Q, Jl. Permata III, Air Merbau, Kec. Tj. Pandan, Kabupaten Belitung, Kepulauan Bangka Belitung 33414";"Jl. Permata III, Air Merbau, Kec. Tj. Pandan, Kabupaten Belitung";"KEPULAUAN BANGKA BELITUNG";"33414";"Indonesia";" 081949391459";"-2.7191666";"107.6726126";"https://maps.google.com/?cid=0x0:0x2d68dc43aec6d720"
"perumahan";"Pembangunan Perumahan";"Perumahan Griya Permata Belitung";"Jl. Mualim I, Air Merbau, Kec. Tj. Pandan, Kabupaten Belitung, Kepulauan Bangka Belitung 33414";"Air Merbau, Kec. Tj. Pandan, Kabupaten Belitung";"KEPULAUAN BANGKA BELITUNG";"33414";"Indonesia";" 081278645444";"-2.7161172";"107.6659606";"https://maps.google.com/?cid=0x0:0x41d414b32e7216d8"
"perumahan";"Perumahan";"Perumahan Ketakong Indah residence 3";"Jl. Mualim I, Air Merbau, Kec. Tj. Pandan, Kabupaten Belitung, Kepulauan Bangka Belitung";"Kabupaten Belitung, Kepulauan Bangka Belitung";"KEPULAUAN BANGKA BELITUNG";"";"Indonesia";" 081929797329";"-2.7114904";"107.6620604";"https://maps.google.com/?cid=0x0:0x9559276b1ab369e8"
"perumahan";"Pembangunan Perumahan";"Perumahan Belitung Garden City";"Perawas, Kec. Tj. Pandan, Kabupaten Belitung, Kepulauan Bangka Belitung 33411";"Kec. Tj. Pandan, Kabupaten Belitung";"KEPULAUAN BANGKA BELITUNG";"33411";"Indonesia";" 081949385955";"-2.7754228";"107.668092";"https://maps.google.com/?cid=0x0:0x82b4f220c88b7f9b"
"perumahan";"perumahan";"Rumdin Imigrasi Griya Permata II";"7MP8+3G6, Jl. Mualim I, Air Merbau, Kec. Tj. Pandan, Kabupaten Belitung, Kepulauan Bangka Belitung";"Kabupaten Belitung, Kepulauan Bangka Belitung";"KEPULAUAN BANGKA BELITUNG";"";"Indonesia";"";"-2.7150546";"107.6662312";"https://maps.google.com/?cid=0x0:0x391397de41f1de99"
"perumahan";"Perumahan";"Griya Emerald 77";"7MP5+4C5, Jl. Mualim I, Paal Satu, Kec. Tj. Pandan, Kabupaten Belitung, Kepulauan Bangka Belitung 33411";"Jl. Mualim I, Paal Satu, Kec. Tj. Pandan, Kabupaten Belitung";"KEPULAUAN BANGKA BELITUNG";"33411";"Indonesia";" 087830244400";"-2.7147252";"107.6585954";"https://maps.google.com/?cid=0x0:0x36ec9a850e59838b"
"perumahan";"Perumahan";"Perumahan Dinas Imigrasi Tanjungpandan";"Griya Permata 1 tanjungpandan, Air Merbau, Tanjung Pandan, Belitung Regency, Bangka Belitung Islands";"Kabupaten Belitung, Kepulauan Bangka Belitung";"KEPULAUAN BANGKA BELITUNG";"";"Indonesia";"";"-2.7149023";"107.665932";"https://maps.google.com/?cid=0x0:0x11ac5e625941a7e3"
"perumahan";"Pengembang Realestat";"Perumahan Puri Kirana1";"Batu Itam, Sijuk, Kabupaten Belitung, Kepulauan Bangka Belitung 33415";"Sijuk, Kabupaten Belitung";"KEPULAUAN BANGKA BELITUNG";"33415";"Indonesia";" 081908195005";"-2.6974114";"107.6534999";"https://maps.google.com/?cid=0x0:0x2dcfb67305c19342"
"perumahan";"Penginapan";"Perumahan Sumber Jaya C";"7MH4+2JM Perumahan Sumber Jaya C, Jl. Selembat Lama, Air Merbau, Kec. Tj. Pandan, Kabupaten Belitung, Kepulauan Bangka Belitung 33414";"Jl. Selembat Lama, Air Merbau, Kec. Tj. Pandan, Kabupaten Belitung";"KEPULAUAN BANGKA BELITUNG";"33414";"Indonesia";"";"-2.7224153";"107.6565573";"https://maps.google.com/?cid=0x0:0x8fa8c66c9d09f4f8"
"perumahan";"Komplek perumahan";"HENDRA PUNCAK";"7MH2+W9P, Jl. Kaswari, Paal Satu, Kec. Tj. Pandan, Kabupaten Belitung, Kepulauan Bangka Belitung 33411";"Jl. Kaswari, Paal Satu, Kec. Tj. Pandan, Kabupaten Belitung";"KEPULAUAN BANGKA BELITUNG";"33411";"Indonesia";"";"-2.7201658";"107.6509638";"https://maps.google.com/?cid=0x0:0x6ed7d89629db34bf"
"perumahan";"Komplek perumahan";"PERUMAHAN TEDI BONG NO. BA";"7MH3+9VX, Paal Satu, Kec. Tj. Pandan, Kabupaten Belitung, Kepulauan Bangka Belitung 33411";"Paal Satu, Kec. Tj. Pandan, Kabupaten Belitung";"KEPULAUAN BANGKA BELITUNG";"33411";"Indonesia";"";"-2.7215218";"107.6547202";"https://maps.google.com/?cid=0x0:0x5f8dc9a2b05ca1fa"
"perumahan";"Komplek perumahan";"Perumahan Merah-Merah";"Jl. Selembat Lama II No.3, Paal Satu, Kec. Tj. Pandan, Kabupaten Belitung, Kepulauan Bangka Belitung 33411";"Paal Satu, Kec. Tj. Pandan, Kabupaten Belitung";"KEPULAUAN BANGKA BELITUNG";"33411";"Indonesia";"";"-2.7215121";"107.6549103";"https://maps.google.com/?cid=0x0:0x125f198f0557841c"
"perumahan";"Perhimpunan Pengembang Perumahan";"Sanjaya's House";"Griya Hentaland Jl. Bukit Rawe No.2C, RT.18/RW.04 Desa, Aik Pelempang Jaya, Kec. Tj. Pandan, Kabupaten Belitung, Kepulauan Bangka Belitung 33411";"RT.18/RW.04 Desa, Aik Pelempang Jaya, Kec. Tj. Pandan, Kabupaten Belitung";"KEPULAUAN BANGKA BELITUNG";"33411";"Indonesia";"";"-2.7095803";"107.6604628";"https://maps.google.com/?cid=0x0:0x4355e363e1e17609"
"perumahan";"perumahan";"Kepulauan Bangka Belitung 33417";"Kec. Tj. Pandan, Kabupaten Belitung, Kepulauan Bangka Belitung";"Kabupaten Belitung, Kepulauan Bangka Belitung";"KEPULAUAN BANGKA BELITUNG";"";"Indonesia";"";"-2.7665437";"107.627451";"https://maps.google.com/?cid=0x0:0x631fe9aad23f6cc1"
"perumahan";"Komplek perumahan";"Perumahan Belitung Hijau";"Dukong, Kec. Tj. Pandan, Kabupaten Belitung, Kepulauan Bangka Belitung 33411";"Kec. Tj. Pandan, Kabupaten Belitung";"KEPULAUAN BANGKA BELITUNG";"33411";"Indonesia";"";"-2.7697643";"107.6605076";"https://maps.google.com/?cid=0x0:0xf176cbe11bbaae80"
"perumahan";"Perumahan";"Pelangi Residence";"Jalan Pilang (samping PDAM),, Tanjungpandan, Dukong, Tanjung Pandan, Belitung Regency, Bangka Belitung Islands 33417";"Tanjungpandan, Dukong, Tanjung Pandan, Belitung Regency";"KEPULAUAN BANGKA BELITUNG";"33417";"Indonesia";" 081279174289";"-2.7817168";"107.6521463";"https://maps.google.com/?cid=0x0:0x9c2902a87117338d"
"perumahan";"Pembangunan Perumahan";"Kompleks Perumahan Meirobie Land";"6J8V+X23, Dukong, Kec. Tj. Pandan, Kabupaten Belitung, Kepulauan Bangka Belitung 33417";"Dukong, Kec. Tj. Pandan, Kabupaten Belitung";"KEPULAUAN BANGKA BELITUNG";"33417";"Indonesia";"";"-2.7826217";"107.6425475";"https://maps.google.com/?cid=0x0:0xac681a9e20ef0943"
"perumahan";"Kantor Perusahaan";"Belitung Regency";"6MXG+9MH, Perawas, Kec. Tj. Pandan, Kabupaten Belitung, Kepulauan Bangka Belitung 33411";"Perawas, Kec. Tj. Pandan, Kabupaten Belitung";"KEPULAUAN BANGKA BELITUNG";"33411";"Indonesia";"";"-2.7515549";"107.6767392";"https://maps.google.com/?cid=0x0:0x54b0472ffb574b84"
"perumahan";"Hotel";"Posko KKN Universitas Bangka Belitung";"RT.004/RW.001, Juru Seberang, Kec. Tj. Pandan, Kabupaten Belitung, Kepulauan Bangka Belitung 33417";"Juru Seberang, Kec. Tj. Pandan, Kabupaten Belitung";"KEPULAUAN BANGKA BELITUNG";"33417";"Indonesia";"";"-2.7499667";"107.633143";"https://maps.google.com/?cid=0x0:0x70138cd24f9fedd"
"perumahan";"Pembangunan Perumahan";"LESTARI PERMAI REGENCY";"6M94+HP, Dukong, Kec. Tj. Pandan, Kabupaten Belitung, Kepulauan Bangka Belitung";"Kabupaten Belitung, Kepulauan Bangka Belitung";"KEPULAUAN BANGKA BELITUNG";"";"Indonesia";"";"-2.7810982";"107.6567988";"https://maps.google.com/?cid=0x0:0xa7facc685fa1f37c"
"perumahan";"Perumahan";"Perumahan Lalang Asri";"Jl. Gunong Tambak, RT.51/RW.20, Pangkal Lalang, Kec. Tj. Pandan, Kabupaten Belitung, Kepulauan Bangka Belitung";"Kabupaten Belitung, Kepulauan Bangka Belitung";"KEPULAUAN BANGKA BELITUNG";"";"Indonesia";" 081272841818";"-2.769898";"107.663304";"https://maps.google.com/?cid=0x0:0x46f87174f1dad080"
"perumahan";"Perhimpunan Pengembang Perumahan";"Bani";"Jl. Ekonomi No.216, Dukong, Kec. Tj. Pandan, Kabupaten Belitung, Kepulauan Bangka Belitung 33417";"Dukong, Kec. Tj. Pandan, Kabupaten Belitung";"KEPULAUAN BANGKA BELITUNG";"33417";"Indonesia";"";"-2.7857518";"107.650661";"https://maps.google.com/?cid=0x0:0xcbfa9d99dd7b25ff"
"perumahan";"Komplek perumahan";"Rudin PPNTP";"7J4M+P95, Jl. Pantai, Tj. Pandan, Kec. Tj. Pandan, Kabupaten Belitung, Kepulauan Bangka Belitung";"Kabupaten Belitung, Kepulauan Bangka Belitung";"KEPULAUAN BANGKA BELITUNG";"";"Indonesia";"";"-2.7434222";"107.6334271";"https://maps.google.com/?cid=0x0:0x157240f6f6e66788"
"perumahan";"Pembangunan Perumahan";"Perumahan Belitung Hijau 3";"6MM4+QV6, Jl. Dukong, Dukong, Kec. Tj. Pandan, Kabupaten Belitung, Kepulauan Bangka Belitung 33417";"Jl. Dukong, Dukong, Kec. Tj. Pandan, Kabupaten Belitung";"KEPULAUAN BANGKA BELITUNG";"33417";"Indonesia";" 081287121099";"-2.7655829";"107.6571383";"https://maps.google.com/?cid=0x0:0x2a5689d84f1cfa00"
"perumahan";"Perhimpunan Pengembang Perumahan";"Perumahan Sastra";"7M44+698, Lesung Batang, Kec. Tj. Pandan, Kabupaten Belitung, Kepulauan Bangka Belitung 33412";"Lesung Batang, Kec. Tj. Pandan, Kabupaten Belitung";"KEPULAUAN BANGKA BELITUNG";"33412";"Indonesia";"";"-2.7444641";"107.6559642";"https://maps.google.com/?cid=0x0:0xae3e8df2cda0688c"
"perumahan";"Kafe";"komplek marakas indah";"6MW5+Q86, Lesung Batang, Kec. Tj. Pandan, Kabupaten Belitung, Kepulauan Bangka Belitung 33412";"Lesung Batang, Kec. Tj. Pandan, Kabupaten Belitung";"KEPULAUAN BANGKA BELITUNG";"33412";"Indonesia";"";"-2.7530763";"107.6582556";"https://maps.google.com/?cid=0x0:0xec95db8dea0299b4"
"perumahan";"Komplek perumahan";"Ilmar home";"6JQV+QGX, Pangkal Lalang, Kec. Tj. Pandan, Kabupaten Belitung, Kepulauan Bangka Belitung 33417";"Pangkal Lalang, Kec. Tj. Pandan, Kabupaten Belitung";"KEPULAUAN BANGKA BELITUNG";"33417";"Indonesia";"";"-2.7605182";"107.6438725";"https://maps.google.com/?cid=0x0:0xeda4bcf09fa4fdd7"
"perumahan";"perumahan";"Kepulauan Bangka Belitung 33451";"Badau, Kabupaten Belitung, Kepulauan Bangka Belitung";"Kabupaten Belitung, Kepulauan Bangka Belitung";"KEPULAUAN BANGKA BELITUNG";"";"Indonesia";"";"-2.815667";"107.8346924";"https://maps.google.com/?cid=0x0:0x5300775963dd1cc4"
"perumahan";"perumahan";"Morotuo House";"5QWH+889, Badau, Kabupaten Belitung, Kepulauan Bangka Belitung 33451";"Badau, Kabupaten Belitung";"KEPULAUAN BANGKA BELITUNG";"33451";"Indonesia";"";"-2.8041911";"107.7783567";"https://maps.google.com/?cid=0x0:0x5dd8d6734fbe546e"
"perumahan";"perumahan";"MerBud House";"5QWH+889, Badau, Kabupaten Belitung, Kepulauan Bangka Belitung 33451";"Badau, Kabupaten Belitung";"KEPULAUAN BANGKA BELITUNG";"33451";"Indonesia";"";"-2.8041911";"107.7783567";"https://maps.google.com/?cid=0x0:0xef770aa973d78cbc"
"perumahan";"perumahan";"Umna Badau House";"5QWH+889, Badau, Kabupaten Belitung, Kepulauan Bangka Belitung 33451";"Badau, Kabupaten Belitung";"KEPULAUAN BANGKA BELITUNG";"33451";"Indonesia";"";"-2.8041879";"107.7782895";"https://maps.google.com/?cid=0x0:0x9f6a3e27ed3d9b8c"
"perumahan";"Pembangunan Perumahan";"Transit Sicepat Badau";"5QRF+QRR, Jalan, Badau, Belitung Regency, Bangka Belitung Islands 33451";"Jalan, Badau, Belitung Regency";"KEPULAUAN BANGKA BELITUNG";"33451";"Indonesia";"";"-2.8080239";"107.7745036";"https://maps.google.com/?cid=0x0:0xd658a5c25dde52ea"
"perumahan";"Perumahan";"Perumahan Belitong Estate Tahap 1";"Jl.kibejo Perumahan Belitong Estate, Buluh Tumbang, Kec. Tj. Pandan, Kabupaten Belitung, Kepulauan Bangka Belitung 33413";"Buluh Tumbang, Kec. Tj. Pandan, Kabupaten Belitung";"KEPULAUAN BANGKA BELITUNG";"33413";"Indonesia";" 087777731736";"-2.7607216";"107.7053215";"https://maps.google.com/?cid=0x0:0x4be07b4e409dd533"
"perumahan";"perumahan";"Casting";"5M8H+C9, Cerucuk, Badau, Kabupaten Belitung, Kepulauan Bangka Belitung";"Kabupaten Belitung, Kepulauan Bangka Belitung";"KEPULAUAN BANGKA BELITUNG";"";"Indonesia";"";"-2.8339555";"107.6784731";"https://maps.google.com/?cid=0x0:0xea3641efb923f372"
"perumahan";"Komplek perumahan";"Perum Faris Residence";"6PQ4+RJW, Jl. Jend. Sudirman, Perawas, Kec. Tj. Pandan, Kabupaten Belitung, Kepulauan Bangka Belitung 33413";"Jl. Jend. Sudirman, Perawas, Kec. Tj. Pandan, Kabupaten Belitung";"KEPULAUAN BANGKA BELITUNG";"33413";"Indonesia";"";"-2.7603807";"107.7065802";"https://maps.google.com/?cid=0x0:0xd8775d7e2d435a29"
"perumahan";"Pembangunan Perumahan";"Batas tempat";"5RM6+7QG, Badau, Kabupaten Belitung, Kepulauan Bangka Belitung";"Kabupaten Belitung, Kepulauan Bangka Belitung";"KEPULAUAN BANGKA BELITUNG";"";"Indonesia";"";"-2.8168098";"107.8119509";"https://maps.google.com/?cid=0x0:0xa16c453e1042f9e"
"perumahan";"Komplek perumahan";"Perumahan divisi 5";"5JMW+MVW, Sungai Samak, Badau, Kabupaten Belitung, Kepulauan Bangka Belitung";"Kabupaten Belitung, Kepulauan Bangka Belitung";"KEPULAUAN BANGKA BELITUNG";"";"Indonesia";"";"-2.816636";"107.64752";"https://maps.google.com/?cid=0x0:0x1abed91b1a8a9baa"
"perumahan";"Pembangunan Perumahan";"NKRI Harga Mati";"Jl. Pesantren No.2, Badau, Kabupaten Belitung, Kepulauan Bangka Belitung 33451";"Badau, Kabupaten Belitung";"KEPULAUAN BANGKA BELITUNG";"33451";"Indonesia";"";"-2.8174902";"107.784988";"https://maps.google.com/?cid=0x0:0x163ac9b7740ca1de"
"perumahan";"Pengembang Realestat";"Perumahan Puri Kirana1";"Batu Itam, Sijuk, Kabupaten Belitung, Kepulauan Bangka Belitung 33415";"Sijuk, Kabupaten Belitung";"KEPULAUAN BANGKA BELITUNG";"33415";"Indonesia";" 081908195005";"-2.6974114";"107.6534999";"https://maps.google.com/?cid=0x0:0x2dcfb67305c19342"
"perumahan";"Perhimpunan Pengembang Perumahan";"Perumahan Angkasa Residence";"Buluh Tumbang, Kec. Tj. Pandan, Kabupaten Belitung, Kepulauan Bangka Belitung 33414";"Kec. Tj. Pandan, Kabupaten Belitung";"KEPULAUAN BANGKA BELITUNG";"33414";"Indonesia";" 081367972368";"-2.7574983";"107.748167";"https://maps.google.com/?cid=0x0:0xc8f0f01d88b221c3"
"perumahan";"Komplek perumahan";"Tesy milenia";"Jl. Pesantren No.2, Badau, Kabupaten Belitung, Kepulauan Bangka Belitung 33451";"Badau, Kabupaten Belitung";"KEPULAUAN BANGKA BELITUNG";"33451";"Indonesia";"";"-2.8170369";"107.7842085";"https://maps.google.com/?cid=0x0:0x60fbeabc60bd93b"
"perumahan";"Pembangunan Perumahan";"Badau";"5QFX+PM2, Badau, Kabupaten Belitung, Kepulauan Bangka Belitung";"Kabupaten Belitung, Kepulauan Bangka Belitung";"KEPULAUAN BANGKA BELITUNG";"";"Indonesia";"";"-2.8257478";"107.7991545";"https://maps.google.com/?cid=0x0:0x2ece830ba6637c08"
"perumahan";"Pembangunan Perumahan";"Batas tempat";"5RM6+7QG, Badau, Kabupaten Belitung, Kepulauan Bangka Belitung";"Kabupaten Belitung, Kepulauan Bangka Belitung";"KEPULAUAN BANGKA BELITUNG";"";"Indonesia";"";"-2.8168098";"107.8119509";"https://maps.google.com/?cid=0x0:0xa16c453e1042f9e"
"perumahan";"perumahan";"Kalimantan Barat 78767";"Kec. Badau, Kabupaten Kapuas Hulu, Kalimantan Barat";"Kabupaten Kapuas Hulu, Kalimantan Barat";"KEPULAUAN BANGKA BELITUNG";"";"Indonesia";"";"0.9466758";"111.9045541";"https://maps.google.com/?cid=0x0:0xaefc603ea36f1a05"
"perumahan";"Komplek perumahan";"Rumah Yosafat Arif Dharmawan";"2VWW+CPC, Jl.Bukit Lesung, Badau, Kec. Badau, Kabupaten Kapuas Hulu, Kalimantan Barat 78767";"Jl.Bukit Lesung, Badau, Kec. Badau, Kabupaten Kapuas Hulu";"KEPULAUAN BANGKA BELITUNG";"78767";"Indonesia";"";"1.0460569";"111.8967613";"https://maps.google.com/?cid=0x0:0x4660381697d29592"
"perumahan";"Kantor Pemerintah";"Perumahan Dinas PLBN BADAU";"Jl. Lintas Kalimantan Poros Utara, Badau, Kec. Badau, Kabupaten Kapuas Hulu, Kalimantan Barat";"Kabupaten Kapuas Hulu, Kalimantan Barat";"KEPULAUAN BANGKA BELITUNG";"";"Indonesia";"";"1.0278877";"111.881089";"https://maps.google.com/?cid=0x0:0xaf9549b4d9c2b6ca"
"perumahan";"Komplek perumahan";"Kontrakan lugina";"2WP3+FX8, lembah murai, Badau, Kec. Badau, Kabupaten Kapuas Hulu, Kalimantan Barat 78767";"lembah murai, Badau, Kec. Badau, Kabupaten Kapuas Hulu";"KEPULAUAN BANGKA BELITUNG";"78767";"Indonesia";"";"1.0354101";"111.9052208";"https://maps.google.com/?cid=0x0:0x983ca5ca8c91bfd5"
"perumahan";"Pembangunan Perumahan";"Pontianak";"2WV2+G9V, Badau, Kec. Badau, Kabupaten Kapuas Hulu, Kalimantan Barat";"Kabupaten Kapuas Hulu, Kalimantan Barat";"KEPULAUAN BANGKA BELITUNG";"";"Indonesia";"";"1.0438547";"111.9009347";"https://maps.google.com/?cid=0x0:0xa74b7a01b3a9f75"
"perumahan";"Pembangunan Perumahan";"Emplasment SRIE";"Kekurak, Kec. Badau, Kabupaten Kapuas Hulu, Kalimantan Barat 78767";"Kec. Badau, Kabupaten Kapuas Hulu";"KEPULAUAN BANGKA BELITUNG";"78767";"Indonesia";"";"0.9648564";"111.8937837";"https://maps.google.com/?cid=0x0:0x63d60d36c44a4ff7"
"perumahan";"Komplek perumahan";"Rumah Ariyo Damar";"Gang sungai badau hilir, Janting, Kec. Badau, Kabupaten Kapuas Hulu, Kalimantan Barat";"Kabupaten Kapuas Hulu, Kalimantan Barat";"KEPULAUAN BANGKA BELITUNG";"";"Indonesia";"";"1.0374922";"111.9087064";"https://maps.google.com/?cid=0x0:0x118a248572f4252e"
"perumahan";"Dinas Kehutanan";"DESA PULAU MAJANG";"VXXR+MWW, Pulau Majang, Kec. Badau, Kabupaten Kapuas Hulu, Kalimantan Barat 78767";"Pulau Majang, Kec. Badau, Kabupaten Kapuas Hulu";"KEPULAUAN BANGKA BELITUNG";"78767";"Indonesia";"";"0.89924";"111.9923249";"https://maps.google.com/?cid=0x0:0x13c999e8fca8eb44"
"perumahan";"Kebun Buah";"HIDROPONIK BADAU";"2VWX+574, Badau, Kec. Badau, Kabupaten Kapuas Hulu, Kalimantan Barat 78767";"Badau, Kec. Badau, Kabupaten Kapuas Hulu";"KEPULAUAN BANGKA BELITUNG";"78767";"Indonesia";"";"1.0462873";"111.8976996";"https://maps.google.com/?cid=0x0:0x40bcb4ea300d4f3e"
"perumahan";"Toko";"Rumah joko prawira";"2WP5+V7, Janting, Kec. Badau, Kabupaten Kapuas Hulu, Kalimantan Barat";"Kabupaten Kapuas Hulu, Kalimantan Barat";"KEPULAUAN BANGKA BELITUNG";"";"Indonesia";"";"1.0372205";"111.9081644";"https://maps.google.com/?cid=0x0:0x31bc8d3b6abde396"
"perumahan";"Perumahan";"RUMAH ABDUL MALIK (BOY VIBO";"2VWX+574, Badau, Kec. Badau, Kabupaten Kapuas Hulu, Kalimantan Barat 78767";"Badau, Kec. Badau, Kabupaten Kapuas Hulu";"KEPULAUAN BANGKA BELITUNG";"78767";"Indonesia";"";"1.0465455";"111.8971715";"https://maps.google.com/?cid=0x0:0x782bd2ac35efbbfa"
"perumahan";"Komplek perumahan";"Ardiana suliwa";"XV2P+XR, Kekurak, Kec. Badau, Kabupaten Kapuas Hulu, Kalimantan Barat";"Kabupaten Kapuas Hulu, Kalimantan Barat";"KEPULAUAN BANGKA BELITUNG";"";"Indonesia";"";"0.9524498";"111.8870589";"https://maps.google.com/?cid=0x0:0xd545ed604669dd52"
"perumahan";"perumahan";"Kepulauan Bangka Belitung 33414";"Kabupaten Belitung, Kepulauan Bangka Belitung";"Kabupaten Belitung, Kepulauan Bangka Belitung";"KEPULAUAN BANGKA BELITUNG";"";"Indonesia";"";"-2.6071144";"107.811";"https://maps.google.com/?cid=0x0:0x861c52d93211b9b4"
"perumahan";"Perumahan";"Griya Permata 4";"Air Seru, Sijuk, Kabupaten Belitung, Kepulauan Bangka Belitung 33414";"Sijuk, Kabupaten Belitung";"KEPULAUAN BANGKA BELITUNG";"33414";"Indonesia";"";"-2.7004222";"107.6799162";"https://maps.google.com/?cid=0x0:0xf0a53c7d0175c1d7"
"perumahan";"Pembangunan Perumahan";"Perumahan Griya Permata Belitung";"Jl. Mualim I, Air Merbau, Kec. Tj. Pandan, Kabupaten Belitung, Kepulauan Bangka Belitung 33414";"Air Merbau, Kec. Tj. Pandan, Kabupaten Belitung";"KEPULAUAN BANGKA BELITUNG";"33414";"Indonesia";" 081278645444";"-2.7161172";"107.6659606";"https://maps.google.com/?cid=0x0:0x41d414b32e7216d8"
"perumahan";"Perumahan rakyat";"Raygustu Pujangga";"9P7F+F2, Air Selumar, Sijuk, Kabupaten Belitung, Kepulauan Bangka Belitung 33414";"Air Selumar, Sijuk, Kabupaten Belitung";"KEPULAUAN BANGKA BELITUNG";"33414";"Indonesia";"";"-2.6363865";"107.7226363";"https://maps.google.com/?cid=0x0:0x65739b8afe207b75"
"perumahan";"Komplek perumahan";"Kavling Taruna Sijuk";"CQ6J+F9R, Sijuk, Kabupaten Belitung, Kepulauan Bangka Belitung 33414";"Sijuk, Kabupaten Belitung";"KEPULAUAN BANGKA BELITUNG";"33414";"Indonesia";"";"-2.5888011";"107.7808398";"https://maps.google.com/?cid=0x0:0x436f92badfa622b6"
"perumahan";"Pembangunan Perumahan";"Keong jomok";"CJ4V+QJR, Tj. Binga, Sijuk, Kabupaten Belitung, Kepulauan Bangka Belitung 33414";"Tj. Binga, Sijuk, Kabupaten Belitung";"KEPULAUAN BANGKA BELITUNG";"33414";"Indonesia";"";"-2.5930184";"107.6440138";"https://maps.google.com/?cid=0x0:0x42e12f8e485eef3e"
"perumahan";"Komplek perumahan";"Perumahan AS Regency";"Gg. Bunga, Air Saga, Kec. Tj. Pandan, Kabupaten Belitung, Kepulauan Bangka Belitung 33414";"Air Saga, Kec. Tj. Pandan, Kabupaten Belitung";"KEPULAUAN BANGKA BELITUNG";"33414";"Indonesia";" 08176665799";"-2.7096017";"107.632316";"https://maps.google.com/?cid=0x0:0x7a8fce3657785d67"
"perumahan";"Perhimpunan Pengembang Perumahan";"Perumahan Angkasa Residence";"Buluh Tumbang, Kec. Tj. Pandan, Kabupaten Belitung, Kepulauan Bangka Belitung 33414";"Kec. Tj. Pandan, Kabupaten Belitung";"KEPULAUAN BANGKA BELITUNG";"33414";"Indonesia";" 081367972368";"-2.7574983";"107.748167";"https://maps.google.com/?cid=0x0:0xc8f0f01d88b221c3"
"perumahan";"Penginapan";"Perumahan Sumber Jaya C";"7MH4+2JM Perumahan Sumber Jaya C, Jl. Selembat Lama, Air Merbau, Kec. Tj. Pandan, Kabupaten Belitung, Kepulauan Bangka Belitung 33414";"Jl. Selembat Lama, Air Merbau, Kec. Tj. Pandan, Kabupaten Belitung";"KEPULAUAN BANGKA BELITUNG";"33414";"Indonesia";"";"-2.7224153";"107.6565573";"https://maps.google.com/?cid=0x0:0x8fa8c66c9d09f4f8"
"perumahan";"Pembangunan Perumahan";"PADANG KELARIN";"CW34+4X, Sungai Padang, Sijuk, Kabupaten Belitung, Kepulauan Bangka Belitung 33414";"Sungai Padang, Sijuk, Kabupaten Belitung";"KEPULAUAN BANGKA BELITUNG";"33414";"Indonesia";"";"-2.5972161";"107.9074034";"https://maps.google.com/?cid=0x0:0x6b9a0833e77db2f1"
"perumahan";"perumahan";"Rumdin Imigrasi Griya Permata II";"7MP8+3G6, Jl. Mualim I, Air Merbau, Kec. Tj. Pandan, Kabupaten Belitung, Kepulauan Bangka Belitung";"Kabupaten Belitung, Kepulauan Bangka Belitung";"KEPULAUAN BANGKA BELITUNG";"";"Indonesia";"";"-2.7150546";"107.6662312";"https://maps.google.com/?cid=0x0:0x391397de41f1de99"
"perumahan";"Pembangunan Perumahan";"MOSKA";"Jl. Sijuk No.39, Air Merbau, Sijuk, Kabupaten Belitung, Kepulauan Bangka Belitung 33414";"Air Merbau, Sijuk, Kabupaten Belitung";"KEPULAUAN BANGKA BELITUNG";"33414";"Indonesia";"";"-2.7111757";"107.677206";"https://maps.google.com/?cid=0x0:0xfb62b7a1cc964473"
"perumahan";"Komplek perumahan";"EKI FEBRIANTO";"9P46+4XM, Air Seru, Sijuk, Kabupaten Belitung, Kepulauan Bangka Belitung 33414";"Air Seru, Sijuk, Kabupaten Belitung";"KEPULAUAN BANGKA BELITUNG";"33414";"Indonesia";"";"-2.6446545";"107.7124296";"https://maps.google.com/?cid=0x0:0xa6cb9a7361b88357"
"perumahan";"Perhimpunan Pengembang Perumahan";"Perumahan Sastra";"7M44+698, Lesung Batang, Kec. Tj. Pandan, Kabupaten Belitung, Kepulauan Bangka Belitung 33412";"Lesung Batang, Kec. Tj. Pandan, Kabupaten Belitung";"KEPULAUAN BANGKA BELITUNG";"33412";"Indonesia";"";"-2.7444641";"107.6559642";"https://maps.google.com/?cid=0x0:0xae3e8df2cda0688c"
"perumahan";"perumahan";"Kepulauan Bangka Belitung 33481";"Kec. Selat Nasik, Kabupaten Belitung, Kepulauan Bangka Belitung";"Kabupaten Belitung, Kepulauan Bangka Belitung";"KEPULAUAN BANGKA BELITUNG";"";"Indonesia";"";"-2.888958";"107.4203669";"https://maps.google.com/?cid=0x0:0xbd0c15da0ad4675d"
"perumahan";"Kompleks Apartemen";"Nek Fatimah";"39RW+JMG, Jalan Masjid, RT.003 RW002/RW.No 12, Suak Gual, Kec. Selat Nasik, Kabupaten Belitung, Kepulauan Bangka Belitung 33481";"Jalan Masjid, RT.003 RW002/RW.No 12, Suak Gual, Kec. Selat Nasik, Kabupaten Belitung";"KEPULAUAN BANGKA BELITUNG";"33481";"Indonesia";"";"-2.9084446";"107.3967105";"https://maps.google.com/?cid=0x0:0xa836a4e1c09411ad"
"perumahan";"Pembangunan Perumahan";"Suryadi selat nasik";"Jl. Pak Tahau No.dalam rt18, RW.9, Air Saga, Kec. Tj. Pandan, Kabupaten Belitung, Kepulauan Bangka Belitung 33411";"RW.9, Air Saga, Kec. Tj. Pandan, Kabupaten Belitung";"KEPULAUAN BANGKA BELITUNG";"33411";"Indonesia";"";"-2.7057708";"107.631127";"https://maps.google.com/?cid=0x0:0x78172d4371e018de"
"perumahan";"Peternakan Sapi";"kandang sapi";"5C89+JR6, Selat Nasik, Kec. Selat Nasik, Kabupaten Belitung, Kepulauan Bangka Belitung 33481";"Selat Nasik, Kec. Selat Nasik, Kabupaten Belitung";"KEPULAUAN BANGKA BELITUNG";"33481";"Indonesia";"";"-2.836194";"107.4169849";"https://maps.google.com/?cid=0x0:0x54fba9eabf27652b"
"perumahan";"Komplek perumahan";"MESS Mendanau";"5C67+RGX, Selat Nasik, Kec. Selat Nasik, Kabupaten Belitung, Kepulauan Bangka Belitung 33481";"Selat Nasik, Kec. Selat Nasik, Kabupaten Belitung";"KEPULAUAN BANGKA BELITUNG";"33481";"Indonesia";"";"-2.8378759";"107.4138475";"https://maps.google.com/?cid=0x0:0x66dcfd515e25b1ea"
"perumahan";"Pembangunan Perumahan";"Puja";"RT03 Rw01 kecamatan Desa, Selat Nasik, Kec. Selat Nasik, Kabupaten Belitung, Kepulauan Bangka Belitung 33481";"Selat Nasik, Kec. Selat Nasik, Kabupaten Belitung";"KEPULAUAN BANGKA BELITUNG";"33481";"Indonesia";"";"-2.8326692";"107.4190583";"https://maps.google.com/?cid=0x0:0x68aa63c566d085b"
"perumahan";"Pembangunan Perumahan";"KUB WARGA NELAYAN";"4C4X+MR, Petaling, Kec. Selat Nasik, Kabupaten Belitung, Kepulauan Bangka Belitung";"Kabupaten Belitung, Kepulauan Bangka Belitung";"KEPULAUAN BANGKA BELITUNG";"";"Indonesia";"";"-2.8943732";"107.4479609";"https://maps.google.com/?cid=0x0:0x3f9b89714fe2d255"
"perumahan";"perumahan";"Simpang tige";"4F65+H4Q, RT.05/RW.02, jalan Kartini, Kec. Selat Nasik, Kabupaten Belitung, Kepulauan Bangka Belitung";"Kabupaten Belitung, Kepulauan Bangka Belitung";"KEPULAUAN BANGKA BELITUNG";"";"Indonesia";"";"-2.8885341";"107.457859";"https://maps.google.com/?cid=0x0:0xf079b488173ec55f"
"perumahan";"Rumah Sakit";"Puskesmas Selat Nasik";"5C67+F2Q, Selat Nasik, Kec. Selat Nasik, Kabupaten Belitung, Kepulauan Bangka Belitung 33481";"Selat Nasik, Kec. Selat Nasik, Kabupaten Belitung";"KEPULAUAN BANGKA BELITUNG";"33481";"Indonesia";"";"-2.8387866";"107.4126039";"https://maps.google.com/?cid=0x0:0x4df06b70fa799ab8"
"perumahan";"Kantor Pemerintah";"Desa wisata suak gual";"Jl. Pelabuhan, RT.04 Rw01, Suak Gual, Kec. Selat Nasik, Kabupaten Belitung, Kepulauan Bangka Belitung 33481";"RT.04 Rw01, Suak Gual, Kec. Selat Nasik, Kabupaten Belitung";"KEPULAUAN BANGKA BELITUNG";"33481";"Indonesia";" 082178604041";"-2.9084446";"107.3967105";"https://maps.google.com/?cid=0x0:0xa16c010b961b5212"
"perumahan";"Hotel";"Homestay Rirek.";"39MP+4MF, Jalan Gg Duku Desa, RT.04/RW.01, Suak Gual, Kec. Selat Nasik, Kabupaten Belitung, Kepulauan Bangka Belitung 33481";"Jalan Gg Duku Desa, RT.04/RW.01, Suak Gual, Kec. Selat Nasik, Kabupaten Belitung";"KEPULAUAN BANGKA BELITUNG";"33481";"Indonesia";" 081929599535";"-2.9171814";"107.3866612";"https://maps.google.com/?cid=0x0:0x4cac75448d8b9a18"
"perumahan";"";"勿里洞 珍珠养殖";"4FQP+Q9, Kec. Selat Nasik, Kabupaten Belitung, Kepulauan Bangka Belitung";"Kabupaten Belitung, Kepulauan Bangka Belitung";"KEPULAUAN BANGKA BELITUNG";"";"Indonesia";"";"-2.8605922";"107.4859284";"https://maps.google.com/?cid=0x0:0x65a78f633a497610"
"perumahan";"Kafe";"Warkop Rumah Tempo Dulu";"39MP+6V6, Suak Gual, Kec. Selat Nasik, Kabupaten Belitung, Kepulauan Bangka Belitung 33481";"Suak Gual, Kec. Selat Nasik, Kabupaten Belitung";"KEPULAUAN BANGKA BELITUNG";"33481";"Indonesia";" 081949101116";"-2.9169639";"107.3871479";"https://maps.google.com/?cid=0x0:0x536834f846fc9c41"
"perumahan";"Dapur Umum";"Catering Mak Juy";"Jl. A Gapur, RT.010/RW.004, Selat Nasik, Kec. Selat Nasik, Kabupaten Belitung, Kepulauan Bangka Belitung 33481";"RT.010/RW.004, Selat Nasik, Kec. Selat Nasik, Kabupaten Belitung";"KEPULAUAN BANGKA BELITUNG";"33481";"Indonesia";" 083175470910";"-2.8383603";"107.4129371";"https://maps.google.com/?cid=0x0:0x947cc895bb91bbec"
"housing complex";"housing complex";"Membalong";"Membalong, Kabupaten Belitung, Kepulauan Bangka Belitung";"Kabupaten Belitung, Kepulauan Bangka Belitung";"KEPULAUAN BANGKA BELITUNG";"";"Indonesia";"";"-3.128547";"107.650703";"https://maps.google.com/?cid=0x0:0x4039d80b2210490"
"housing complex";"Pembangunan Perumahan";"Kampong ulim";"VMC2+H7P, Membalong, Kabupaten Belitung, Kepulauan Bangka Belitung";"Kabupaten Belitung, Kepulauan Bangka Belitung";"KEPULAUAN BANGKA BELITUNG";"";"Indonesia";"";"-3.128547";"107.650703";"https://maps.google.com/?cid=0x0:0x1c97f9bda78976a1"
"housing complex";"Kantor Pemerintah";"desa perpat";"VMC2+H7P, Membalong, Kabupaten Belitung, Kepulauan Bangka Belitung";"Kabupaten Belitung, Kepulauan Bangka Belitung";"KEPULAUAN BANGKA BELITUNG";"";"Indonesia";"";"-3.128547";"107.650703";"https://maps.google.com/?cid=0x0:0x6647e1348500345e"
"housing complex";"housing complex";"Kepulauan Bangka Belitung 33411";"Kabupaten Belitung, Kepulauan Bangka Belitung";"Kabupaten Belitung, Kepulauan Bangka Belitung";"KEPULAUAN BANGKA BELITUNG";"";"Indonesia";"";"-2.7693884";"107.7517775";"https://maps.google.com/?cid=0x0:0xa4727ada9d297546"
"housing complex";"Komplek perumahan";"EW House";"Jl. Air Serkuk, Air Saga, Kec. Tj. Pandan, Kabupaten Belitung, Kepulauan Bangka Belitung 33411";"Air Saga, Kec. Tj. Pandan, Kabupaten Belitung";"KEPULAUAN BANGKA BELITUNG";"33411";"Indonesia";"";"-2.7105561";"107.6425882";"https://maps.google.com/?cid=0x0:0x1f67e4eaa1b4d61d"
"housing complex";"housing complex";"Lili";"6MXQ+749, Perawas, Kec. Tj. Pandan, Kabupaten Belitung, Kepulauan Bangka Belitung 33411";"Perawas, Kec. Tj. Pandan, Kabupaten Belitung";"KEPULAUAN BANGKA BELITUNG";"33411";"Indonesia";"";"-2.7518483";"107.6884385";"https://maps.google.com/?cid=0x0:0x52c072fa687e0646"
"housing complex";"Komplek perumahan";"Perum Faris Residence";"6PQ4+RJW, Jl. Jend. Sudirman, Perawas, Kec. Tj. Pandan, Kabupaten Belitung, Kepulauan Bangka Belitung 33413";"Jl. Jend. Sudirman, Perawas, Kec. Tj. Pandan, Kabupaten Belitung";"KEPULAUAN BANGKA BELITUNG";"33413";"Indonesia";"";"-2.7603807";"107.7065802";"https://maps.google.com/?cid=0x0:0xd8775d7e2d435a29"
"housing complex";"Pembangunan Perumahan";"winny house";"7M83+RH8, Air Merbau, Kec. Tj. Pandan, Kabupaten Belitung, Kepulauan Bangka Belitung 33411";"Air Merbau, Kec. Tj. Pandan, Kabupaten Belitung";"KEPULAUAN BANGKA BELITUNG";"33411";"Indonesia";"";"-2.7329652";"107.6539641";"https://maps.google.com/?cid=0x0:0x40a41eb0662ba8c5"
"housing complex";"Perumahan";"Perumahan Palem Permai";"7JHM+XH5, Jl. H Munir, Air Saga, Kec. Tj. Pandan, Kabupaten Belitung, Kepulauan Bangka Belitung 33411";"Jl. H Munir, Air Saga, Kec. Tj. Pandan, Kabupaten Belitung";"KEPULAUAN BANGKA BELITUNG";"33411";"Indonesia";"";"-2.7201118";"107.6339915";"https://maps.google.com/?cid=0x0:0x43c157a90372a7e9"
"housing complex";"Komplek perumahan";"My hum";"7JCQ+VFW, Jl. Mat Yasin, Parit, Kec. Tj. Pandan, Kabupaten Belitung, Kepulauan Bangka Belitung 33411";"Jl. Mat Yasin, Parit, Kec. Tj. Pandan, Kabupaten Belitung";"KEPULAUAN BANGKA BELITUNG";"33411";"Indonesia";"";"-2.7277612";"107.6386979";"https://maps.google.com/?cid=0x0:0x3003bda0641eb624"
"housing complex";"Komplek perumahan";"Mess Staff";"7JGR+MVQ, Paal Satu, Kec. Tj. Pandan, Kabupaten Belitung, Kepulauan Bangka Belitung 33411";"Paal Satu, Kec. Tj. Pandan, Kabupaten Belitung";"KEPULAUAN BANGKA BELITUNG";"33411";"Indonesia";"";"-2.7223078";"107.6424776";"https://maps.google.com/?cid=0x0:0x1695c41941b03b31"
"housing complex";"Komplek perumahan";"Mes BGI cabang tanjungpandan";"7M74+H9M, Air Merbau, Kec. Tj. Pandan, Kabupaten Belitung, Kepulauan Bangka Belitung 33411";"Air Merbau, Kec. Tj. Pandan, Kabupaten Belitung";"KEPULAUAN BANGKA BELITUNG";"33411";"Indonesia";"";"-2.73608";"107.6556838";"https://maps.google.com/?cid=0x0:0xdbf86ba771e4f9f5"
"housing complex";"Komplek perumahan";"Vial house";"7JCM+C2G, Tj. Pendam, Kec. Tj. Pandan, Kabupaten Belitung, Kepulauan Bangka Belitung 33411";"Tj. Pendam, Kec. Tj. Pandan, Kabupaten Belitung";"KEPULAUAN BANGKA BELITUNG";"33411";"Indonesia";"";"-2.728926";"107.6325997";"https://maps.google.com/?cid=0x0:0x51d6f3e08b6e275f"
"housing complex";"Komplek perumahan";"PERUMAHAN TEDI BONG NO. BA";"7MH3+9VX, Paal Satu, Kec. Tj. Pandan, Kabupaten Belitung, Kepulauan Bangka Belitung 33411";"Paal Satu, Kec. Tj. Pandan, Kabupaten Belitung";"KEPULAUAN BANGKA BELITUNG";"33411";"Indonesia";"";"-2.7215218";"107.6547202";"https://maps.google.com/?cid=0x0:0x5f8dc9a2b05ca1fa"
"housing complex";"Komplek perumahan";"Perumahan Pakuwon Indah";"Jl. Air Pelempang Indah No.14, Paal Satu, Kec. Tj. Pandan, Kabupaten Belitung, Kepulauan Bangka Belitung 33411";"Paal Satu, Kec. Tj. Pandan, Kabupaten Belitung";"KEPULAUAN BANGKA BELITUNG";"33411";"Indonesia";"";"-2.7155314";"107.6548302";"https://maps.google.com/?cid=0x0:0xd8d353fc9f00f065"
"housing complex";"Komplek perumahan";"Babul Home";"Jl. Mat Yasin No.34, RT.25/RW.12, Parit, Kec. Tj. Pandan, Kabupaten Belitung, Kepulauan Bangka Belitung 33411";"RT.25/RW.12, Parit, Kec. Tj. Pandan, Kabupaten Belitung";"KEPULAUAN BANGKA BELITUNG";"33411";"Indonesia";"";"-2.7265097";"107.6382653";"https://maps.google.com/?cid=0x0:0x4b4da4f490b798a0"
"housing complex";"Perhimpunan Pengembang Perumahan";"Perumahan Sastra";"7M44+698, Lesung Batang, Kec. Tj. Pandan, Kabupaten Belitung, Kepulauan Bangka Belitung 33412";"Lesung Batang, Kec. Tj. Pandan, Kabupaten Belitung";"KEPULAUAN BANGKA BELITUNG";"33412";"Indonesia";"";"-2.7444641";"107.6559642";"https://maps.google.com/?cid=0x0:0xae3e8df2cda0688c"
"housing complex";"housing complex";"Kepulauan Bangka Belitung 33412";"Kec. Tj. Pandan, Kabupaten Belitung, Kepulauan Bangka Belitung";"Kabupaten Belitung, Kepulauan Bangka Belitung";"KEPULAUAN BANGKA BELITUNG";"";"Indonesia";"";"-2.7493048";"107.665927";"https://maps.google.com/?cid=0x0:0xa2d16aac79151bde"
"housing complex";"housing complex";"Pasar";"7M53+85Q, Lesung Batang, Kec. Tj. Pandan, Kabupaten Belitung, Kepulauan Bangka Belitung";"Kabupaten Belitung, Kepulauan Bangka Belitung";"KEPULAUAN BANGKA BELITUNG";"";"Indonesia";"";"-2.7416678";"107.6529988";"https://maps.google.com/?cid=0x0:0xd85541479c122687"
"housing complex";"Perhimpunan Pengembang Perumahan";"JAPM House";"Air Merbau, Kec. Tj. Pandan, Kabupaten Belitung, Kepulauan Bangka Belitung 33414";"Kec. Tj. Pandan, Kabupaten Belitung";"KEPULAUAN BANGKA BELITUNG";"33414";"Indonesia";"";"-2.7274424";"107.664692";"https://maps.google.com/?cid=0x0:0xb26a4e9a01df1e5a"
"housing complex";"Perhimpunan Pengembang Perumahan";"Perumahan Sastra";"7M44+698, Lesung Batang, Kec. Tj. Pandan, Kabupaten Belitung, Kepulauan Bangka Belitung 33412";"Lesung Batang, Kec. Tj. Pandan, Kabupaten Belitung";"KEPULAUAN BANGKA BELITUNG";"33412";"Indonesia";"";"-2.7444641";"107.6559642";"https://maps.google.com/?cid=0x0:0xae3e8df2cda0688c"
"housing complex";"Pembangunan Perumahan";"Perumahan Belitung Hijau 3";"6MM4+QV6, Jl. Dukong, Dukong, Kec. Tj. Pandan, Kabupaten Belitung, Kepulauan Bangka Belitung 33417";"Jl. Dukong, Dukong, Kec. Tj. Pandan, Kabupaten Belitung";"KEPULAUAN BANGKA BELITUNG";"33417";"Indonesia";" 081287121099";"-2.7655829";"107.6571383";"https://maps.google.com/?cid=0x0:0x2a5689d84f1cfa00"
"housing complex";"Perhimpunan Pengembang Perumahan";"HCP";"7M47+JRG, Jl. Hasan Saie, Perawas, Kec. Tj. Pandan, Kabupaten Belitung, Kepulauan Bangka Belitung 33412";"Jl. Hasan Saie, Perawas, Kec. Tj. Pandan, Kabupaten Belitung";"KEPULAUAN BANGKA BELITUNG";"33412";"Indonesia";"";"-2.7435823";"107.6644214";"https://maps.google.com/?cid=0x0:0xf83a9008698ef6e6"
"housing complex";"Komplek perumahan";"Mes BGI cabang tanjungpandan";"7M74+H9M, Air Merbau, Kec. Tj. Pandan, Kabupaten Belitung, Kepulauan Bangka Belitung 33411";"Air Merbau, Kec. Tj. Pandan, Kabupaten Belitung";"KEPULAUAN BANGKA BELITUNG";"33411";"Indonesia";"";"-2.73608";"107.6556838";"https://maps.google.com/?cid=0x0:0xdbf86ba771e4f9f5"
"housing complex";"";"Pakwo house";"Jl. Bhenneka I Jl. Kerejan No.6, RT./RW/RW.8/03, Air Merbau, Kec. Tj. Pandan, Kabupaten Belitung, Kepulauan Bangka Belitung 33414";"RT./RW/RW.8/03, Air Merbau, Kec. Tj. Pandan, Kabupaten Belitung";"KEPULAUAN BANGKA BELITUNG";"33414";"Indonesia";"";"-2.7293562";"107.665576";"https://maps.google.com/?cid=0x0:0x91cb0637b348268a"
"housing complex";"Komplek perumahan";"Komplek TNI AU "Garuda"";"Jl. Gaparman No.10-12, Lesung Batang, Kec. Tj. Pandan, Kabupaten Belitung, Kepulauan Bangka Belitung 33411";"Lesung Batang, Kec. Tj. Pandan, Kabupaten Belitung";"KEPULAUAN BANGKA BELITUNG";"33411";"Indonesia";"";"-2.7441508";"107.6534512";"https://maps.google.com/?cid=0x0:0x698343ecf16a1e88"
"housing complex";"housing complex";"Lili";"6MXQ+749, Perawas, Kec. Tj. Pandan, Kabupaten Belitung, Kepulauan Bangka Belitung 33411";"Perawas, Kec. Tj. Pandan, Kabupaten Belitung";"KEPULAUAN BANGKA BELITUNG";"33411";"Indonesia";"";"-2.7518483";"107.6884385";"https://maps.google.com/?cid=0x0:0x52c072fa687e0646"
"housing complex";"Pembangunan Perumahan";"Tanah  Bangunan CELS";"Jl. Cempedak No.19, Perawas, Kec. Tj. Pandan, Kabupaten Belitung, Kepulauan Bangka Belitung 33413";"Perawas, Kec. Tj. Pandan, Kabupaten Belitung";"KEPULAUAN BANGKA BELITUNG";"33413";"Indonesia";"";"-2.7495286";"107.6774316";"https://maps.google.com/?cid=0x0:0xb9bce445698b5d07"
"housing complex";"Tempat Ibadah";"Suhu Akiong";"Perawas, Kec. Tj. Pandan, Kabupaten Belitung, Kepulauan Bangka Belitung 33412";"Kec. Tj. Pandan, Kabupaten Belitung";"KEPULAUAN BANGKA BELITUNG";"33412";"Indonesia";"";"-2.7417841";"107.6652005";"https://maps.google.com/?cid=0x0:0xa7974db7140e970c"
"housing complex";"Komplek perumahan";"KS House";"6MH6+X6X, Jl. Dukong, Dukong, Kec. Tj. Pandan, Kabupaten Belitung, Kepulauan Bangka Belitung 33417";"Jl. Dukong, Dukong, Kec. Tj. Pandan, Kabupaten Belitung";"KEPULAUAN BANGKA BELITUNG";"33417";"Indonesia";"";"-2.7700243";"107.6606068";"https://maps.google.com/?cid=0x0:0x42e3ed8b36bc259c"
"housing complex";"Komplek perumahan";"Habibie Autism's House";"Jl. KH Ahmad Dahlan No.1, RT.024/RW.009, Perawas, Kec. Tj. Pandan, Kabupaten Belitung, Kepulauan Bangka Belitung 33412";"RT.024/RW.009, Perawas, Kec. Tj. Pandan, Kabupaten Belitung";"KEPULAUAN BANGKA BELITUNG";"33412";"Indonesia";"";"-2.7489718";"107.6677097";"https://maps.google.com/?cid=0x0:0xefd89b6586970cc4"
"housing complex";"housing complex";"Kepulauan Bangka Belitung 33413";"Kec. Tj. Pandan, Kabupaten Belitung, Kepulauan Bangka Belitung";"Kabupaten Belitung, Kepulauan Bangka Belitung";"KEPULAUAN BANGKA BELITUNG";"";"Indonesia";"";"-2.7462491";"107.7103291";"https://maps.google.com/?cid=0x0:0x7ee919762ad4f944"
"housing complex";"Komplek perumahan";"Perum Faris Residence";"6PQ4+RJW, Jl. Jend. Sudirman, Perawas, Kec. Tj. Pandan, Kabupaten Belitung, Kepulauan Bangka Belitung 33413";"Jl. Jend. Sudirman, Perawas, Kec. Tj. Pandan, Kabupaten Belitung";"KEPULAUAN BANGKA BELITUNG";"33413";"Indonesia";"";"-2.7603807";"107.7065802";"https://maps.google.com/?cid=0x0:0xd8775d7e2d435a29"
"housing complex";"housing complex";"Lili";"6MXQ+749, Perawas, Kec. Tj. Pandan, Kabupaten Belitung, Kepulauan Bangka Belitung 33411";"Perawas, Kec. Tj. Pandan, Kabupaten Belitung";"KEPULAUAN BANGKA BELITUNG";"33411";"Indonesia";"";"-2.7518483";"107.6884385";"https://maps.google.com/?cid=0x0:0x52c072fa687e0646"
"housing complex";"Taman";"Danau biru estate";"7M9M+HQQ, Perawas, Kec. Tj. Pandan, Kabupaten Belitung, Kepulauan Bangka Belitung 33414";"Perawas, Kec. Tj. Pandan, Kabupaten Belitung";"KEPULAUAN BANGKA BELITUNG";"33414";"Indonesia";"";"-2.7310381";"107.6844844";"https://maps.google.com/?cid=0x0:0xac682dd4dd66c1fb"
"housing complex";"Komplek perumahan";"EW House";"Jl. Air Serkuk, Air Saga, Kec. Tj. Pandan, Kabupaten Belitung, Kepulauan Bangka Belitung 33411";"Air Saga, Kec. Tj. Pandan, Kabupaten Belitung";"KEPULAUAN BANGKA BELITUNG";"33411";"Indonesia";"";"-2.7105561";"107.6425882";"https://maps.google.com/?cid=0x0:0x1f67e4eaa1b4d61d"
"housing complex";"Komplek perumahan";"Bedeng";"7M8M+95P, Perawas, Kec. Tj. Pandan, Kabupaten Belitung, Kepulauan Bangka Belitung 33414";"Perawas, Kec. Tj. Pandan, Kabupaten Belitung";"KEPULAUAN BANGKA BELITUNG";"33414";"Indonesia";"";"-2.7339297";"107.6822284";"https://maps.google.com/?cid=0x0:0x3a1afc37437622c"
"housing complex";"Pembangunan Perumahan";"Home me";"6QJ2+6PR, Buluh Tumbang, Kec. Tj. Pandan, Kabupaten Belitung, Kepulauan Bangka Belitung";"Kabupaten Belitung, Kepulauan Bangka Belitung";"KEPULAUAN BANGKA BELITUNG";"";"Indonesia";"";"-2.7693884";"107.7517775";"https://maps.google.com/?cid=0x0:0x7c02a21116527738"
"housing complex";"Pembangunan Perumahan";"Pak indrawan";"6PRR+F85, Buluh Tumbang, Kec. Tj. Pandan, Kabupaten Belitung, Kepulauan Bangka Belitung";"Kabupaten Belitung, Kepulauan Bangka Belitung";"KEPULAUAN BANGKA BELITUNG";"";"Indonesia";"";"-2.7588684";"107.7408536";"https://maps.google.com/?cid=0x0:0x981e13b48ef67e4a"
"housing complex";"Kantor Perusahaan";"Mess";"7M2V+65G, Jl. Jend. Sudirman, Perawas, Kec. Tj. Pandan, Kabupaten Belitung, Kepulauan Bangka Belitung 33413";"Jl. Jend. Sudirman, Perawas, Kec. Tj. Pandan, Kabupaten Belitung";"KEPULAUAN BANGKA BELITUNG";"33413";"Indonesia";"";"-2.7494432";"107.6933041";"https://maps.google.com/?cid=0x0:0x1b24e4dffd9984ff"
"housing complex";"Pembangunan Perumahan";"Sapo Ekkles";"7M5G+984, Jl. Jend. Sudirman, RT.35/RW.12, AIK raya, Kec. Tj. Pandan, Kabupaten Belitung, Kepulauan Bangka Belitung 33411";"Jl. Jend. Sudirman, RT.35/RW.12, AIK raya, Kec. Tj. Pandan, Kabupaten Belitung";"KEPULAUAN BANGKA BELITUNG";"33411";"Indonesia";"";"-2.7416021";"107.6758375";"https://maps.google.com/?cid=0x0:0x8b8a9e282615cfe1"
"housing complex";"Pembangunan Perumahan";"Tanah kavling";"Air Merbau, Kec. Tj. Pandan, Kabupaten Belitung, Kepulauan Bangka Belitung";"Kabupaten Belitung, Kepulauan Bangka Belitung";"KEPULAUAN BANGKA BELITUNG";"";"Indonesia";"";"-2.7114195";"107.6796077";"https://maps.google.com/?cid=0x0:0x3802450ad445a747"
"housing complex";"Komplek perumahan";"Mutiara Kavling2";"Jl. Padat Karya II, Air Merbau, Kec. Tj. Pandan, Kabupaten Belitung, Kepulauan Bangka Belitung";"Kabupaten Belitung, Kepulauan Bangka Belitung";"KEPULAUAN BANGKA BELITUNG";"";"Indonesia";"";"-2.7168138";"107.6800801";"https://maps.google.com/?cid=0x0:0x137dfefa0b8ddc85"
"housing complex";"Perumahan";"Perumahan Ketakong Indah residence 3";"Jl. Mualim I, Air Merbau, Kec. Tj. Pandan, Kabupaten Belitung, Kepulauan Bangka Belitung";"Kabupaten Belitung, Kepulauan Bangka Belitung";"KEPULAUAN BANGKA BELITUNG";"";"Indonesia";" 081929797329";"-2.7114904";"107.6620604";"https://maps.google.com/?cid=0x0:0x9559276b1ab369e8"
"housing complex";"Komplek perumahan";"Basari Home";"7M3P+7V7, Jl. Jend. Sudirman, Perawas, Kec. Tj. Pandan, Kabupaten Belitung, Kepulauan Bangka Belitung 33413";"Jl. Jend. Sudirman, Perawas, Kec. Tj. Pandan, Kabupaten Belitung";"KEPULAUAN BANGKA BELITUNG";"33413";"Indonesia";"";"-2.7467635";"107.6870807";"https://maps.google.com/?cid=0x0:0xf1554e6949439963"
"housing complex";"housing complex";"Tanjung Pandan";"Kec. Tj. Pandan, Kabupaten Belitung, Kepulauan Bangka Belitung";"Kabupaten Belitung, Kepulauan Bangka Belitung";"KEPULAUAN BANGKA BELITUNG";"";"Indonesia";"";"-2.7416678";"107.6529988";"https://maps.google.com/?cid=0x0:0x4039d80b2210300"
"housing complex";"housing complex";"Pasar";"7M53+85Q, Lesung Batang, Kec. Tj. Pandan, Kabupaten Belitung, Kepulauan Bangka Belitung";"Kabupaten Belitung, Kepulauan Bangka Belitung";"KEPULAUAN BANGKA BELITUNG";"";"Indonesia";"";"-2.7416678";"107.6529988";"https://maps.google.com/?cid=0x0:0xd85541479c122687"
"housing complex";"Perhimpunan Pengembang Perumahan";"JAPM House";"Air Merbau, Kec. Tj. Pandan, Kabupaten Belitung, Kepulauan Bangka Belitung 33414";"Kec. Tj. Pandan, Kabupaten Belitung";"KEPULAUAN BANGKA BELITUNG";"33414";"Indonesia";"";"-2.7274424";"107.664692";"https://maps.google.com/?cid=0x0:0xb26a4e9a01df1e5a"
"housing complex";"Perumahan";"Perumahan Palem Permai";"7JHM+XH5, Jl. H Munir, Air Saga, Kec. Tj. Pandan, Kabupaten Belitung, Kepulauan Bangka Belitung 33411";"Jl. H Munir, Air Saga, Kec. Tj. Pandan, Kabupaten Belitung";"KEPULAUAN BANGKA BELITUNG";"33411";"Indonesia";"";"-2.7201118";"107.6339915";"https://maps.google.com/?cid=0x0:0x43c157a90372a7e9"
"housing complex";"Pembangunan Perumahan";"winny house";"7M83+RH8, Air Merbau, Kec. Tj. Pandan, Kabupaten Belitung, Kepulauan Bangka Belitung 33411";"Air Merbau, Kec. Tj. Pandan, Kabupaten Belitung";"KEPULAUAN BANGKA BELITUNG";"33411";"Indonesia";"";"-2.7329652";"107.6539641";"https://maps.google.com/?cid=0x0:0x40a41eb0662ba8c5"
"housing complex";"Komplek perumahan";"SawdahShtefia";"Jl. Kamboja II No.14, RT.24/RW.10, Pangkal Lalang, Kec. Tj. Pandan, Kabupaten Belitung, Kepulauan Bangka Belitung 33412";"RT.24/RW.10, Pangkal Lalang, Kec. Tj. Pandan, Kabupaten Belitung";"KEPULAUAN BANGKA BELITUNG";"33412";"Indonesia";"";"-2.7420642";"107.6436773";"https://maps.google.com/?cid=0x0:0x8eba3f279218f042"
"housing complex";"Perhimpunan Pengembang Perumahan";"Perumahan Sastra";"7M44+698, Lesung Batang, Kec. Tj. Pandan, Kabupaten Belitung, Kepulauan Bangka Belitung 33412";"Lesung Batang, Kec. Tj. Pandan, Kabupaten Belitung";"KEPULAUAN BANGKA BELITUNG";"33412";"Indonesia";"";"-2.7444641";"107.6559642";"https://maps.google.com/?cid=0x0:0xae3e8df2cda0688c"
"housing complex";"";"Pakwo house";"Jl. Bhenneka I Jl. Kerejan No.6, RT./RW/RW.8/03, Air Merbau, Kec. Tj. Pandan, Kabupaten Belitung, Kepulauan Bangka Belitung 33414";"RT./RW/RW.8/03, Air Merbau, Kec. Tj. Pandan, Kabupaten Belitung";"KEPULAUAN BANGKA BELITUNG";"33414";"Indonesia";"";"-2.7293562";"107.665576";"https://maps.google.com/?cid=0x0:0x91cb0637b348268a"
"housing complex";"Komplek perumahan";"My hum";"7JCQ+VFW, Jl. Mat Yasin, Parit, Kec. Tj. Pandan, Kabupaten Belitung, Kepulauan Bangka Belitung 33411";"Jl. Mat Yasin, Parit, Kec. Tj. Pandan, Kabupaten Belitung";"KEPULAUAN BANGKA BELITUNG";"33411";"Indonesia";"";"-2.7277612";"107.6386979";"https://maps.google.com/?cid=0x0:0x3003bda0641eb624"
"housing complex";"Pembangunan Perumahan";"Tanah kavling";"Air Merbau, Kec. Tj. Pandan, Kabupaten Belitung, Kepulauan Bangka Belitung";"Kabupaten Belitung, Kepulauan Bangka Belitung";"KEPULAUAN BANGKA BELITUNG";"";"Indonesia";"";"-2.7114195";"107.6796077";"https://maps.google.com/?cid=0x0:0x3802450ad445a747"
"housing complex";"Taman";"Danau biru estate";"7M9M+HQQ, Perawas, Kec. Tj. Pandan, Kabupaten Belitung, Kepulauan Bangka Belitung 33414";"Perawas, Kec. Tj. Pandan, Kabupaten Belitung";"KEPULAUAN BANGKA BELITUNG";"33414";"Indonesia";"";"-2.7310381";"107.6844844";"https://maps.google.com/?cid=0x0:0xac682dd4dd66c1fb"
"housing complex";"Komplek perumahan";"Perumahan Belitung Hijau";"Dukong, Kec. Tj. Pandan, Kabupaten Belitung, Kepulauan Bangka Belitung 33411";"Kec. Tj. Pandan, Kabupaten Belitung";"KEPULAUAN BANGKA BELITUNG";"33411";"Indonesia";"";"-2.7697643";"107.6605076";"https://maps.google.com/?cid=0x0:0xf176cbe11bbaae80"
"housing complex";"Pembangunan Perumahan";"Perumahan Belitung Hijau 3";"6MM4+QV6, Jl. Dukong, Dukong, Kec. Tj. Pandan, Kabupaten Belitung, Kepulauan Bangka Belitung 33417";"Jl. Dukong, Dukong, Kec. Tj. Pandan, Kabupaten Belitung";"KEPULAUAN BANGKA BELITUNG";"33417";"Indonesia";" 081287121099";"-2.7655829";"107.6571383";"https://maps.google.com/?cid=0x0:0x2a5689d84f1cfa00"
"housing complex";"Komplek perumahan";"Dev ndut";"7MJ2+Q64, Paal Satu, Kec. Tj. Pandan, Kabupaten Belitung, Kepulauan Bangka Belitung";"Kabupaten Belitung, Kepulauan Bangka Belitung";"KEPULAUAN BANGKA BELITUNG";"";"Indonesia";"";"-2.7181112";"107.6505664";"https://maps.google.com/?cid=0x0:0xee7201994ea05856"
"housing complex";"Komplek perumahan";"EW House";"Jl. Air Serkuk, Air Saga, Kec. Tj. Pandan, Kabupaten Belitung, Kepulauan Bangka Belitung 33411";"Air Saga, Kec. Tj. Pandan, Kabupaten Belitung";"KEPULAUAN BANGKA BELITUNG";"33411";"Indonesia";"";"-2.7105561";"107.6425882";"https://maps.google.com/?cid=0x0:0x1f67e4eaa1b4d61d"
"housing complex";"housing complex";"Kepulauan Bangka Belitung 33415";"Sijuk, Kabupaten Belitung, Kepulauan Bangka Belitung";"Kabupaten Belitung, Kepulauan Bangka Belitung";"KEPULAUAN BANGKA BELITUNG";"";"Indonesia";"";"-2.6899391";"107.6629672";"https://maps.google.com/?cid=0x0:0x736833c3cb9cc3f0"
"housing complex";"Perumahan";"Perumahan E-Bulo Residence";"Jl. Air Bulo, Desa Air Pelempang Jaya, Kec. Tj. Pandan, Kabupaten Belitung, Kepulauan Bangka Belitung 33415";"Desa Air Pelempang Jaya, Kec. Tj. Pandan, Kabupaten Belitung";"KEPULAUAN BANGKA BELITUNG";"33415";"Indonesia";"";"-2.6969964";"107.6606098";"https://maps.google.com/?cid=0x0:0xb2aa364d440318c1"
"housing complex";"Perhimpunan Pengembang Perumahan";"Mualim Jaya Asri";"7MP7+VCC, Air Merbau, Kec. Tj. Pandan, Kabupaten Belitung, Kepulauan Bangka Belitung 33414";"Air Merbau, Kec. Tj. Pandan, Kabupaten Belitung";"KEPULAUAN BANGKA BELITUNG";"33414";"Indonesia";"";"-2.7128137";"107.6635218";"https://maps.google.com/?cid=0x0:0xd200ba6bd00f8f22"
"housing complex";"Otoritas Perumahan";"GBA House";"Jl. Satam No.D22, Air Merbau, Kec. Tj. Pandan, Kabupaten Belitung, Kepulauan Bangka Belitung 33414";"Air Merbau, Kec. Tj. Pandan, Kabupaten Belitung";"KEPULAUAN BANGKA BELITUNG";"33414";"Indonesia";"";"-2.715102";"107.6657238";"https://maps.google.com/?cid=0x0:0xbe7d12f82f2411f8"
"housing complex";"Pembangunan Perumahan";"Tanah kavling";"Air Merbau, Kec. Tj. Pandan, Kabupaten Belitung, Kepulauan Bangka Belitung";"Kabupaten Belitung, Kepulauan Bangka Belitung";"KEPULAUAN BANGKA BELITUNG";"";"Indonesia";"";"-2.7114195";"107.6796077";"https://maps.google.com/?cid=0x0:0x3802450ad445a747"
"housing complex";"housing complex";"Kakek Cia";"7MP8+HJR, Jl. Mualim I, Air Merbau, Kec. Tj. Pandan, Kabupaten Belitung, Kepulauan Bangka Belitung";"Kabupaten Belitung, Kepulauan Bangka Belitung";"KEPULAUAN BANGKA BELITUNG";"";"Indonesia";"";"-2.7138563";"107.6663804";"https://maps.google.com/?cid=0x0:0x822baee308cd520a"
"housing complex";"Komplek perumahan";"PERUMAHAN TEDI BONG NO. BA";"7MH3+9VX, Paal Satu, Kec. Tj. Pandan, Kabupaten Belitung, Kepulauan Bangka Belitung 33411";"Paal Satu, Kec. Tj. Pandan, Kabupaten Belitung";"KEPULAUAN BANGKA BELITUNG";"33411";"Indonesia";"";"-2.7215218";"107.6547202";"https://maps.google.com/?cid=0x0:0x5f8dc9a2b05ca1fa"
"housing complex";"Komplek perumahan";"Mutiara Kavling2";"Jl. Padat Karya II, Air Merbau, Kec. Tj. Pandan, Kabupaten Belitung, Kepulauan Bangka Belitung";"Kabupaten Belitung, Kepulauan Bangka Belitung";"KEPULAUAN BANGKA BELITUNG";"";"Indonesia";"";"-2.7168138";"107.6800801";"https://maps.google.com/?cid=0x0:0x137dfefa0b8ddc85"
"housing complex";"Komplek perumahan";"Perumahan Pakuwon Indah";"Jl. Air Pelempang Indah No.14, Paal Satu, Kec. Tj. Pandan, Kabupaten Belitung, Kepulauan Bangka Belitung 33411";"Paal Satu, Kec. Tj. Pandan, Kabupaten Belitung";"KEPULAUAN BANGKA BELITUNG";"33411";"Indonesia";"";"-2.7155314";"107.6548302";"https://maps.google.com/?cid=0x0:0xd8d353fc9f00f065"
"housing complex";"Pembangunan Perumahan";"Perumahan Vanilla Garden Residence";"7MQ6+C3, Air Merbau, Kec. Tj. Pandan, Kabupaten Belitung, Kepulauan Bangka Belitung 33411";"Air Merbau, Kec. Tj. Pandan, Kabupaten Belitung";"KEPULAUAN BANGKA BELITUNG";"33411";"Indonesia";" 082298801323";"-2.7113887";"107.66016";"https://maps.google.com/?cid=0x0:0x81b05b5b32f62339"
"housing complex";"Perumahan";"Rumahhh";"7MR8+5R, Air Merbau, Kec. Tj. Pandan, Kabupaten Belitung, Kepulauan Bangka Belitung";"Kabupaten Belitung, Kepulauan Bangka Belitung";"KEPULAUAN BANGKA BELITUNG";"";"Indonesia";"";"-2.709576";"107.667035";"https://maps.google.com/?cid=0x0:0xb1c85571e4f46571"
"housing complex";"Perumahan";"Perumahan Dinas Imigrasi Tanjungpandan";"Griya Permata 1 tanjungpandan, Air Merbau, Tanjung Pandan, Belitung Regency, Bangka Belitung Islands";"Kabupaten Belitung, Kepulauan Bangka Belitung";"KEPULAUAN BANGKA BELITUNG";"";"Indonesia";"";"-2.7149023";"107.665932";"https://maps.google.com/?cid=0x0:0x11ac5e625941a7e3"
"housing complex";"Komplek perumahan";"Dev ndut";"7MJ2+Q64, Paal Satu, Kec. Tj. Pandan, Kabupaten Belitung, Kepulauan Bangka Belitung";"Kabupaten Belitung, Kepulauan Bangka Belitung";"KEPULAUAN BANGKA BELITUNG";"";"Indonesia";"";"-2.7181112";"107.6505664";"https://maps.google.com/?cid=0x0:0xee7201994ea05856"
"housing complex";"housing complex";"Kepulauan Bangka Belitung 33417";"Kec. Tj. Pandan, Kabupaten Belitung, Kepulauan Bangka Belitung";"Kabupaten Belitung, Kepulauan Bangka Belitung";"KEPULAUAN BANGKA BELITUNG";"";"Indonesia";"";"-2.7665437";"107.627451";"https://maps.google.com/?cid=0x0:0x631fe9aad23f6cc1"
"housing complex";"housing complex";"Pasar";"7M53+85Q, Lesung Batang, Kec. Tj. Pandan, Kabupaten Belitung, Kepulauan Bangka Belitung";"Kabupaten Belitung, Kepulauan Bangka Belitung";"KEPULAUAN BANGKA BELITUNG";"";"Indonesia";"";"-2.7416678";"107.6529988";"https://maps.google.com/?cid=0x0:0xd85541479c122687"
"housing complex";"Komplek perumahan";"SawdahShtefia";"Jl. Kamboja II No.14, RT.24/RW.10, Pangkal Lalang, Kec. Tj. Pandan, Kabupaten Belitung, Kepulauan Bangka Belitung 33412";"RT.24/RW.10, Pangkal Lalang, Kec. Tj. Pandan, Kabupaten Belitung";"KEPULAUAN BANGKA BELITUNG";"33412";"Indonesia";"";"-2.7420642";"107.6436773";"https://maps.google.com/?cid=0x0:0x8eba3f279218f042"
"housing complex";"Komplek perumahan";"Perumahan Belitung Hijau";"Dukong, Kec. Tj. Pandan, Kabupaten Belitung, Kepulauan Bangka Belitung 33411";"Kec. Tj. Pandan, Kabupaten Belitung";"KEPULAUAN BANGKA BELITUNG";"33411";"Indonesia";"";"-2.7697643";"107.6605076";"https://maps.google.com/?cid=0x0:0xf176cbe11bbaae80"
"housing complex";"Pembangunan Perumahan";"winny house";"7M83+RH8, Air Merbau, Kec. Tj. Pandan, Kabupaten Belitung, Kepulauan Bangka Belitung 33411";"Air Merbau, Kec. Tj. Pandan, Kabupaten Belitung";"KEPULAUAN BANGKA BELITUNG";"33411";"Indonesia";"";"-2.7329652";"107.6539641";"https://maps.google.com/?cid=0x0:0x40a41eb0662ba8c5"
"housing complex";"Perhimpunan Pengembang Perumahan";"JAPM House";"Air Merbau, Kec. Tj. Pandan, Kabupaten Belitung, Kepulauan Bangka Belitung 33414";"Kec. Tj. Pandan, Kabupaten Belitung";"KEPULAUAN BANGKA BELITUNG";"33414";"Indonesia";"";"-2.7274424";"107.664692";"https://maps.google.com/?cid=0x0:0xb26a4e9a01df1e5a"
"housing complex";"Perhimpunan Pengembang Perumahan";"Perumahan Sastra";"7M44+698, Lesung Batang, Kec. Tj. Pandan, Kabupaten Belitung, Kepulauan Bangka Belitung 33412";"Lesung Batang, Kec. Tj. Pandan, Kabupaten Belitung";"KEPULAUAN BANGKA BELITUNG";"33412";"Indonesia";"";"-2.7444641";"107.6559642";"https://maps.google.com/?cid=0x0:0xae3e8df2cda0688c"
"housing complex";"housing complex";"Lili";"6MXQ+749, Perawas, Kec. Tj. Pandan, Kabupaten Belitung, Kepulauan Bangka Belitung 33411";"Perawas, Kec. Tj. Pandan, Kabupaten Belitung";"KEPULAUAN BANGKA BELITUNG";"33411";"Indonesia";"";"-2.7518483";"107.6884385";"https://maps.google.com/?cid=0x0:0x52c072fa687e0646"
"housing complex";"Komplek perumahan";"KS House";"6MH6+X6X, Jl. Dukong, Dukong, Kec. Tj. Pandan, Kabupaten Belitung, Kepulauan Bangka Belitung 33417";"Jl. Dukong, Dukong, Kec. Tj. Pandan, Kabupaten Belitung";"KEPULAUAN BANGKA BELITUNG";"33417";"Indonesia";"";"-2.7700243";"107.6606068";"https://maps.google.com/?cid=0x0:0x42e3ed8b36bc259c"
"housing complex";"Komplek perumahan";"KS House";"6J9W+H52, Jl. Pilang Dukong, Dukong, Kec. Tj. Pandan, Kabupaten Belitung, Kepulauan Bangka Belitung 33417";"Jl. Pilang Dukong, Dukong, Kec. Tj. Pandan, Kabupaten Belitung";"KEPULAUAN BANGKA BELITUNG";"33417";"Indonesia";"";"-2.7811211";"107.6453754";"https://maps.google.com/?cid=0x0:0xce697b4a8a74208a"
"housing complex";"Komplek perumahan";"Rudin PPNTP";"7J4M+P95, Jl. Pantai, Tj. Pandan, Kec. Tj. Pandan, Kabupaten Belitung, Kepulauan Bangka Belitung";"Kabupaten Belitung, Kepulauan Bangka Belitung";"KEPULAUAN BANGKA BELITUNG";"";"Indonesia";"";"-2.7434222";"107.6334271";"https://maps.google.com/?cid=0x0:0x157240f6f6e66788"
"housing complex";"Komplek perumahan";"Rmh Dhiya";"6MF2+5HF, Dukong, Kec. Tj. Pandan, Kabupaten Belitung, Kepulauan Bangka Belitung 33417";"Dukong, Kec. Tj. Pandan, Kabupaten Belitung";"KEPULAUAN BANGKA BELITUNG";"33417";"Indonesia";"";"-2.7770542";"107.6514298";"https://maps.google.com/?cid=0x0:0x49fb31f26797df80"
"housing complex";"Komplek perumahan";"K.A. Razak Unus (Kgs. Moh. Abduh)";"7J5Q+GC3, Jl. Depati Rahat No.17, Tj. Pandan, Kec. Tj. Pandan, Kabupaten Belitung, Kepulauan Bangka Belitung 33411";"Jl. Depati Rahat No.17, Tj. Pandan, Kec. Tj. Pandan, Kabupaten Belitung";"KEPULAUAN BANGKA BELITUNG";"33411";"Indonesia";"";"-2.7410308";"107.6385706";"https://maps.google.com/?cid=0x0:0x715556eefa998b30"
"housing complex";"Pembangunan Perumahan";"FAS Family";"Jl. Akil Ali No.19, Pangkal Lalang, Kec. Tj. Pandan, Kabupaten Belitung, Kepulauan Bangka Belitung 33412";"Pangkal Lalang, Kec. Tj. Pandan, Kabupaten Belitung";"KEPULAUAN BANGKA BELITUNG";"33412";"Indonesia";"";"-2.759391";"107.6492066";"https://maps.google.com/?cid=0x0:0xeeb74e2bb7ea4116"
"housing complex";"housing complex";"Kepulauan Bangka Belitung 33451";"Badau, Kabupaten Belitung, Kepulauan Bangka Belitung";"Kabupaten Belitung, Kepulauan Bangka Belitung";"KEPULAUAN BANGKA BELITUNG";"";"Indonesia";"";"-2.815667";"107.8346924";"https://maps.google.com/?cid=0x0:0x5300775963dd1cc4"
"housing complex";"housing complex";"Morotuo House";"5QWH+889, Badau, Kabupaten Belitung, Kepulauan Bangka Belitung 33451";"Badau, Kabupaten Belitung";"KEPULAUAN BANGKA BELITUNG";"33451";"Indonesia";"";"-2.8041911";"107.7783567";"https://maps.google.com/?cid=0x0:0x5dd8d6734fbe546e"
"housing complex";"housing complex";"MerBud House";"5QWH+889, Badau, Kabupaten Belitung, Kepulauan Bangka Belitung 33451";"Badau, Kabupaten Belitung";"KEPULAUAN BANGKA BELITUNG";"33451";"Indonesia";"";"-2.8041911";"107.7783567";"https://maps.google.com/?cid=0x0:0xef770aa973d78cbc"
"housing complex";"housing complex";"Badau";"Kabupaten Belitung, Kepulauan Bangka Belitung";"Kabupaten Belitung, Kepulauan Bangka Belitung";"KEPULAUAN BANGKA BELITUNG";"";"Indonesia";"";"-2.777613";"107.8346924";"https://maps.google.com/?cid=0x0:0x384d30854df278ce"
"housing complex";"housing complex";"Badau";"Badau, Kabupaten Belitung, Kepulauan Bangka Belitung";"Kabupaten Belitung, Kepulauan Bangka Belitung";"KEPULAUAN BANGKA BELITUNG";"";"Indonesia";"";"-2.8257478";"107.7991545";"https://maps.google.com/?cid=0x0:0x5093ff2588efee08"
"housing complex";"housing complex";"MerBud House";"5QWH+889, Badau, Kabupaten Belitung, Kepulauan Bangka Belitung 33451";"Badau, Kabupaten Belitung";"KEPULAUAN BANGKA BELITUNG";"33451";"Indonesia";"";"-2.8041911";"107.7783567";"https://maps.google.com/?cid=0x0:0xef770aa973d78cbc"
"housing complex";"Pembangunan Perumahan";"Pontianak";"2WV2+G9V, Badau, Kec. Badau, Kabupaten Kapuas Hulu, Kalimantan Barat";"Kabupaten Kapuas Hulu, Kalimantan Barat";"KEPULAUAN BANGKA BELITUNG";"";"Indonesia";"";"1.0438547";"111.9009347";"https://maps.google.com/?cid=0x0:0xa74b7a01b3a9f75"
"housing complex";"Komplek perumahan";"Rumah Yosafat Arif Dharmawan";"2VWW+CPC, Jl.Bukit Lesung, Badau, Kec. Badau, Kabupaten Kapuas Hulu, Kalimantan Barat 78767";"Jl.Bukit Lesung, Badau, Kec. Badau, Kabupaten Kapuas Hulu";"KEPULAUAN BANGKA BELITUNG";"78767";"Indonesia";"";"1.0460569";"111.8967613";"https://maps.google.com/?cid=0x0:0x4660381697d29592"
"housing complex";"Kantor Pemerintah";"Perumahan Dinas PLBN BADAU";"Jl. Lintas Kalimantan Poros Utara, Badau, Kec. Badau, Kabupaten Kapuas Hulu, Kalimantan Barat";"Kabupaten Kapuas Hulu, Kalimantan Barat";"KEPULAUAN BANGKA BELITUNG";"";"Indonesia";"";"1.0278877";"111.881089";"https://maps.google.com/?cid=0x0:0xaf9549b4d9c2b6ca"
"housing complex";"Pembangunan Perumahan";"Emplasment SRIE";"Kekurak, Kec. Badau, Kabupaten Kapuas Hulu, Kalimantan Barat 78767";"Kec. Badau, Kabupaten Kapuas Hulu";"KEPULAUAN BANGKA BELITUNG";"78767";"Indonesia";"";"0.9648564";"111.8937837";"https://maps.google.com/?cid=0x0:0x63d60d36c44a4ff7"
"housing complex";"Komplek perumahan";"Kontrakan lugina";"2WP3+FX8, lembah murai, Badau, Kec. Badau, Kabupaten Kapuas Hulu, Kalimantan Barat 78767";"lembah murai, Badau, Kec. Badau, Kabupaten Kapuas Hulu";"KEPULAUAN BANGKA BELITUNG";"78767";"Indonesia";"";"1.0354101";"111.9052208";"https://maps.google.com/?cid=0x0:0x983ca5ca8c91bfd5"
"housing complex";"Kebun Buah";"HIDROPONIK BADAU";"2VWX+574, Badau, Kec. Badau, Kabupaten Kapuas Hulu, Kalimantan Barat 78767";"Badau, Kec. Badau, Kabupaten Kapuas Hulu";"KEPULAUAN BANGKA BELITUNG";"78767";"Indonesia";"";"1.0462873";"111.8976996";"https://maps.google.com/?cid=0x0:0x40bcb4ea300d4f3e"
"housing complex";"Pembangunan Perumahan";"Pak Ade Sadli";"3W34+RGC, Badau, Kec. Badau, Kabupaten Kapuas Hulu, Kalimantan Barat 78767";"Badau, Kec. Badau, Kabupaten Kapuas Hulu";"KEPULAUAN BANGKA BELITUNG";"78767";"Indonesia";"";"1.0551667";"111.9050617";"https://maps.google.com/?cid=0x0:0x82b8f9020f4209bc"
"housing complex";"Komplek perumahan";"Ardiana suliwa";"XV2P+XR, Kekurak, Kec. Badau, Kabupaten Kapuas Hulu, Kalimantan Barat";"Kabupaten Kapuas Hulu, Kalimantan Barat";"KEPULAUAN BANGKA BELITUNG";"";"Indonesia";"";"0.9524498";"111.8870589";"https://maps.google.com/?cid=0x0:0xd545ed604669dd52"
"housing complex";"Toko";"Rumah joko prawira";"2WP5+V7, Janting, Kec. Badau, Kabupaten Kapuas Hulu, Kalimantan Barat";"Kabupaten Kapuas Hulu, Kalimantan Barat";"KEPULAUAN BANGKA BELITUNG";"";"Indonesia";"";"1.0372205";"111.9081644";"https://maps.google.com/?cid=0x0:0x31bc8d3b6abde396"
"housing complex";"Komplek perumahan";"Rumah Ariyo Damar";"Gang sungai badau hilir, Janting, Kec. Badau, Kabupaten Kapuas Hulu, Kalimantan Barat";"Kabupaten Kapuas Hulu, Kalimantan Barat";"KEPULAUAN BANGKA BELITUNG";"";"Indonesia";"";"1.0374922";"111.9087064";"https://maps.google.com/?cid=0x0:0x118a248572f4252e"
"housing complex";"Komplek perumahan";"Lembah Murai";"2WP3+FX8, lembah murai, Kekurak, Kec. Badau, Kabupaten Kapuas Hulu, Kalimantan Barat 78767";"lembah murai, Kekurak, Kec. Badau, Kabupaten Kapuas Hulu";"KEPULAUAN BANGKA BELITUNG";"78767";"Indonesia";"";"1.0368254";"111.9042405";"https://maps.google.com/?cid=0x0:0x6541e2e0e1672686"
"housing complex";"housing complex";"Kepulauan Bangka Belitung 33414";"Kabupaten Belitung, Kepulauan Bangka Belitung";"Kabupaten Belitung, Kepulauan Bangka Belitung";"KEPULAUAN BANGKA BELITUNG";"";"Indonesia";"";"-2.6071144";"107.811";"https://maps.google.com/?cid=0x0:0x861c52d93211b9b4"
"housing complex";"Komplek perumahan";"Kavling Taruna Sijuk";"CQ6J+F9R, Sijuk, Kabupaten Belitung, Kepulauan Bangka Belitung 33414";"Sijuk, Kabupaten Belitung";"KEPULAUAN BANGKA BELITUNG";"33414";"Indonesia";"";"-2.5888011";"107.7808398";"https://maps.google.com/?cid=0x0:0x436f92badfa622b6"
"housing complex";"Perhimpunan Pengembang Perumahan";"JAPM House";"Air Merbau, Kec. Tj. Pandan, Kabupaten Belitung, Kepulauan Bangka Belitung 33414";"Kec. Tj. Pandan, Kabupaten Belitung";"KEPULAUAN BANGKA BELITUNG";"33414";"Indonesia";"";"-2.7274424";"107.664692";"https://maps.google.com/?cid=0x0:0xb26a4e9a01df1e5a"
"housing complex";"Pembangunan Perumahan";"Keong jomok";"CJ4V+QJR, Tj. Binga, Sijuk, Kabupaten Belitung, Kepulauan Bangka Belitung 33414";"Tj. Binga, Sijuk, Kabupaten Belitung";"KEPULAUAN BANGKA BELITUNG";"33414";"Indonesia";"";"-2.5930184";"107.6440138";"https://maps.google.com/?cid=0x0:0x42e12f8e485eef3e"
"housing complex";"housing complex";"rumah aldo";"9P7F+C4V, Air Selumar, Sijuk, Kabupaten Belitung, Kepulauan Bangka Belitung 33414";"Air Selumar, Sijuk, Kabupaten Belitung";"KEPULAUAN BANGKA BELITUNG";"33414";"Indonesia";"";"-2.6363941";"107.7228121";"https://maps.google.com/?cid=0x0:0xc1c71724bc68fc78"
"housing complex";"housing complex";"Lili";"6MXQ+749, Perawas, Kec. Tj. Pandan, Kabupaten Belitung, Kepulauan Bangka Belitung 33411";"Perawas, Kec. Tj. Pandan, Kabupaten Belitung";"KEPULAUAN BANGKA BELITUNG";"33411";"Indonesia";"";"-2.7518483";"107.6884385";"https://maps.google.com/?cid=0x0:0x52c072fa687e0646"
"housing complex";"Komplek perumahan";"ZAHRAH House";"8J2W+2HM, Batu Itam, Sijuk, Kabupaten Belitung, Kepulauan Bangka Belitung";"Kabupaten Belitung, Kepulauan Bangka Belitung";"KEPULAUAN BANGKA BELITUNG";"";"Indonesia";"";"-2.6998966";"107.6464989";"https://maps.google.com/?cid=0x0:0x653a9c86c45bc8ed"
"housing complex";"Komplek perumahan";"Khalid Homes";"9QP2+GHG, Air Selumar, Sijuk, Kabupaten Belitung, Kepulauan Bangka Belitung 33414";"Air Selumar, Sijuk, Kabupaten Belitung";"KEPULAUAN BANGKA BELITUNG";"33414";"Indonesia";"";"-2.6136606";"107.7514176";"https://maps.google.com/?cid=0x0:0x2f589456e6aae26a"
"housing complex";"Komplek perumahan";"Perum Faris Residence";"6PQ4+RJW, Jl. Jend. Sudirman, Perawas, Kec. Tj. Pandan, Kabupaten Belitung, Kepulauan Bangka Belitung 33413";"Jl. Jend. Sudirman, Perawas, Kec. Tj. Pandan, Kabupaten Belitung";"KEPULAUAN BANGKA BELITUNG";"33413";"Indonesia";"";"-2.7603807";"107.7065802";"https://maps.google.com/?cid=0x0:0xd8775d7e2d435a29"
"housing complex";"Perhimpunan Pengembang Perumahan";"Wira";"CV7G+XX, Sungai Padang, Sijuk, Kabupaten Belitung, Kepulauan Bangka Belitung 33414";"Sungai Padang, Sijuk, Kabupaten Belitung";"KEPULAUAN BANGKA BELITUNG";"33414";"Indonesia";"";"-2.5846966";"107.8752558";"https://maps.google.com/?cid=0x0:0x674a3102419afefa"
"housing complex";"Taman";"Danau biru estate";"7M9M+HQQ, Perawas, Kec. Tj. Pandan, Kabupaten Belitung, Kepulauan Bangka Belitung 33414";"Perawas, Kec. Tj. Pandan, Kabupaten Belitung";"KEPULAUAN BANGKA BELITUNG";"33414";"Indonesia";"";"-2.7310381";"107.6844844";"https://maps.google.com/?cid=0x0:0xac682dd4dd66c1fb"
"housing complex";"Komplek perumahan";"Ni ketut yudiani";"9RJ6+M2X, Sijuk, Kabupaten Belitung, Kepulauan Bangka Belitung 33414";"Sijuk, Kabupaten Belitung";"KEPULAUAN BANGKA BELITUNG";"33414";"Indonesia";"";"-2.61988";"107.8093204";"https://maps.google.com/?cid=0x0:0x9a8145c6bfd3c122"
"housing complex";"housing complex";"Rumdin Imigrasi Griya Permata II";"7MP8+3G6, Jl. Mualim I, Air Merbau, Kec. Tj. Pandan, Kabupaten Belitung, Kepulauan Bangka Belitung";"Kabupaten Belitung, Kepulauan Bangka Belitung";"KEPULAUAN BANGKA BELITUNG";"";"Indonesia";"";"-2.7150546";"107.6662312";"https://maps.google.com/?cid=0x0:0x391397de41f1de99"
"housing complex";"";"Pakwo house";"Jl. Bhenneka I Jl. Kerejan No.6, RT./RW/RW.8/03, Air Merbau, Kec. Tj. Pandan, Kabupaten Belitung, Kepulauan Bangka Belitung 33414";"RT./RW/RW.8/03, Air Merbau, Kec. Tj. Pandan, Kabupaten Belitung";"KEPULAUAN BANGKA BELITUNG";"33414";"Indonesia";"";"-2.7293562";"107.665576";"https://maps.google.com/?cid=0x0:0x91cb0637b348268a"
"housing complex";"Kompleks Apartemen";"Nek Fatimah";"39RW+JMG, Jalan Masjid, RT.003 RW002/RW.No 12, Suak Gual, Kec. Selat Nasik, Kabupaten Belitung, Kepulauan Bangka Belitung 33481";"Jalan Masjid, RT.003 RW002/RW.No 12, Suak Gual, Kec. Selat Nasik, Kabupaten Belitung";"KEPULAUAN BANGKA BELITUNG";"33481";"Indonesia";"";"-2.9084446";"107.3967105";"https://maps.google.com/?cid=0x0:0xa836a4e1c09411ad"
"housing complex";"housing complex";"Kepulauan Bangka Belitung 33481";"Kec. Selat Nasik, Kabupaten Belitung, Kepulauan Bangka Belitung";"Kabupaten Belitung, Kepulauan Bangka Belitung";"KEPULAUAN BANGKA BELITUNG";"";"Indonesia";"";"-2.888958";"107.4203669";"https://maps.google.com/?cid=0x0:0xbd0c15da0ad4675d"
"housing complex";"Pembangunan Perumahan";"KUB WARGA NELAYAN";"4C4X+MR, Petaling, Kec. Selat Nasik, Kabupaten Belitung, Kepulauan Bangka Belitung";"Kabupaten Belitung, Kepulauan Bangka Belitung";"KEPULAUAN BANGKA BELITUNG";"";"Indonesia";"";"-2.8943732";"107.4479609";"https://maps.google.com/?cid=0x0:0x3f9b89714fe2d255"
"housing complex";"housing complex";"Rumah Vedo";"5C89+JR6, Selat Nasik, Kec. Selat Nasik, Kabupaten Belitung, Kepulauan Bangka Belitung 33481";"Selat Nasik, Kec. Selat Nasik, Kabupaten Belitung";"KEPULAUAN BANGKA BELITUNG";"33481";"Indonesia";"";"-2.8349979";"107.4184011";"https://maps.google.com/?cid=0x0:0xab732c5870b81225"
"toko bangunan";"Toko Bahan Bangunan";"TB RAMOS JAYA";"VM97+Q6Q, Membalong, Kabupaten Belitung, Kepulauan Bangka Belitung 33452";"Membalong, Kabupaten Belitung";"KEPULAUAN BANGKA BELITUNG";"33452";"Indonesia";"";"-3.13019";"107.6625569";"https://maps.google.com/?cid=0x0:0xd856b91ab4010592"
"toko bangunan";"toko bangunan";"Membalong";"Membalong, Kabupaten Belitung, Kepulauan Bangka Belitung";"Kabupaten Belitung, Kepulauan Bangka Belitung";"KEPULAUAN BANGKA BELITUNG";"";"Indonesia";"";"-3.128547";"107.650703";"https://maps.google.com/?cid=0x0:0x4039d80b2210490"
"toko bangunan";"Toko Bahan Bangunan";"TB. Asia Jaya Membalong";"Jl. Kesehatan, RT.2/RW.2, Membalong, Kabupaten Belitung, Kepulauan Bangka Belitung 33452";"RT.2/RW.2, Membalong, Kabupaten Belitung";"KEPULAUAN BANGKA BELITUNG";"33452";"Indonesia";"";"-3.1299808";"107.6675861";"https://maps.google.com/?cid=0x0:0x3873c92fae2bcfd"
"toko bangunan";"Toko Bahan Bangunan";"toko sumber maju bangunan";"Jl. Jend. Sudirman No.10, Tj. Pandan, Kec. Tj. Pandan, Kabupaten Belitung, Kepulauan Bangka Belitung 33411";"Tj. Pandan, Kec. Tj. Pandan, Kabupaten Belitung";"KEPULAUAN BANGKA BELITUNG";"33411";"Indonesia";" 071925210";"-2.740493";"107.634665";"https://maps.google.com/?cid=0x0:0x96b039da59a179f7"
"toko bangunan";"Toko Bahan Bangunan";"Tb makmur jaya";"2PQ2+5H, Simpang Rusa, Membalong, Kabupaten Belitung, Kepulauan Bangka Belitung";"Kabupaten Belitung, Kepulauan Bangka Belitung";"KEPULAUAN BANGKA BELITUNG";"";"Indonesia";"";"-2.9620137";"107.7014877";"https://maps.google.com/?cid=0x0:0xc814b8304e67c772"
"toko bangunan";"Toko Bahan Bangunan";"Toko Bangunan "INDAH JAYA"";"Jl. Jend. Sudirman, Perawas, Kec. Tj. Pandan, Kabupaten Belitung, Kepulauan Bangka Belitung 33413";"Perawas, Kec. Tj. Pandan, Kabupaten Belitung";"KEPULAUAN BANGKA BELITUNG";"33413";"Indonesia";" 085166900668";"-2.7439168";"107.674623";"https://maps.google.com/?cid=0x0:0x6fd4b0cea573e3e4"
"toko bangunan";"Toko Bahan Bangunan";"toko Bangunan Sumber Lancar";"7M3G+VXX, Perawas, Kec. Tj. Pandan, Kabupaten Belitung, Kepulauan Bangka Belitung 33411";"Perawas, Kec. Tj. Pandan, Kabupaten Belitung";"KEPULAUAN BANGKA BELITUNG";"33411";"Indonesia";" 081365684567";"-2.745265";"107.6774734";"https://maps.google.com/?cid=0x0:0x1bede15fde9534ba"
"toko bangunan";"toko bangunan";"Kepulauan Bangka Belitung 33411";"Kabupaten Belitung, Kepulauan Bangka Belitung";"Kabupaten Belitung, Kepulauan Bangka Belitung";"KEPULAUAN BANGKA BELITUNG";"";"Indonesia";"";"-2.7693884";"107.7517775";"https://maps.google.com/?cid=0x0:0xa4727ada9d297546"
"toko bangunan";"Toko Bahan Bangunan";"toko sumber maju bangunan";"Jl. Jend. Sudirman No.10, Tj. Pandan, Kec. Tj. Pandan, Kabupaten Belitung, Kepulauan Bangka Belitung 33411";"Tj. Pandan, Kec. Tj. Pandan, Kabupaten Belitung";"KEPULAUAN BANGKA BELITUNG";"33411";"Indonesia";" 071925210";"-2.740493";"107.634665";"https://maps.google.com/?cid=0x0:0x96b039da59a179f7"
"toko bangunan";"Toko Bahan Bangunan";"Pandan Jaya";"7J4V+84F, Jl. Jend. Sudirman, Pangkal Lalang, Kec. Tj. Pandan, Kabupaten Belitung, Kepulauan Bangka Belitung 33411";"Jl. Jend. Sudirman, Pangkal Lalang, Kec. Tj. Pandan, Kabupaten Belitung";"KEPULAUAN BANGKA BELITUNG";"33411";"Indonesia";"";"-2.7441967";"107.642811";"https://maps.google.com/?cid=0x0:0xb8ea023265c581c4"
"toko bangunan";"Toko Bahan Bangunan";"Toko central jaya bangunan";"7M92+VQR, Air Merbau, Kec. Tj. Pandan, Kabupaten Belitung, Kepulauan Bangka Belitung 33411";"Air Merbau, Kec. Tj. Pandan, Kabupaten Belitung";"KEPULAUAN BANGKA BELITUNG";"33411";"Indonesia";" 087896461232";"-2.7302716";"107.6518978";"https://maps.google.com/?cid=0x0:0x97a5f236125ff7c0"
"toko bangunan";"Toko Bahan Bangunan";"Toko Bangunan "INDAH JAYA"";"Jl. Jend. Sudirman, Perawas, Kec. Tj. Pandan, Kabupaten Belitung, Kepulauan Bangka Belitung 33413";"Perawas, Kec. Tj. Pandan, Kabupaten Belitung";"KEPULAUAN BANGKA BELITUNG";"33413";"Indonesia";" 085166900668";"-2.7439168";"107.674623";"https://maps.google.com/?cid=0x0:0x6fd4b0cea573e3e4"
"toko bangunan";"Toko Bahan Bangunan";"Tb. Megah Jaya";"Jl. Sriwijaya No.34, Tj. Pandan, Kec. Tj. Pandan, Kabupaten Belitung, Kepulauan Bangka Belitung 33411";"Tj. Pandan, Kec. Tj. Pandan, Kabupaten Belitung";"KEPULAUAN BANGKA BELITUNG";"33411";"Indonesia";" 082280200370";"-2.7398427";"107.634365";"https://maps.google.com/?cid=0x0:0xe63694faf31e4138"
"toko bangunan";"Kontraktor";"toko asun";"7M87+J62, Jl. Air Ketekok, Air Merbau, Kec. Tj. Pandan, Kabupaten Belitung, Kepulauan Bangka Belitung 33412";"Jl. Air Ketekok, Air Merbau, Kec. Tj. Pandan, Kabupaten Belitung";"KEPULAUAN BANGKA BELITUNG";"33412";"Indonesia";"";"-2.7334951";"107.6630052";"https://maps.google.com/?cid=0x0:0x66e4cbba4dea0c18"
"toko bangunan";"Toko Bahan Bangunan";"TOKO BESI MITRA KARYA BERSAMA";"Jl. Jend. Sudirman No.48, Lesung Batang, Kec. Tj. Pandan, Kabupaten Belitung, Kepulauan Bangka Belitung 33412";"Lesung Batang, Kec. Tj. Pandan, Kabupaten Belitung";"KEPULAUAN BANGKA BELITUNG";"33412";"Indonesia";" 081929557168";"-2.7463566";"107.6597781";"https://maps.google.com/?cid=0x0:0x2b9e339dd044eaec"
"toko bangunan";"";"Toko Jaya Bangunan";"7J3X+8H5, Jl. Jend. Sudirman, Pangkal Lalang, Kec. Tj. Pandan, Kabupaten Belitung, Kepulauan Bangka Belitung 33411";"Jl. Jend. Sudirman, Pangkal Lalang, Kec. Tj. Pandan, Kabupaten Belitung";"KEPULAUAN BANGKA BELITUNG";"33411";"Indonesia";"";"-2.746747";"107.6489749";"https://maps.google.com/?cid=0x0:0x107dfdff7b5d2594"
"toko bangunan";"Toko Bahan Bangunan";"TOKO BANGUNAN";"Jl. Gatot Subroto No.3, Paal Satu, Kec. Tj. Pandan, Kabupaten Belitung, Kepulauan Bangka Belitung 33411";"Paal Satu, Kec. Tj. Pandan, Kabupaten Belitung";"KEPULAUAN BANGKA BELITUNG";"33411";"Indonesia";" 081929790909";"-2.7267425";"107.6414851";"https://maps.google.com/?cid=0x0:0x9bfa8aa9a2065c74"
"toko bangunan";"Toko Bahan Bangunan";"Toko Bangunan Babahin Perkasa";"Jl. Sijuk No.31, Air Merbau, Kec. Tj. Pandan, Kabupaten Belitung, Kepulauan Bangka Belitung 33414";"Air Merbau, Kec. Tj. Pandan, Kabupaten Belitung";"KEPULAUAN BANGKA BELITUNG";"33414";"Indonesia";" 087763721078";"-2.7253956";"107.6630168";"https://maps.google.com/?cid=0x0:0x304fab7dc04e8520"
"toko bangunan";"Toko Bahan Bangunan";"TB.BAJAPEDIA";"Jl. Gatot Subroto No.3, Paal Satu, Kec. Tj. Pandan, Kabupaten Belitung, Kepulauan Bangka Belitung 33411";"Paal Satu, Kec. Tj. Pandan, Kabupaten Belitung";"KEPULAUAN BANGKA BELITUNG";"33411";"Indonesia";"";"-2.7274018";"107.6414584";"https://maps.google.com/?cid=0x0:0xd3783811044f179f"
"toko bangunan";"Toko Bahan Bangunan";"depot bangunan RK";"Jl. Jend. Sudirman, Perawas, Kec. Tj. Pandan, Kabupaten Belitung, Kepulauan Bangka Belitung 33411";"Perawas, Kec. Tj. Pandan, Kabupaten Belitung";"KEPULAUAN BANGKA BELITUNG";"33411";"Indonesia";" 083175439870";"-2.7495583";"107.6942384";"https://maps.google.com/?cid=0x0:0xa5e825fbc5c02120"
"toko bangunan";"Toko Bahan Bangunan";"Hikarijaya Bangunan";"7M2V+653, Jl. Jend. Sudirman, Perawas, Kec. Tj. Pandan, Kabupaten Belitung, Kepulauan Bangka Belitung 33413";"Jl. Jend. Sudirman, Perawas, Kec. Tj. Pandan, Kabupaten Belitung";"KEPULAUAN BANGKA BELITUNG";"33413";"Indonesia";"";"-2.7494878";"107.6929248";"https://maps.google.com/?cid=0x0:0x94dd7ed839d472"
"toko bangunan";"toko bangunan";"Kepulauan Bangka Belitung 33412";"Kec. Tj. Pandan, Kabupaten Belitung, Kepulauan Bangka Belitung";"Kabupaten Belitung, Kepulauan Bangka Belitung";"KEPULAUAN BANGKA BELITUNG";"";"Indonesia";"";"-2.7493048";"107.665927";"https://maps.google.com/?cid=0x0:0xa2d16aac79151bde"
"toko bangunan";"Toko Bahan Bangunan";"Toko Bangunan "INDAH JAYA"";"Jl. Jend. Sudirman, Perawas, Kec. Tj. Pandan, Kabupaten Belitung, Kepulauan Bangka Belitung 33413";"Perawas, Kec. Tj. Pandan, Kabupaten Belitung";"KEPULAUAN BANGKA BELITUNG";"33413";"Indonesia";" 085166900668";"-2.7439168";"107.674623";"https://maps.google.com/?cid=0x0:0x6fd4b0cea573e3e4"
"toko bangunan";"Toko Bahan Bangunan";"Pandan Jaya";"7J4V+84F, Jl. Jend. Sudirman, Pangkal Lalang, Kec. Tj. Pandan, Kabupaten Belitung, Kepulauan Bangka Belitung 33411";"Jl. Jend. Sudirman, Pangkal Lalang, Kec. Tj. Pandan, Kabupaten Belitung";"KEPULAUAN BANGKA BELITUNG";"33411";"Indonesia";"";"-2.7441967";"107.642811";"https://maps.google.com/?cid=0x0:0xb8ea023265c581c4"
"toko bangunan";"Toko Bahan Bangunan";"Toko central jaya bangunan";"7M92+VQR, Air Merbau, Kec. Tj. Pandan, Kabupaten Belitung, Kepulauan Bangka Belitung 33411";"Air Merbau, Kec. Tj. Pandan, Kabupaten Belitung";"KEPULAUAN BANGKA BELITUNG";"33411";"Indonesia";" 087896461232";"-2.7302716";"107.6518978";"https://maps.google.com/?cid=0x0:0x97a5f236125ff7c0"
"toko bangunan";"Kontraktor";"toko asun";"7M87+J62, Jl. Air Ketekok, Air Merbau, Kec. Tj. Pandan, Kabupaten Belitung, Kepulauan Bangka Belitung 33412";"Jl. Air Ketekok, Air Merbau, Kec. Tj. Pandan, Kabupaten Belitung";"KEPULAUAN BANGKA BELITUNG";"33412";"Indonesia";"";"-2.7334951";"107.6630052";"https://maps.google.com/?cid=0x0:0x66e4cbba4dea0c18"
"toko bangunan";"Toko Bahan Bangunan";"toko Bangunan Sumber Lancar";"7M3G+VXX, Perawas, Kec. Tj. Pandan, Kabupaten Belitung, Kepulauan Bangka Belitung 33411";"Perawas, Kec. Tj. Pandan, Kabupaten Belitung";"KEPULAUAN BANGKA BELITUNG";"33411";"Indonesia";" 081365684567";"-2.745265";"107.6774734";"https://maps.google.com/?cid=0x0:0x1bede15fde9534ba"
"toko bangunan";"";"Toko Jaya Bangunan";"7J3X+8H5, Jl. Jend. Sudirman, Pangkal Lalang, Kec. Tj. Pandan, Kabupaten Belitung, Kepulauan Bangka Belitung 33411";"Jl. Jend. Sudirman, Pangkal Lalang, Kec. Tj. Pandan, Kabupaten Belitung";"KEPULAUAN BANGKA BELITUNG";"33411";"Indonesia";"";"-2.746747";"107.6489749";"https://maps.google.com/?cid=0x0:0x107dfdff7b5d2594"
"toko bangunan";"Toko Bahan Bangunan";"TOKO BESI MITRA KARYA BERSAMA";"Jl. Jend. Sudirman No.48, Lesung Batang, Kec. Tj. Pandan, Kabupaten Belitung, Kepulauan Bangka Belitung 33412";"Lesung Batang, Kec. Tj. Pandan, Kabupaten Belitung";"KEPULAUAN BANGKA BELITUNG";"33412";"Indonesia";" 081929557168";"-2.7463566";"107.6597781";"https://maps.google.com/?cid=0x0:0x2b9e339dd044eaec"
"toko bangunan";"Toko Bahan Bangunan";"Toko Bangunan Babahin Perkasa";"Jl. Sijuk No.31, Air Merbau, Kec. Tj. Pandan, Kabupaten Belitung, Kepulauan Bangka Belitung 33414";"Air Merbau, Kec. Tj. Pandan, Kabupaten Belitung";"KEPULAUAN BANGKA BELITUNG";"33414";"Indonesia";" 087763721078";"-2.7253956";"107.6630168";"https://maps.google.com/?cid=0x0:0x304fab7dc04e8520"
"toko bangunan";"Toko Bahan Bangunan";"Toko Bangunan Sinar Jaya";"7M3H+6PF, Perawas, Kec. Tj. Pandan, Kabupaten Belitung, Kepulauan Bangka Belitung 33411";"Perawas, Kec. Tj. Pandan, Kabupaten Belitung";"KEPULAUAN BANGKA BELITUNG";"33411";"Indonesia";"";"-2.7469251";"107.6792813";"https://maps.google.com/?cid=0x0:0xbfcde83b6cdf8d8b"
"toko bangunan";"Toko Bahan Bangunan";"Karya Harris Bangunan";"Jl. Jend. Sudirman, Perawas, Kec. Tj. Pandan, Kabupaten Belitung, Kepulauan Bangka Belitung 33411";"Perawas, Kec. Tj. Pandan, Kabupaten Belitung";"KEPULAUAN BANGKA BELITUNG";"33411";"Indonesia";" 082176924409";"-2.7467007";"107.6795818";"https://maps.google.com/?cid=0x0:0xfa441ae07f2e4e2b"
"toko bangunan";"Toko Bahan Bangunan";"TOKO BANGUNAN";"Jl. Gatot Subroto No.3, Paal Satu, Kec. Tj. Pandan, Kabupaten Belitung, Kepulauan Bangka Belitung 33411";"Paal Satu, Kec. Tj. Pandan, Kabupaten Belitung";"KEPULAUAN BANGKA BELITUNG";"33411";"Indonesia";" 081929790909";"-2.7267425";"107.6414851";"https://maps.google.com/?cid=0x0:0x9bfa8aa9a2065c74"
"toko bangunan";"Toko Bahan Bangunan";"TB. Jaya Makmur Abadi";"Jl. Jend. Sudirman, air raya, Kec. Tj. Pandan, Kabupaten Belitung, Kepulauan Bangka Belitung 33411";"air raya, Kec. Tj. Pandan, Kabupaten Belitung";"KEPULAUAN BANGKA BELITUNG";"33411";"Indonesia";" 082118319386";"-2.7470201";"107.6797251";"https://maps.google.com/?cid=0x0:0x2677419afde118a2"
"toko bangunan";"Toko Bahan Bangunan";"TOKO CANDRA 29";"Pangkal Lalang, Kec. Tj. Pandan, Kabupaten Belitung, Kepulauan Bangka Belitung 33411";"Kec. Tj. Pandan, Kabupaten Belitung";"KEPULAUAN BANGKA BELITUNG";"33411";"Indonesia";"";"-2.7510795";"107.6475807";"https://maps.google.com/?cid=0x0:0x5bb576dce0e746c9"
"toko bangunan";"toko bangunan";"Kepulauan Bangka Belitung 33413";"Kec. Tj. Pandan, Kabupaten Belitung, Kepulauan Bangka Belitung";"Kabupaten Belitung, Kepulauan Bangka Belitung";"KEPULAUAN BANGKA BELITUNG";"";"Indonesia";"";"-2.7462491";"107.7103291";"https://maps.google.com/?cid=0x0:0x7ee919762ad4f944"
"toko bangunan";"Toko Bahan Bangunan";"Toko Bangunan "INDAH JAYA"";"Jl. Jend. Sudirman, Perawas, Kec. Tj. Pandan, Kabupaten Belitung, Kepulauan Bangka Belitung 33413";"Perawas, Kec. Tj. Pandan, Kabupaten Belitung";"KEPULAUAN BANGKA BELITUNG";"33413";"Indonesia";" 085166900668";"-2.7439168";"107.674623";"https://maps.google.com/?cid=0x0:0x6fd4b0cea573e3e4"
