Category;Real Category;Business Name;Address;City;State;Postal Code;Country;Phone;Email;Website;Latitude;Longitude;Map Link;Details Link
"komplek housing";"Komplek perumahan";"Candipuro";"Jl. Raya Dampit-Lumajang No.58, Sumberrejo, Sumberejo, Kec. Candipuro, Kabupaten Lumajang, Jawa Timur 67373";"Sumberrejo, Sumberejo, Kec. Candipuro, Kabupaten Lumajang";"JAWA TIMUR";"67373";"Indonesia";"";"";"";"-8.1858444";"113.0716235";"https://maps.google.com/?cid=0x0:0x16400998a6b7c534";""
"komplek housing";"Kantor Perusahaan";"PERUMAHAN HR RESIDENCE";"Jl. Kalimas, Rogotrunan, Kec. Lumajang, Kabupaten Lumajang, Jawa Timur 67316";"Rogotrunan, Kec. Lumajang, Kabupaten Lumajang";"JAWA TIMUR";"67316";"Indonesia";" 082143063760";"";"";"-8.1263624";"113.2398549";"https://maps.google.com/?cid=0x0:0x7530598dec98b371";""
"komplek housing";"komplek housing";"Kec. Candipuro";"Kabupaten Lumajang, Jawa Timur";"Kabupaten Lumajang, Jawa Timur";"JAWA TIMUR";"";"Indonesia";"";"";"";"-8.1856871";"113.0738689";"https://maps.google.com/?cid=0x0:0xe824e1a74a237";""
"komplek housing";"Perhimpunan Pengembang Perumahan";"Rumah tinggal";"FHVF+JCX, Jl. KH Ahmad Dahlan, Banyumas, Kec. Candipuro, Kabupaten Lampung Selatan, Lampung 35356";"Jl. KH Ahmad Dahlan, Banyumas, Kec. Candipuro, Kabupaten Lampung Selatan";"JAWA TIMUR";"35356";"Indonesia";" 081632245420";"";"";"-5.5058928";"105.5736016";"https://maps.google.com/?cid=0x0:0x5943612907427f9c";""
"komplek housing";"Komplek perumahan";"Pandawa House core i5";"FHVG+PXW, Jl. KH Ahmad Dahlan, Beringin Kencana, Kec. Candipuro, Kabupaten Lampung Selatan, Lampung 35356";"Jl. KH Ahmad Dahlan, Beringin Kencana, Kec. Candipuro, Kabupaten Lampung Selatan";"JAWA TIMUR";"35356";"Indonesia";" 081369732770";"";"";"-5.5059442";"105.5769272";"https://maps.google.com/?cid=0x0:0x83e85c27a1189447";""
"komplek housing";"Komplek perumahan";"Omah e EMBAh";"FGGM+P36, Jl. Candipuro - Bandarlampung Raya, Karya Mulya Sari, Kec. Candipuro, Kabupaten Lampung Selatan, Lampung 35356";"Jl. Candipuro - Bandarlampung Raya, Karya Mulya Sari, Kec. Candipuro, Kabupaten Lampung Selatan";"JAWA TIMUR";"35356";"Indonesia";"";"";"";"-5.5231811";"105.5326425";"https://maps.google.com/?cid=0x0:0x1182a222cec7ce3d";""
"komplek housing";"Komplek perumahan";"Wahyu's house";"FHHW+337, Jl. Imba Kesuma Ratu, Bumi Jaya, Kec. Candipuro, Kabupaten Lampung Selatan, Lampung 35356";"Jl. Imba Kesuma Ratu, Bumi Jaya, Kec. Candipuro, Kabupaten Lampung Selatan";"JAWA TIMUR";"35356";"Indonesia";"";"";"";"-5.5223404";"105.5951749";"https://maps.google.com/?cid=0x0:0xf563925795cb64a3";""
"komplek housing";"Komplek perumahan";"Rumah wildan li";"FHFC+W4F, Jl. Cirebon, Cintamulya, Kec. Candipuro, Kabupaten Lampung Selatan, Lampung 35356";"Jl. Cirebon, Cintamulya, Kec. Candipuro, Kabupaten Lampung Selatan";"JAWA TIMUR";"35356";"Indonesia";"";"";"";"-5.5252549";"105.5704563";"https://maps.google.com/?cid=0x0:0x26378f59442eeb63";""
"komplek housing";"Komplek perumahan";"RUMAH OMBAY";"FH5Q+676, Jl. Madrasah, Candipuro/Titiwangi, Kec. Candipuro, Kabupaten Lampung Selatan, Lampung 35356";"Jl. Madrasah, Candipuro/Titiwangi, Kec. Candipuro, Kabupaten Lampung Selatan";"JAWA TIMUR";"35356";"Indonesia";"";"";"";"-5.5419652";"105.5881368";"https://maps.google.com/?cid=0x0:0xa2205acb36a16e9c";""
"komplek housing";"Komplek perumahan";"rumahku";"FJF4+XVH, Rw. Selapan, Kec. Candipuro, Kabupaten Lampung Selatan, Lampung 35356";"Rw. Selapan, Kec. Candipuro, Kabupaten Lampung Selatan";"JAWA TIMUR";"35356";"Indonesia";"";"";"";"-5.5242283";"105.6074715";"https://maps.google.com/?cid=0x0:0xab17752db365d2f8";""
"komplek housing";"komplek housing";"Rumah tinggal";"FHQV+CCG, Jl. Sukarno Hatta Beringin Kencana, Beringin Kencana, Kec. Candipuro, Kabupaten Lampung Selatan, Lampung 35356";"Jl. Sukarno Hatta Beringin Kencana, Beringin Kencana, Kec. Candipuro, Kabupaten Lampung Selatan";"JAWA TIMUR";"35356";"Indonesia";"";"";"";"-5.51145";"105.5935716";"https://maps.google.com/?cid=0x0:0x2f71a6222766095b";""
"komplek housing";"Komplek perumahan";"Rumah Ellen";"FH7R+G4J, Candipuro/Titiwangi, Kec. Candipuro, Kabupaten Lampung Selatan, Lampung 35356";"Candipuro/Titiwangi, Kec. Candipuro, Kabupaten Lampung Selatan";"JAWA TIMUR";"35356";"Indonesia";"";"";"";"-5.536314";"105.590575";"https://maps.google.com/?cid=0x0:0x19fb18a7b758e132";""
"komplek housing";"Komplek perumahan";"Rumah Rafif Waliuddin";"FG8W+624, Jl. Sinar Palembang, Sidoasri, Kec. Candipuro, Kabupaten Lampung Selatan, Lampung 35356";"Jl. Sinar Palembang, Sidoasri, Kec. Candipuro, Kabupaten Lampung Selatan";"JAWA TIMUR";"35356";"Indonesia";"";"";"";"-5.5344935";"105.5450821";"https://maps.google.com/?cid=0x0:0x5a6020c0672f41a7";""
"komplek housing";"Perhimpunan Pengembang Perumahan";"Adelia";"FJC3+W5P, Bumi Jaya, Kec. Candipuro, Kabupaten Lampung Selatan, Lampung 35356";"Bumi Jaya, Kec. Candipuro, Kabupaten Lampung Selatan";"JAWA TIMUR";"35356";"Indonesia";"";"";"";"-5.5276539";"105.6029633";"https://maps.google.com/?cid=0x0:0x772bd759ac15306";""
"komplek housing";"Komplek perumahan";"Home WaOne";"FJG8+WR6, Jl. Jemakir, Rw. Selapan, Kec. Candipuro, Kabupaten Lampung Selatan, Lampung 35356";"Jl. Jemakir, Rw. Selapan, Kec. Candipuro, Kabupaten Lampung Selatan";"JAWA TIMUR";"35356";"Indonesia";"";"";"";"-5.5227032";"105.6170294";"https://maps.google.com/?cid=0x0:0xa32cec94fec8de59";""
"komplek housing";"Komplek perumahan";"Rumah Pak Riyanto";"Jalan Rawa Selapan,gang mawar, Dusun 1, RT05, Rw. Selapan, Kec. Candipuro, Kabupaten Lampung Selatan, Lampung 35356";"Dusun 1, RT05, Rw. Selapan, Kec. Candipuro, Kabupaten Lampung Selatan";"JAWA TIMUR";"35356";"Indonesia";"";"";"";"-5.5231554";"105.6089762";"https://maps.google.com/?cid=0x0:0x407a5ee52dd33832";""
"komplek housing";"komplek housing";"perempatan arif hidayat";"FH6C+G7P, Jl. Hasanudin, Candipuro/Titiwangi, Kec. Candipuro, Kabupaten Lampung Selatan, Lampung 35356";"Jl. Hasanudin, Candipuro/Titiwangi, Kec. Candipuro, Kabupaten Lampung Selatan";"JAWA TIMUR";"35356";"Indonesia";"";"";"";"-5.5386508";"105.5705972";"https://maps.google.com/?cid=0x0:0xed62943ce962c075";""
"komplek housing";"Pembangunan Perumahan";"Rumah Mbah kreteng";"FH7V+R68, Jl. Singosari Raya, Bumi Jaya, Kec. Candipuro, Kabupaten Lampung Selatan, Lampung 35356";"Jl. Singosari Raya, Bumi Jaya, Kec. Candipuro, Kabupaten Lampung Selatan";"JAWA TIMUR";"35356";"Indonesia";"";"";"";"-5.5354746";"105.5930887";"https://maps.google.com/?cid=0x0:0x1e4c891582bfcaf6";""
"komplek housing";"Komplek perumahan";"Rumah Subandi  Riyani";"CGPX+J4H, Sidoasri, Kec. Candipuro, Kabupaten Lampung Selatan, Lampung 35356";"Sidoasri, Kec. Candipuro, Kabupaten Lampung Selatan";"JAWA TIMUR";"35356";"Indonesia";" 085279093878";"";"";"-5.5634773";"105.547385";"https://maps.google.com/?cid=0x0:0x696524fe020c8c9";""
"komplek housing";"komplek housing";"Rumah gerzzz";"FHRF+26M, Banyumas, Kec. Candipuro, Kabupaten Lampung Selatan, Lampung 35356";"Banyumas, Kec. Candipuro, Kabupaten Lampung Selatan";"JAWA TIMUR";"35356";"Indonesia";"";"";"";"-5.5099012";"105.573039";"https://maps.google.com/?cid=0x0:0xa96358f351af3903";""
"komplek housing";"Pembangunan Perumahan";"Perumahan Bp.Sugiono";"CGQX+FGJ, Sidoasri, Kec. Candipuro, Kabupaten Lampung Selatan, Lampung 35356";"Sidoasri, Kec. Candipuro, Kabupaten Lampung Selatan";"JAWA TIMUR";"35356";"Indonesia";"";"";"";"-5.5612979";"105.5487556";"https://maps.google.com/?cid=0x0:0x310b713969ce200c";""
"komplek housing";"komplek housing";"Rumah Fitria Dian";"FHVG+MW4, Jl. Banyumas Raya, Beringin Kencana, Kec. Candipuro, Kabupaten Lampung Selatan, Lampung 35356";"Jl. Banyumas Raya, Beringin Kencana, Kec. Candipuro, Kabupaten Lampung Selatan";"JAWA TIMUR";"35356";"Indonesia";"";"";"";"-5.5058742";"105.5773347";"https://maps.google.com/?cid=0x0:0xca807f42d9d79840";""
"komplek housing";"komplek housing";"Kec. Candipuro";"Kabupaten Lampung Selatan, Lampung";"Kabupaten Lampung Selatan, Lampung";"JAWA TIMUR";"";"Indonesia";"";"";"";"-5.5429955";"105.5890895";"https://maps.google.com/?cid=0x0:0x4039d80b2211780";""
"komplek housing";"Pembangunan Perumahan";"Hunian Tetap (Huntap) Area Curah Kobokan";"V2F6+6X, Umbulrejo, Sumbermujur, Kec. Candipuro, Kabupaten Lumajang, Jawa Timur 67373";"Umbulrejo, Sumbermujur, Kec. Candipuro, Kabupaten Lumajang";"JAWA TIMUR";"67373";"Indonesia";"";"";"";"-8.1268752";"113.0124199";"https://maps.google.com/?cid=0x0:0x133f907060917799";""
"komplek housing";"Komplek perumahan";"Teguh home";"R3WC+V5M, Besuki, Tambahrejo, Kec. Candipuro, Kabupaten Lumajang, Jawa Timur 67373";"Besuki, Tambahrejo, Kec. Candipuro, Kabupaten Lumajang";"JAWA TIMUR";"67373";"Indonesia";"";"";"";"-8.1530044";"113.0702115";"https://maps.google.com/?cid=0x0:0xdd948f3e4c4cfb3e";""
"komplek housing";"Komplek perumahan";"Rumah Enda";"R3VQ+5J3, Pancut, Kloposawit, Kec. Candipuro, Kabupaten Lumajang, Jawa Timur";"Kabupaten Lumajang, Jawa Timur";"JAWA TIMUR";"";"Indonesia";"";"";"";"-8.1571022";"113.0890325";"https://maps.google.com/?cid=0x0:0x22ffcf02321ba1f2";""
"komplek housing";"Pembangunan Perumahan";"Home SAKLENG";"Dsn kampung baru, Sumbersari, Penanggal, Kec. Candipuro, Kabupaten Lumajang, Jawa Timur 67373";"Sumbersari, Penanggal, Kec. Candipuro, Kabupaten Lumajang";"JAWA TIMUR";"67373";"Indonesia";" 085719630533";"";"";"-8.1385921";"113.040014";"https://maps.google.com/?cid=0x0:0xfaa293f4b3422835";""
"komplek housing";"Komplek perumahan";"Padepokan Karang Kadempel";"R38G+G3R, Jl. Letjend Sutoyo, Candi Lor, Sumberejo, Kec. Candipuro, Kabupaten Lumajang, Jawa Timur 67373";"Jl. Letjend Sutoyo, Candi Lor, Sumberejo, Kec. Candipuro, Kabupaten Lumajang";"JAWA TIMUR";"67373";"Indonesia";" 081356464678";"";"";"-8.1836319";"113.0751446";"https://maps.google.com/?cid=0x0:0x3a64be27fea5fc81";""
"komplek housing";"Komplek perumahan";"Pasir project mandiri";"RT.05/RW.05, Sukosari, Sumberwuluh, Kec. Candipuro, Kabupaten Lumajang, Jawa Timur";"Kabupaten Lumajang, Jawa Timur";"JAWA TIMUR";"";"Indonesia";" 081553894785";"";"";"-8.1808093";"113.0467059";"https://maps.google.com/?cid=0x0:0x1a355b0a10368105";""
"komplek housing";"Komplek perumahan";"Home ARIZZAL";"V26Q+9XV, Dsn kampung baru, Sumbersari, Penanggal, Kec. Candipuro, Kabupaten Lumajang, Jawa Timur 67373";"Dsn kampung baru, Sumbersari, Penanggal, Kec. Candipuro, Kabupaten Lumajang";"JAWA TIMUR";"67373";"Indonesia";" 085706043874";"";"";"-8.1390221";"113.039933";"https://maps.google.com/?cid=0x0:0xd3e2462ca66e2aaa";""
"komplek housing";"Komplek perumahan";"rumah pak kholek";"R3MW+VP3, Kebonjati, Kloposawit, Kec. Candipuro, Kabupaten Lumajang, Jawa Timur 67373";"Kebonjati, Kloposawit, Kec. Candipuro, Kabupaten Lumajang";"JAWA TIMUR";"67373";"Indonesia";"";"";"";"-8.165367";"113.0967975";"https://maps.google.com/?cid=0x0:0x7a155999e5fbf134";""
"komplek housing";"Komplek perumahan";"BLOK C1";"V298+W2M, Umbulrejo, Sumbermujur, Kec. Candipuro, Kabupaten Lumajang, Jawa Timur 67373";"Umbulrejo, Sumbermujur, Kec. Candipuro, Kabupaten Lumajang";"JAWA TIMUR";"67373";"Indonesia";"";"";"";"-8.1295496";"113.0161111";"https://maps.google.com/?cid=0x0:0x9805da6d90c46cb";""
"komplek housing";"Inspektur Tempat Tinggal";"Rumah bu Rofiqoh";"R35F+XVX, Krajan, Candipuro, Kec. Candipuro, Kabupaten Lumajang, Jawa Timur 67373";"Krajan, Candipuro, Kec. Candipuro, Kabupaten Lumajang";"JAWA TIMUR";"67373";"Indonesia";"";"";"";"-8.1900135";"113.074733";"https://maps.google.com/?cid=0x0:0xd0df3d936aa3ca25";""
"komplek housing";"Pembangunan Perumahan";"Faqqih";"R3MX+W4W, Kebonjati, Kloposawit, Kec. Candipuro, Kabupaten Lumajang, Jawa Timur 67373";"Kebonjati, Kloposawit, Kec. Candipuro, Kabupaten Lumajang";"JAWA TIMUR";"67373";"Indonesia";"";"";"";"-8.164456";"113.0978651";"https://maps.google.com/?cid=0x0:0x6d0b97eb38dde9db";""
"komplek housing";"komplek housing";"Rumah pak di";"R35G+Q4R, Jl. Dusun Krajan, Krajan, Candipuro, Kec. Candipuro, Kabupaten Lumajang, Jawa Timur 67373";"Jl. Dusun Krajan, Krajan, Candipuro, Kec. Candipuro, Kabupaten Lumajang";"JAWA TIMUR";"67373";"Indonesia";"";"";"";"-8.1905106";"113.0752708";"https://maps.google.com/?cid=0x0:0x37662d4428ad8df2";""
"komplek housing";"Komplek perumahan";"RD TPK Pasirian";"Q4W3+FMW, Kebonsari, Jarit, Kec. Candipuro, Kabupaten Lumajang, Jawa Timur 67373";"Kebonsari, Jarit, Kec. Candipuro, Kabupaten Lumajang";"JAWA TIMUR";"67373";"Indonesia";"";"";"";"-8.2037612";"113.1042136";"https://maps.google.com/?cid=0x0:0xd5a0dd4ead0d829f";""
"komplek housing";"Komplek perumahan";"Pondok Kasih Iding Permai";"Q4W5+H79, Jl. Dusun Kebonsari, Kebonsari, Jarit, Kec. Candipuro, Kabupaten Lumajang, Jawa Timur 67373";"Jl. Dusun Kebonsari, Kebonsari, Jarit, Kec. Candipuro, Kabupaten Lumajang";"JAWA TIMUR";"67373";"Indonesia";"";"";"";"-8.2035815";"113.1082231";"https://maps.google.com/?cid=0x0:0x4370ac4bfee0c68e";""
"komplek housing";"Perumahan rakyat";"Rumah mak ngatri";"R3WC+QGF, Besuki, Tambahrejo, Kec. Candipuro, Kabupaten Lumajang, Jawa Timur 67373";"Besuki, Tambahrejo, Kec. Candipuro, Kabupaten Lumajang";"JAWA TIMUR";"67373";"Indonesia";"";"";"";"-8.1530631";"113.0713113";"https://maps.google.com/?cid=0x0:0x2fbbfd2a40015b99";""
"komplek housing";"Komplek perumahan";"Rumah";"V328+QC6, Krajan, Tambahrejo, Kec. Candipuro, Kabupaten Lumajang, Jawa Timur 67373";"Krajan, Tambahrejo, Kec. Candipuro, Kabupaten Lumajang";"JAWA TIMUR";"67373";"Indonesia";"";"";"";"-8.1478402";"113.0666448";"https://maps.google.com/?cid=0x0:0x90566e85f0190028";""
"komplek housing";"Komplek perumahan";"Rumah echi";"Bulak Klakah, Jarit, Kec. Candipuro, Kabupaten Lumajang, Jawa Timur 67373";"Jarit, Kec. Candipuro, Kabupaten Lumajang";"JAWA TIMUR";"67373";"Indonesia";"";"";"";"-8.2178753";"113.0845666";"https://maps.google.com/?cid=0x0:0xe4aaa06773752901";""
"komplek housing";"Komplek perumahan";"Rumah chaca";"V323+99H, Kemamang, Tambahrejo, Kec. Candipuro, Kabupaten Lumajang, Jawa Timur 67373";"Kemamang, Tambahrejo, Kec. Candipuro, Kabupaten Lumajang";"JAWA TIMUR";"67373";"Indonesia";"";"";"";"-8.1490652";"113.0534876";"https://maps.google.com/?cid=0x0:0xaa7e62d60d58aed8";""
"komplek housing";"Komplek perumahan";"Anton's House";"Q3JM+CRH, Unnamed Road, Bulak Klakah, Jarit, Kec. Candipuro, Kabupaten Lumajang, Jawa Timur 67373";"Unnamed Road, Bulak Klakah, Jarit, Kec. Candipuro, Kabupaten Lumajang";"JAWA TIMUR";"67373";"Indonesia";"";"";"";"-8.2189252";"113.0846179";"https://maps.google.com/?cid=0x0:0x7f41a9dbc223522d";""
"komplek housing";"komplek housing";"Jawa Timur 67373";"Kec. Candipuro, Kabupaten Lumajang, Jawa Timur";"Kabupaten Lumajang, Jawa Timur";"JAWA TIMUR";"";"Indonesia";"";"";"";"-8.1909612";"113.0607675";"https://maps.google.com/?cid=0x0:0x1c00c5eb5b5428e0";""
"komplek housing";"Komplek perumahan";"Candipuro";"Jl. Raya Dampit-Lumajang No.58, Sumberrejo, Sumberejo, Kec. Candipuro, Kabupaten Lumajang, Jawa Timur 67373";"Sumberrejo, Sumberejo, Kec. Candipuro, Kabupaten Lumajang";"JAWA TIMUR";"67373";"Indonesia";"";"";"";"-8.1858444";"113.0716235";"https://maps.google.com/?cid=0x0:0x16400998a6b7c534";""
"komplek housing";"Komplek perumahan";"Rumah azam";"V296+X82, Umbulrejo, Sumbermujur, Kec. Candipuro, Kabupaten Lumajang, Jawa Timur 67373";"Umbulrejo, Sumbermujur, Kec. Candipuro, Kabupaten Lumajang";"JAWA TIMUR";"67373";"Indonesia";"";"";"";"-8.1301151";"113.0107513";"https://maps.google.com/?cid=0x0:0xb6864f2f833b75df";""
"komplek housing";"Komplek perumahan";"Mbah Ti Home";"R4P8+V25, Tumpeng Timur, Tumpeng, Kec. Candipuro, Kabupaten Lumajang, Jawa Timur 67373";"Tumpeng Timur, Tumpeng, Kec. Candipuro, Kabupaten Lumajang";"JAWA TIMUR";"67373";"Indonesia";"";"";"";"-8.1628716";"113.1151198";"https://maps.google.com/?cid=0x0:0x84067393ccd68e86";""
"komplek housing";"komplek housing";"Rumah Afan Hilu";"V428+9G8, RT.03/RW.04, Besuk Selatan, Tumpeng, Kec. Candipuro, Kabupaten Lumajang, Jawa Timur 67373";"RT.03/RW.04, Besuk Selatan, Tumpeng, Kec. Candipuro, Kabupaten Lumajang";"JAWA TIMUR";"67373";"Indonesia";"";"";"";"-8.1490885";"113.1163295";"https://maps.google.com/?cid=0x0:0x15aff3784f89c9b0";""
"komplek housing";"Pembangunan Perumahan";"Anisa Puspita";"Panggung Lombok Lor, Candipuro, Kec. Candipuro, Kabupaten Lumajang, Jawa Timur 67373";"Candipuro, Kec. Candipuro, Kabupaten Lumajang";"JAWA TIMUR";"67373";"Indonesia";"";"";"";"-8.2051717";"113.0704884";"https://maps.google.com/?cid=0x0:0xfb8e3b7a729db2fa";""
"komplek housing";"Komplek perumahan";"Rey home";"V279+RR, Banjarrejo, Sumbermujur, Kec. Candipuro, Kabupaten Lumajang, Jawa Timur 67373";"Banjarrejo, Sumbermujur, Kec. Candipuro, Kabupaten Lumajang";"JAWA TIMUR";"67373";"Indonesia";"";"";"";"-8.1355377";"113.0195963";"https://maps.google.com/?cid=0x0:0x60209b8f57c50517";""
"komplek housing";"komplek housing";"Jawa Timur 67353";"Kec. Gucialit, Kabupaten Lumajang, Jawa Timur";"Kabupaten Lumajang, Jawa Timur";"JAWA TIMUR";"";"Indonesia";"";"";"";"-8.0239107";"113.1322437";"https://maps.google.com/?cid=0x0:0x1c00c5eb5b542840";""
"komplek housing";"komplek housing";"Gucialit";"Kec. Gucialit, Kabupaten Lumajang, Jawa Timur";"Kabupaten Lumajang, Jawa Timur";"JAWA TIMUR";"";"Indonesia";"";"";"";"-8.0049969";"113.1084191";"https://maps.google.com/?cid=0x0:0x20edad535bfb5ab0";""
"komplek housing";"komplek housing";"Usaha kreatif Mulyanto";"X5P6+XQ7, Sidomulyo, Tunjung, Kec. Gucialit, Kabupaten Lumajang, Jawa Timur 67353";"Sidomulyo, Tunjung, Kec. Gucialit, Kabupaten Lumajang";"JAWA TIMUR";"67353";"Indonesia";"";"";"";"-8.0134952";"113.1622086";"https://maps.google.com/?cid=0x0:0x4cb497665e95fb9d";""
"komplek housing";"Komplek perumahan";"Mbah Joyo home";"X46M+8Q4, Jl. Raya Gucialit, RT.04/RW.05, Sidorukun, Kec. Gucialit, Kabupaten Lumajang, Jawa Timur 67353";"Jl. Raya Gucialit, RT.04/RW.05, Sidorukun, Kec. Gucialit, Kabupaten Lumajang";"JAWA TIMUR";"67353";"Indonesia";"";"";"";"-8.0391738";"113.1349161";"https://maps.google.com/?cid=0x0:0xf5944a4f758ca232";""
"komplek housing";"Komplek perumahan";"Ica";"W5V3+539, RT.003/RW.010, Sidodadi, Gucialit, Kec. Gucialit, Kabupaten Lumajang, Jawa Timur 67353";"RT.003/RW.010, Sidodadi, Gucialit, Kec. Gucialit, Kabupaten Lumajang";"JAWA TIMUR";"67353";"Indonesia";"";"";"";"-8.0570904";"113.1527384";"https://maps.google.com/?cid=0x0:0x6f489159f6e5c9c4";""
"komplek housing";"Pembangunan Perumahan";"Beni";"X4CX+7CP, Sidomakmur, Kertowono, Kec. Gucialit, Kabupaten Lumajang, Jawa Timur 67353";"Sidomakmur, Kertowono, Kec. Gucialit, Kabupaten Lumajang";"JAWA TIMUR";"67353";"Indonesia";"";"";"";"-8.02928";"113.1485763";"https://maps.google.com/?cid=0x0:0x8f15437e4ea8e43b";""
"komplek housing";"Komplek perumahan";"Rumah Intan Candra";"W4RR+RQ4, Margodadi, Kenongo, Kec. Gucialit, Kabupaten Lumajang, Jawa Timur 67353";"Margodadi, Kenongo, Kec. Gucialit, Kabupaten Lumajang";"JAWA TIMUR";"67353";"Indonesia";"";"";"";"-8.0579884";"113.1419619";"https://maps.google.com/?cid=0x0:0xac0c8df312678d33";""
"komplek housing";"Komplek perumahan";"RUMAH EDI GAPLEK";"X5H2+2Q6, Pusungmalang, Kertowono, Kec. Gucialit, Kabupaten Lumajang, Jawa Timur 67353";"Pusungmalang, Kertowono, Kec. Gucialit, Kabupaten Lumajang";"JAWA TIMUR";"67353";"Indonesia";"";"";"";"-8.0224735";"113.1518854";"https://maps.google.com/?cid=0x0:0xa8522bf9b9e4ca25";""
"komplek housing";"Komplek perumahan";"abynurcahyono";"W4HQ+836, Wonosari, Wonokerto, Kec. Gucialit, Kabupaten Lumajang, Jawa Timur 67353";"Wonosari, Wonokerto, Kec. Gucialit, Kabupaten Lumajang";"JAWA TIMUR";"67353";"Indonesia";"";"";"";"-8.0717176";"113.1376556";"https://maps.google.com/?cid=0x0:0xb4ffc3b0418685a";""
"komplek housing";"Komplek perumahan";"Rumah faridah";"X46M+3QF, Sidorukun, Gucialit, Kec. Gucialit, Kabupaten Lumajang, Jawa Timur 67353";"Sidorukun, Gucialit, Kec. Gucialit, Kabupaten Lumajang";"JAWA TIMUR";"67353";"Indonesia";"";"";"";"-8.0397496";"113.1345577";"https://maps.google.com/?cid=0x0:0xdf2588d3da31a596";""
"komplek housing";"Komplek perumahan";"Rumah samukri";"W4MG+XF7, Pakel, Kec. Gucialit, Kabupaten Lumajang, Jawa Timur 67353";"Pakel, Kec. Gucialit, Kabupaten Lumajang";"JAWA TIMUR";"67353";"Indonesia";"";"";"";"-8.065024";"113.126081";"https://maps.google.com/?cid=0x0:0x85f65e0ab7106726";""
"komplek housing";"Komplek perumahan";"Umah e robbi";"X567+QM6, Sidomulyo, Kertowono, Kec. Gucialit, Kabupaten Lumajang, Jawa Timur 67353";"Sidomulyo, Kertowono, Kec. Gucialit, Kabupaten Lumajang";"JAWA TIMUR";"67353";"Indonesia";"";"";"";"-8.0380998";"113.164126";"https://maps.google.com/?cid=0x0:0xa2b495279bf2e257";""
"komplek housing";"Komplek perumahan";"Perumahan PTPN Kertowono";"X49M+4G3, Gucialit, Kec. Gucialit, Kabupaten Lumajang, Jawa Timur 67353";"Gucialit, Kec. Gucialit, Kabupaten Lumajang";"JAWA TIMUR";"67353";"Indonesia";"";"";"";"-8.032226";"113.1338103";"https://maps.google.com/?cid=0x0:0xe3e48af4effec80c";""
"komplek housing";"Perhimpunan Pengembang Perumahan";"sri herma";"X47M+7F5, Gucialit, Kec. Gucialit, Kabupaten Lumajang, Jawa Timur 67353";"Gucialit, Kec. Gucialit, Kabupaten Lumajang";"JAWA TIMUR";"67353";"Indonesia";"";"";"";"-8.0367008";"113.133756";"https://maps.google.com/?cid=0x0:0xeb8fd194ddc1430e";""
"komplek housing";"Komplek perumahan";"Jawa timur";"2592+JC7, Argomulyo, Sombo, Kec. Gucialit, Kabupaten Lumajang, Jawa Timur 67353";"Argomulyo, Sombo, Kec. Gucialit, Kabupaten Lumajang";"JAWA TIMUR";"67353";"Indonesia";"";"";"";"-7.980288";"113.150741";"https://maps.google.com/?cid=0x0:0x9f7d8c696a9312e4";""
"komplek housing";"komplek housing";"Rumah jodi irfan";"W4QJ+PXV, Sumberdadi, Pakel, Kec. Gucialit, Kabupaten Lumajang, Jawa Timur 67353";"Sumberdadi, Pakel, Kec. Gucialit, Kabupaten Lumajang";"JAWA TIMUR";"67353";"Indonesia";"";"";"";"-8.0606419";"113.1324068";"https://maps.google.com/?cid=0x0:0x9f344a461b15ff59";""
"komplek housing";"Pembangunan Perumahan";"Home Devi";"252C+CVR, Karangmulyo, Jeruk, Kec. Gucialit, Kabupaten Lumajang, Jawa Timur 67353";"Karangmulyo, Jeruk, Kec. Gucialit, Kabupaten Lumajang";"JAWA TIMUR";"67353";"Indonesia";"";"";"";"-7.9986917";"113.1711454";"https://maps.google.com/?cid=0x0:0x32065c8336042365";""
"komplek housing";"Komplek perumahan";"Rumah hadi mahardika";"X48W+5WF, Kertowono, Kec. Gucialit, Kabupaten Lumajang, Jawa Timur 67353";"Kertowono, Kec. Gucialit, Kabupaten Lumajang";"JAWA TIMUR";"67353";"Indonesia";"";"";"";"-8.0345522";"113.1473125";"https://maps.google.com/?cid=0x0:0x1f89cf88da93ac00";""
"komplek housing";"Komplek perumahan";"Mbah Putri Home";"W4HP+6V6, Wonosari, Wonokerto, Kec. Gucialit, Kabupaten Lumajang, Jawa Timur 67353";"Wonosari, Wonokerto, Kec. Gucialit, Kabupaten Lumajang";"JAWA TIMUR";"67353";"Indonesia";"";"";"";"-8.0718494";"113.1368087";"https://maps.google.com/?cid=0x0:0x81ccfe41a826d9ae";""
"komplek housing";"komplek housing";"Rumah sukin / Restiana";"W4JH+6J7, Sumbermulyo, Pakel, Kec. Gucialit, Kabupaten Lumajang, Jawa Timur 67353";"Sumbermulyo, Pakel, Kec. Gucialit, Kabupaten Lumajang";"JAWA TIMUR";"67353";"Indonesia";"";"";"";"-8.070047";"113.129252";"https://maps.google.com/?cid=0x0:0x9a7e661b36362aca";""
"komplek housing";"Komplek perumahan";"Rumah Rizka";"W4JP+4H8, Wonosari, Wonokerto, Kec. Gucialit, Kabupaten Lumajang, Jawa Timur 67353";"Wonosari, Wonokerto, Kec. Gucialit, Kabupaten Lumajang";"JAWA TIMUR";"67353";"Indonesia";"";"";"";"-8.069512";"113.137271";"https://maps.google.com/?cid=0x0:0xb6ecc11d4f13ca2b";""
"komplek housing";"komplek housing";"Rohmat hadi";"2JMM+932, Sidodadi PS malang, Kertowono, Kec. Gucialit, Kabupaten Lumajang, Jawa Timur 67353";"Sidodadi PS malang, Kertowono, Kec. Gucialit, Kabupaten Lumajang";"JAWA TIMUR";"67353";"Indonesia";"";"";"";"-7.9666239";"112.6326467";"https://maps.google.com/?cid=0x0:0xd1a0a02c1a7859e1";""
"komplek housing";"komplek housing";"Jatiroto";"Kec. Jatiroto, Kabupaten Wonogiri, Jawa Tengah";"Kabupaten Wonogiri, Jawa Tengah";"JAWA TIMUR";"";"Indonesia";"";"";"";"-7.882823";"111.1078993";"https://maps.google.com/?cid=0x0:0x4027a76e352ff40";""
"komplek housing";"komplek housing";"Kec. Jatiroto";"Kabupaten Lumajang, Jawa Timur";"Kabupaten Lumajang, Jawa Timur";"JAWA TIMUR";"";"Indonesia";"";"";"";"-8.1201067";"113.3581124";"https://maps.google.com/?cid=0x0:0x44896e30caaa6b88";""
"komplek housing";"Toko Kerajinan Tangan";"Wulan Home";"Sambiroto Lor, RT.01/RW.07, Gambiroto Lor, Jatiroto, Kec. Jatiroto, Kabupaten Wonogiri, Jawa Tengah 57692";"RT.01/RW.07, Gambiroto Lor, Jatiroto, Kec. Jatiroto, Kabupaten Wonogiri";"JAWA TIMUR";"57692";"Indonesia";"";"";"";"-7.8781787";"111.1106146";"https://maps.google.com/?cid=0x0:0xa85598193800a8df";""
"komplek housing";"Pembangunan Perumahan";"Ammar house";"44MV+8PM, Sugihan, Kec. Jatiroto, Kabupaten Wonogiri, Jawa Tengah 57692";"Sugihan, Kec. Jatiroto, Kabupaten Wonogiri";"JAWA TIMUR";"57692";"Indonesia";"";"";"";"-7.866678";"111.143918";"https://maps.google.com/?cid=0x0:0x1cfd930518cf713e";""
"komplek housing";"Komplek perumahan";"Hanum Pramudhita hom's";"34W7+RP7, Ngelo, Kec. Jatiroto, Kabupaten Wonogiri, Jawa Tengah 57692";"Ngelo, Kec. Jatiroto, Kabupaten Wonogiri";"JAWA TIMUR";"57692";"Indonesia";"";"";"";"-7.9029677";"111.1143058";"https://maps.google.com/?cid=0x0:0xe71fb4877ec48512";""
"komplek housing";"Komplek perumahan";"Gavyn";"4464+WWV, Sambiroto Kidul, Jatiroto, Kec. Jatiroto, Kabupaten Wonogiri, Jawa Tengah 57692";"Sambiroto Kidul, Jatiroto, Kec. Jatiroto, Kabupaten Wonogiri";"JAWA TIMUR";"57692";"Indonesia";"";"";"";"-7.8876397";"111.1073099";"https://maps.google.com/?cid=0x0:0x7d21a0e2d882f829";""
"komplek housing";"Komplek perumahan";"Rumah chesya";"34Q4+4JH, Pingkuk, Kec. Jatiroto, Kabupaten Wonogiri, Jawa Tengah 57692";"Pingkuk, Kec. Jatiroto, Kabupaten Wonogiri";"JAWA TIMUR";"57692";"Indonesia";"";"";"";"-7.9114237";"111.1070983";"https://maps.google.com/?cid=0x0:0x38be9fe1c165bfe8";""
"komplek housing";"Komplek perumahan";"mbah jodeh house";"Dusun Manggis 01, RW.04, Sanggrong, Kec. Jatiroto, Kabupaten Wonogiri, Jawa Tengah 57692";"RW.04, Sanggrong, Kec. Jatiroto, Kabupaten Wonogiri";"JAWA TIMUR";"57692";"Indonesia";"";"";"";"-7.8987622";"111.1119272";"https://maps.google.com/?cid=0x0:0x5d0a85179b96c93d";""
"komplek housing";"Komplek perumahan";"Home";"4589+P55, Jl. Harjuno Paro, Mipitan, Boto, Kec. Jatiroto, Kabupaten Wonogiri, Jawa Tengah 57692";"Jl. Harjuno Paro, Mipitan, Boto, Kec. Jatiroto, Kabupaten Wonogiri";"JAWA TIMUR";"57692";"Indonesia";"";"";"";"-7.8838913";"111.1680653";"https://maps.google.com/?cid=0x0:0xb6ba11f8e5ee4095";""
"komplek housing";"Komplek perumahan";"Rumah Mbah Sardi";"44H2+7W7, Kopen, Jatiroto, Kec. Jatiroto, Kabupaten Wonogiri, Jawa Tengah 57692";"Kopen, Jatiroto, Kec. Jatiroto, Kabupaten Wonogiri";"JAWA TIMUR";"57692";"Indonesia";"";"";"";"-7.8713935";"111.1027445";"https://maps.google.com/?cid=0x0:0xf6006e3b63160256";""
"komplek housing";"Pembangunan Perumahan";"Home";"44C6+P32, Gambiroto Lor, Jatiroto, Kec. Jatiroto, Kabupaten Wonogiri, Jawa Tengah 57692";"Gambiroto Lor, Jatiroto, Kec. Jatiroto, Kabupaten Wonogiri";"JAWA TIMUR";"57692";"Indonesia";"";"";"";"-7.8782498";"111.1101305";"https://maps.google.com/?cid=0x0:0x8b1f0dd7e7835fc3";""
"komplek housing";"Komplek perumahan";"Rumah Diah Ayu";"pengkol 2, Pundung Sewu, Pengkol, Kec. Jatiroto, Kabupaten Wonogiri, Jawa Tengah 57692";"Pundung Sewu, Pengkol, Kec. Jatiroto, Kabupaten Wonogiri";"JAWA TIMUR";"57692";"Indonesia";"";"";"";"-7.88559";"111.141456";"https://maps.google.com/?cid=0x0:0x25bb1d5954461030";""
"komplek housing";"Komplek perumahan";"Rumah Ega Janggan";"439X+FC3, RT.02/RW.01, Junggan, Janggan, Kec. Jatiroto, Kabupaten Wonogiri, Jawa Tengah 57692";"RT.02/RW.01, Junggan, Janggan, Kec. Jatiroto, Kabupaten Wonogiri";"JAWA TIMUR";"57692";"Indonesia";" 081326114090";"";"";"-7.8813638";"111.0985451";"https://maps.google.com/?cid=0x0:0xdce5e6707c294a80";""
"komplek housing";"Komplek perumahan";"Jatiroto";"4564+JR5, Mloko Legi, Guno, Kec. Jatiroto, Kabupaten Wonogiri, Jawa Tengah 57692";"Mloko Legi, Guno, Kec. Jatiroto, Kabupaten Wonogiri";"JAWA TIMUR";"57692";"Indonesia";"";"";"";"-7.8881545";"111.1572667";"https://maps.google.com/?cid=0x0:0x70f212852eb9b330";""
"komplek housing";"Perhimpunan Pengembang Perumahan";"Home Khrisna";"SambirotoLor RT2/RW7, Tugu, Pengkol, Kec. Jatiroto, Kabupaten Wonogiri, Jawa Tengah 57692";"Tugu, Pengkol, Kec. Jatiroto, Kabupaten Wonogiri";"JAWA TIMUR";"57692";"Indonesia";"";"";"";"-7.8766321";"111.150358";"https://maps.google.com/?cid=0x0:0x1787947fe353099c";""
"komplek housing";"Komplek perumahan";"Dntbntho";"33QR+X53, Pesido, Kec. Jatiroto, Kabupaten Wonogiri, Jawa Tengah 57692";"Pesido, Kec. Jatiroto, Kabupaten Wonogiri";"JAWA TIMUR";"57692";"Indonesia";"";"";"";"-7.9101185";"111.0904214";"https://maps.google.com/?cid=0x0:0x2c093628410f7bcc";""
"komplek housing";"Komplek perumahan";"Rumah jabrik/ ENDRA SUMARDI";"44JW+F8Q, Sumberagung, Sugihan, Kec. Jatiroto, Kabupaten Wonogiri, Jawa Tengah 57692";"Sumberagung, Sugihan, Kec. Jatiroto, Kabupaten Wonogiri";"JAWA TIMUR";"57692";"Indonesia";"";"";"";"-7.8682152";"111.1455693";"https://maps.google.com/?cid=0x0:0xdff7c5afb80d74e6";""
"komplek housing";"komplek housing";"Rumah Ilham";"4543+W3W, Guno Kidul, Guno, Kec. Jatiroto, Kabupaten Wonogiri, Jawa Tengah 57692";"Guno Kidul, Guno, Kec. Jatiroto, Kabupaten Wonogiri";"JAWA TIMUR";"57692";"Indonesia";"";"";"";"-7.8926339";"111.1526932";"https://maps.google.com/?cid=0x0:0xa98d50298bf4951f";""
"komplek housing";"Komplek perumahan";"Rumah Hesty";"34RH+WC9, Tretes, Dawungan, Kec. Jatiroto, Kabupaten Wonogiri, Jawa Tengah 57692";"Tretes, Dawungan, Kec. Jatiroto, Kabupaten Wonogiri";"JAWA TIMUR";"57692";"Indonesia";"";"";"";"-7.9077226";"111.128604";"https://maps.google.com/?cid=0x0:0x7f869b0cde6f2f18";""
"komplek housing";"komplek housing";"Mbah Manto Home";"43JX+PJ8, Tenggar, Jatirejo, Kec. Jatiroto, Kabupaten Wonogiri, Jawa Tengah 57692";"Tenggar, Jatirejo, Kec. Jatiroto, Kabupaten Wonogiri";"JAWA TIMUR";"57692";"Indonesia";"";"";"";"-7.8682002";"111.0990635";"https://maps.google.com/?cid=0x0:0xe19e55a5e2442087";""
"komplek housing";"komplek housing";"Rumah Ida  Isah";"43JV+6CW, Mayong, Jatirejo, Kec. Jatiroto, Kabupaten Wonogiri, Jawa Tengah 57692";"Mayong, Jatirejo, Kec. Jatiroto, Kabupaten Wonogiri";"JAWA TIMUR";"57692";"Indonesia";"";"";"";"-7.8695845";"111.0939904";"https://maps.google.com/?cid=0x0:0xcc653dee75e2d7f1";""
"komplek housing";"komplek housing";"Jawa Timur";"";"Jawa Timur";"JAWA TIMUR";"";"Indonesia";"";"";"";"-7.5360639";"112.2384017";"https://maps.google.com/?cid=0x0:0x1030bfbca7cb850";""
"komplek housing";"komplek housing";"Rumah Wisnu";"436H+VJ2, Tegalrejo, Jatirejo, Kec. Jatiroto, Kabupaten Wonogiri, Jawa Tengah 57692";"Tegalrejo, Jatirejo, Kec. Jatiroto, Kabupaten Wonogiri";"JAWA TIMUR";"57692";"Indonesia";"";"";"";"-7.8880755";"111.0793781";"https://maps.google.com/?cid=0x0:0xc38c5f66cdac1a2a";""
"komplek housing";"Komplek perumahan";"Rumah Toni";"435G+V5R, Tegalrejo, Jatirejo, Kec. Jatiroto, Kabupaten Wonogiri, Jawa Tengah 57692";"Tegalrejo, Jatirejo, Kec. Jatiroto, Kabupaten Wonogiri";"JAWA TIMUR";"57692";"Indonesia";"";"";"";"-7.8905762";"111.0755341";"https://maps.google.com/?cid=0x0:0xebf961faaae0f4e6";""
"komplek housing";"komplek housing";"Mbadran";"4542+M5V Mbadran, Guno Kidul, Guno, Kec. Jatiroto, Kabupaten Wonogiri, Jawa Tengah 57692";"Guno Kidul, Guno, Kec. Jatiroto, Kabupaten Wonogiri";"JAWA TIMUR";"57692";"Indonesia";"";"";"";"-7.8932632";"111.150419";"https://maps.google.com/?cid=0x0:0xe7b9a1c0989e8be6";""
"komplek housing";"Perumahan";"Tarmudi";"445G+MXW, Cangkring, Kec. Jatiroto, Kabupaten Wonogiri, Jawa Tengah 57692";"Cangkring, Kec. Jatiroto, Kabupaten Wonogiri";"JAWA TIMUR";"57692";"Indonesia";"";"";"";"-7.8907555";"111.1274402";"https://maps.google.com/?cid=0x0:0x4c4b39eef498404";""
"komplek housing";"Perhimpunan Pengembang Perumahan";"Arif Rohman";"432M+23R, Mangrih, Mojopuro, Kec. Jatiroto, Kabupaten Wonogiri, Jawa Tengah 57692";"Mangrih, Mojopuro, Kec. Jatiroto, Kabupaten Wonogiri";"JAWA TIMUR";"57692";"Indonesia";"";"";"";"-7.899885";"111.0826267";"https://maps.google.com/?cid=0x0:0x7cc234b0f2b24737";""
"komplek housing";"Komplek perumahan";"Rumah Pak Parsino";"4498+HV8, Duren Kidul, Duren, Kec. Jatiroto, Kabupaten Wonogiri, Jawa Tengah 57692";"Duren Kidul, Duren, Kec. Jatiroto, Kabupaten Wonogiri";"JAWA TIMUR";"57692";"Indonesia";"";"";"";"-7.8810806";"111.1172083";"https://maps.google.com/?cid=0x0:0xa5c8256edea5f35f";""
"komplek housing";"Komplek perumahan";"FAJAR RIVANO HOUSING";"435G+V5R, Tegalrejo, Jatirejo, Kec. Jatiroto, Kabupaten Wonogiri, Jawa Tengah 57692";"Tegalrejo, Jatirejo, Kec. Jatiroto, Kabupaten Wonogiri";"JAWA TIMUR";"57692";"Indonesia";"";"";"";"-7.8902671";"111.0753871";"https://maps.google.com/?cid=0x0:0xcffd44899cc15ccd";""
"komplek housing";"Komplek perumahan";"Faiz's house";"V87G+C5V, Krajan kidul, Rojopolo, Kec. Jatiroto, Kabupaten Lumajang, Jawa Timur 67355";"Krajan kidul, Rojopolo, Kec. Jatiroto, Kabupaten Lumajang";"JAWA TIMUR";"67355";"Indonesia";"";"";"";"-8.1363918";"113.3254193";"https://maps.google.com/?cid=0x0:0x41b7cf7d82c6be56";""
"komplek housing";"Komplek perumahan";"Rumah Hj. Amna Petung Jaya";"V82Q+J48, Wonokerto, Kaliboto Kidul, Kec. Jatiroto, Kabupaten Lumajang, Jawa Timur 67355";"Wonokerto, Kaliboto Kidul, Kec. Jatiroto, Kabupaten Lumajang";"JAWA TIMUR";"67355";"Indonesia";"";"";"";"-8.1484556";"113.3378154";"https://maps.google.com/?cid=0x0:0xff083ab8e8ba7643";""
"komplek housing";"Pembangunan Perumahan";"IINSETYANINGSIH";"Jl. Nyeoran BLOK E.36, Sawah, Kaliboto Lor, Kec. Jatiroto, Kabupaten Lumajang, Jawa Timur 67355";"Sawah, Kaliboto Lor, Kec. Jatiroto, Kabupaten Lumajang";"JAWA TIMUR";"67355";"Indonesia";"";"";"";"-8.1316607";"113.3696054";"https://maps.google.com/?cid=0x0:0xc47efe82d8aeaa5a";""
"komplek housing";"komplek housing";"HITOKIRI BATTOSAI";"W84P+R34, Curah Wedi, Jatiroto, Kec. Jatiroto, Kabupaten Lumajang, Jawa Timur";"Kabupaten Lumajang, Jawa Timur";"JAWA TIMUR";"";"Indonesia";"";"";"";"-8.0929864";"113.3351896";"https://maps.google.com/?cid=0x0:0x42fbef400a2e05a3";""
"komplek housing";"Komplek perumahan";"Samhaji";"V9Q7+4CW, Jatiroto, Kec. Jatiroto, Kabupaten Lumajang, Jawa Timur 67355";"Jatiroto, Kec. Jatiroto, Kabupaten Lumajang";"JAWA TIMUR";"67355";"Indonesia";"";"";"";"-8.1121253";"113.3635685";"https://maps.google.com/?cid=0x0:0x293b5303e1528d1f";""
"komplek housing";"Komplek perumahan";"Rumah pelanggan";"V9R8+7RR, Jatiroto, Kec. Jatiroto, Kabupaten Lumajang, Jawa Timur 67355";"Jatiroto, Kec. Jatiroto, Kabupaten Lumajang";"JAWA TIMUR";"67355";"Indonesia";"";"";"";"-8.1092745";"113.3670197";"https://maps.google.com/?cid=0x0:0xca0d3dc946961ae7";""
"komplek housing";"komplek housing";"myhome";"R8XJ+796, Pondoksari, Kaliboto Kidul, Kec. Jatiroto, Kabupaten Lumajang, Jawa Timur 67355";"Pondoksari, Kaliboto Kidul, Kec. Jatiroto, Kabupaten Lumajang";"JAWA TIMUR";"67355";"Indonesia";"";"";"";"-8.1526889";"113.3313419";"https://maps.google.com/?cid=0x0:0x4c9a792f95335fc8";""
"komplek housing";"Komplek perumahan";"Budi. S ( DMI LMJ #004 )";"nyeoran E 34 rt 049 rw011, Nyeroan, Kaliboto Lor, Kec. Jatiroto, Kabupaten Lumajang, Jawa Timur 67355";"Nyeroan, Kaliboto Lor, Kec. Jatiroto, Kabupaten Lumajang";"JAWA TIMUR";"67355";"Indonesia";" 082238287559";"";"";"-8.1302711";"113.3678002";"https://maps.google.com/?cid=0x0:0xc130d421dfd4600a";""
"komplek housing";"Komplek perumahan";"Villa Magdalena";"Griya Jatiroto Permai, Umbulsari, Kaliboto Kidul, Kec. Jatiroto, Kabupaten Lumajang, Jawa Timur 67355";"Umbulsari, Kaliboto Kidul, Kec. Jatiroto, Kabupaten Lumajang";"JAWA TIMUR";"67355";"Indonesia";"";"";"";"-8.1202026";"113.358113";"https://maps.google.com/?cid=0x0:0xef3cd415164cee55";""
"komplek housing";"komplek housing";"Jatiroto";"V9H5+W69, Umbulsari, Kaliboto Kidul, Kec. Jatiroto, Kabupaten Lumajang, Jawa Timur 67355";"Umbulsari, Kaliboto Kidul, Kec. Jatiroto, Kabupaten Lumajang";"JAWA TIMUR";"67355";"Indonesia";"";"";"";"-8.1202026";"113.358113";"https://maps.google.com/?cid=0x0:0x5f8dd63574fdb908";""
"komplek housing";"komplek housing";"Abdul rohman";"V8CJ+528, Pd. Rejo, Kaliboto Kidul, Kec. Jatiroto, Kabupaten Lumajang, Jawa Timur 67355";"Pd. Rejo, Kaliboto Kidul, Kec. Jatiroto, Kabupaten Lumajang";"JAWA TIMUR";"67355";"Indonesia";"";"";"";"-8.129019";"113.330278";"https://maps.google.com/?cid=0x0:0xee1dd982b93327c3";""
"komplek housing";"Komplek perumahan";"Rumah Irwan";"W83M+XHH, Curah Wedi, Jatiroto, Kec. Jatiroto, Kabupaten Lumajang, Jawa Timur 67355";"Curah Wedi, Jatiroto, Kec. Jatiroto, Kabupaten Lumajang";"JAWA TIMUR";"67355";"Indonesia";"";"";"";"-8.0943523";"113.3343011";"https://maps.google.com/?cid=0x0:0x6d41e5b282299486";""
"komplek housing";"komplek housing";"Rumah";"W83R+2C, Area Sawah/Kebun, Jatiroto, Kec. Jatiroto, Kabupaten Lumajang, Jawa Timur";"Kabupaten Lumajang, Jawa Timur";"JAWA TIMUR";"";"Indonesia";"";"";"";"-8.0974286";"113.341083";"https://maps.google.com/?cid=0x0:0x29b3db4d4fdfa8f";""
"komplek housing";"Komplek perumahan";"Achmad dasuki";"V88F+X4, Krajan, Rojopolo, Kec. Jatiroto, Kabupaten Lumajang, Jawa Timur";"Kabupaten Lumajang, Jawa Timur";"JAWA TIMUR";"";"Indonesia";"";"";"";"-8.1325469";"113.3228149";"https://maps.google.com/?cid=0x0:0xe197c349ac1b471e";""
"komplek housing";"komplek housing";"Derry House";"V9M5+8X4, perumnas, Umbulsari, Jatiroto, Kec. Jatiroto, Kabupaten Lumajang, Jawa Timur 67355";"perumnas, Umbulsari, Jatiroto, Kec. Jatiroto, Kabupaten Lumajang";"JAWA TIMUR";"67355";"Indonesia";"";"";"";"-8.1167333";"113.3599223";"https://maps.google.com/?cid=0x0:0xf93035030d072bdf";""
"komplek housing";"Pembangunan Perumahan";"DIRGANTARA";"V8HW+M6, Area Sawah/Kebun, Kaliboto Kidul, Kec. Jatiroto, Kabupaten Lumajang, Jawa Timur";"Kabupaten Lumajang, Jawa Timur";"JAWA TIMUR";"";"Indonesia";"";"";"";"-8.1207738";"113.3455834";"https://maps.google.com/?cid=0x0:0xe963e4b13e3f389b";""
"komplek housing";"Pembangunan Perumahan";"El fieqoh house";"W933+HX9, Area Sawah/Kebun, Jatiroto, Kec. Jatiroto, Kabupaten Lumajang, Jawa Timur 67355";"Area Sawah/Kebun, Jatiroto, Kec. Jatiroto, Kabupaten Lumajang";"JAWA TIMUR";"67355";"Indonesia";"";"";"";"-8.0960912";"113.3549958";"https://maps.google.com/?cid=0x0:0xf4f5c778038d441e";""
"komplek housing";"Komplek perumahan";"Hasanatud Daraini";"V7JF+VQQ, Jowoan, Banyuputih Kidul, Kec. Jatiroto, Kabupaten Lumajang, Jawa Timur 67355";"Jowoan, Banyuputih Kidul, Kec. Jatiroto, Kabupaten Lumajang";"JAWA TIMUR";"67355";"Indonesia";"";"";"";"-8.1177936";"113.2744875";"https://maps.google.com/?cid=0x0:0xd9b841e327d48a68";""
"komplek housing";"Komplek perumahan";"Ajis Hariyanto";"V847+WHV, Sukorejo, Rojopolo, Kec. Jatiroto, Kabupaten Lumajang, Jawa Timur";"Kabupaten Lumajang, Jawa Timur";"JAWA TIMUR";"";"Indonesia";"";"";"";"-8.1426386";"113.3139198";"https://maps.google.com/?cid=0x0:0x7dff372343539749";""
"komplek housing";"komplek housing";"Jawa Timur 67355";"Kec. Jatiroto, Kabupaten Lumajang, Jawa Timur";"Kabupaten Lumajang, Jawa Timur";"JAWA TIMUR";"";"Indonesia";"";"";"";"-8.1344746";"113.3228127";"https://maps.google.com/?cid=0x0:0x1c00c5eb5b542860";""
"komplek housing";"komplek housing";"Rumah haji Marjuki";"V8RX+G9X, Jl. Imam Bonjol, Krajan I, Kaliboto Lor, Kec. Jatiroto, Kabupaten Lumajang, Jawa Timur 67355";"Jl. Imam Bonjol, Krajan I, Kaliboto Lor, Kec. Jatiroto, Kabupaten Lumajang";"JAWA TIMUR";"67355";"Indonesia";"";"";"";"-8.1086486";"113.3484892";"https://maps.google.com/?cid=0x0:0x8356533bec74b96e";""
"komplek housing";"Pembangunan Perumahan";"Happy family";"V9R7+257, Jatiroto, Kec. Jatiroto, Kabupaten Lumajang, Jawa Timur 67355";"Jatiroto, Kec. Jatiroto, Kabupaten Lumajang";"JAWA TIMUR";"67355";"Indonesia";"";"";"";"-8.1101906";"113.3628422";"https://maps.google.com/?cid=0x0:0x1dcec656225ad688";""
"komplek housing";"komplek housing";"Rumah Teteh Fitri";"V8PX+X8P, Krajan II, Kaliboto Lor, Kec. Jatiroto, Kabupaten Lumajang, Jawa Timur 67355";"Krajan II, Kaliboto Lor, Kec. Jatiroto, Kabupaten Lumajang";"JAWA TIMUR";"67355";"Indonesia";"";"";"";"-8.1125262";"113.3483192";"https://maps.google.com/?cid=0x0:0xa85c0f0be50d88c9";""
"komplek housing";"Pembangunan Perumahan";"Mas angga";"V8XW+F32, Kotokan, Jatiroto, Kec. Jatiroto, Kabupaten Lumajang, Jawa Timur 67355";"Kotokan, Jatiroto, Kec. Jatiroto, Kabupaten Lumajang";"JAWA TIMUR";"67355";"Indonesia";"";"";"";"-8.1013748";"113.3451415";"https://maps.google.com/?cid=0x0:0x953d3e36d7d1a6d";""
"komplek housing";"Pembangunan Perumahan";"Gang Kes Engkes";"V9J4+PX9, Jln moris blok1, RT.:002/RW.:001, Umbulsari, Kaliboto Lor, Kec. Jatiroto, Kabupaten Lumajang, Jawa Timur 67355";"Jln moris blok1, RT.:002/RW.:001, Umbulsari, Kaliboto Lor, Kec. Jatiroto, Kabupaten Lumajang";"JAWA TIMUR";"67355";"Indonesia";"";"";"";"-8.1182176";"113.3575262";"https://maps.google.com/?cid=0x0:0x8845bac3521106e";""
"komplek housing";"Toko Swalayan";"Mahen Agen pulsa";"V8QW+HGM, Krajan II, Kaliboto Lor, Kec. Jatiroto, Kabupaten Lumajang, Jawa Timur 67355";"Krajan II, Kaliboto Lor, Kec. Jatiroto, Kabupaten Lumajang";"JAWA TIMUR";"67355";"Indonesia";"";"";"";"-8.1110317";"113.3462933";"https://maps.google.com/?cid=0x0:0x41814e03383fbd00";""
"komplek housing";"Bakso";"Rumah bakso MAS RETE";"V8RW+C32, Krajan II, Kaliboto Lor, Kec. Jatiroto, Kabupaten Lumajang, Jawa Timur 67355";"Krajan II, Kaliboto Lor, Kec. Jatiroto, Kabupaten Lumajang";"JAWA TIMUR";"67355";"Indonesia";" 083849747725";"";"";"-8.109239";"113.3455808";"https://maps.google.com/?cid=0x0:0x5374dfe2e6c3728f";""
"komplek housing";"Komplek perumahan";"gubuk ayu mtr";"V8VX+3G3, Krajan II, Kaliboto Lor, Kec. Jatiroto, Kabupaten Lumajang, Jawa Timur 67355";"Krajan II, Kaliboto Lor, Kec. Jatiroto, Kabupaten Lumajang";"JAWA TIMUR";"67355";"Indonesia";"";"";"";"-8.1073567";"113.3487981";"https://maps.google.com/?cid=0x0:0x6397f4219dfd003";""
"komplek housing";"Komplek perumahan";"Omah Boto "Raden"";"Jl. Sultan Agung No.54, Krajan I, Kaliboto Lor, Kec. Jatiroto, Kabupaten Lumajang, Jawa Timur 67355";"Krajan I, Kaliboto Lor, Kec. Jatiroto, Kabupaten Lumajang";"JAWA TIMUR";"67355";"Indonesia";"";"";"";"-8.1144196";"113.3528678";"https://maps.google.com/?cid=0x0:0xf81cb1de59301c41";""
"komplek housing";"Komplek perumahan";"rumah";"X62J+HFJ, Jl. Tomodiharjo, Krajan Kedung Jajang, Kedungjajang, Kec. Kedungjajang, Kabupaten Lumajang, Jawa Timur 67358";"Jl. Tomodiharjo, Krajan Kedung Jajang, Kedungjajang, Kec. Kedungjajang, Kabupaten Lumajang";"JAWA TIMUR";"67358";"Indonesia";"";"";"";"-8.0485443";"113.2311416";"https://maps.google.com/?cid=0x0:0x7f9677b7865f33bf";""
"komplek housing";"Komplek perumahan";"Omah iZQi";"W6JM+XWH, Kedung Jajang, Wonorejo, Kec. Kedungjajang, Kabupaten Lumajang, Jawa Timur 67358";"Kedung Jajang, Wonorejo, Kec. Kedungjajang, Kabupaten Lumajang";"JAWA TIMUR";"67358";"Indonesia";" 085236580446";"";"";"-8.0676013";"113.2348625";"https://maps.google.com/?cid=0x0:0x809ffd08b9c3d637";""
"komplek housing";"komplek housing";"Doni Setiawan";"W6M9+5CQ, Krajan, Pandansari, Kec. Kedungjajang, Kabupaten Lumajang, Jawa Timur";"Kabupaten Lumajang, Jawa Timur";"JAWA TIMUR";"";"Indonesia";"";"";"";"-8.0670487";"113.2186017";"https://maps.google.com/?cid=0x0:0x5e03c8c3d36bcaa4";""
"komplek housing";"Komplek perumahan";"Kemas House";"Jl. Surya Asri Wonorejo No.14, Krajan, Wonorejo, Kec. Kedungjajang, Kabupaten Lumajang, Jawa Timur 67358";"Krajan, Wonorejo, Kec. Kedungjajang, Kabupaten Lumajang";"JAWA TIMUR";"67358";"Indonesia";"";"";"";"-8.0714443";"113.2339908";"https://maps.google.com/?cid=0x0:0xdf3c841455dac33d";""
"komplek housing";"Komplek perumahan";"House of Chynta";"X6W9+G22, Unnamed Road, Darungan, Sawaran Kulon, Kec. Kedungjajang, Kabupaten Lumajang, Jawa Timur 67358";"Unnamed Road, Darungan, Sawaran Kulon, Kec. Kedungjajang, Kabupaten Lumajang";"JAWA TIMUR";"67358";"Indonesia";" 085859219009";"";"";"-8.0037497";"113.2175075";"https://maps.google.com/?cid=0x0:0x1f85b32c43ced6d1";""
"komplek housing";"komplek housing";"Rumah Hijrie🥰";"W69V+XQH, Jl. Raya Lumajang - Jember, Pondok, Wonorejo, Kec. Kedungjajang, Kabupaten Lumajang, Jawa Timur 67358";"Jl. Raya Lumajang - Jember, Pondok, Wonorejo, Kec. Kedungjajang, Kabupaten Lumajang";"JAWA TIMUR";"67358";"Indonesia";"";"";"";"-8.0799029";"113.2446576";"https://maps.google.com/?cid=0x0:0x9b350347c258a1f4";""
"komplek housing";"Komplek perumahan";"Rumah babun";"W6V3+MJ9, Gugut, Krasak, Kec. Kedungjajang, Kabupaten Lumajang, Jawa Timur 67358";"Gugut, Krasak, Kec. Kedungjajang, Kabupaten Lumajang";"JAWA TIMUR";"67358";"Indonesia";"";"";"";"-8.055412";"113.2047712";"https://maps.google.com/?cid=0x0:0x4f6e255adc953578";""
"komplek housing";"Komplek perumahan";"Soleh Abdijaya Home";"X665+WF5, Bence, Kec. Kedungjajang, Kabupaten Lumajang, Jawa Timur 67358";"Bence, Kec. Kedungjajang, Kabupaten Lumajang";"JAWA TIMUR";"67358";"Indonesia";"";"";"";"-8.0377967";"113.2088227";"https://maps.google.com/?cid=0x0:0x95b566891a7bcd6";""
"komplek housing";"Komplek perumahan";"Asti Home";"X62J+H6W, Krajan Kedung Jajang, Kedungjajang, Kec. Kedungjajang, Kabupaten Lumajang, Jawa Timur 67358";"Krajan Kedung Jajang, Kedungjajang, Kec. Kedungjajang, Kabupaten Lumajang";"JAWA TIMUR";"67358";"Indonesia";"";"";"";"-8.0485145";"113.2305649";"https://maps.google.com/?cid=0x0:0x67644c7a48c6612";""
"komplek housing";"komplek housing";"RuMah yUdi";"Gg. Musholla No.146, Darungan Kidul, Curahpetung, Kec. Kedungjajang, Kabupaten Lumajang, Jawa Timur 67358";"Darungan Kidul, Curahpetung, Kec. Kedungjajang, Kabupaten Lumajang";"JAWA TIMUR";"67358";"Indonesia";"";"";"";"-8.0590447";"113.240633";"https://maps.google.com/?cid=0x0:0x2fdd70d549419d3c";""
"komplek housing";"Komplek perumahan";"Rumah Pur  Wiwit C a";"X64W+CJR, Curah Petung, Grobogan, Kec. Kedungjajang, Kabupaten Lumajang, Jawa Timur 67358";"Curah Petung, Grobogan, Kec. Kedungjajang, Kabupaten Lumajang";"JAWA TIMUR";"67358";"Indonesia";"";"";"";"-8.0438967";"113.2465008";"https://maps.google.com/?cid=0x0:0x649daab8fbaf1157";""
"komplek housing";"Toko umum";"HOME";"W7W3+4FC, Curah Lengkong Dua, Curahpetung, Kec. Kedungjajang, Kabupaten Lumajang, Jawa Timur 67358";"Curah Lengkong Dua, Curahpetung, Kec. Kedungjajang, Kabupaten Lumajang";"JAWA TIMUR";"67358";"Indonesia";"";"";"";"-8.0541122";"113.2537665";"https://maps.google.com/?cid=0x0:0x42335e538ac8863c";""
"komplek housing";"Pembangunan Perumahan";"Rumah adi sultoni";"W6GW+82W, Wetan Sepuran, Wonorejo, Kec. Kedungjajang, Kabupaten Lumajang, Jawa Timur 67358";"Wetan Sepuran, Wonorejo, Kec. Kedungjajang, Kabupaten Lumajang";"JAWA TIMUR";"67358";"Indonesia";"";"";"";"-8.0741439";"113.2450848";"https://maps.google.com/?cid=0x0:0x57cc16dd8470d3a9";""
"komplek housing";"Pembangunan Perumahan";"PERUMAHAN ALAM RAYA BLOK B1 NO 09";"PERUMAHAN ALAM RAYA No.09 BLOK B1, Kedung Jajang, Kedungjajang, Kec. Kedungjajang, Kabupaten Lumajang, Jawa Timur 67358";"Kedung Jajang, Kedungjajang, Kec. Kedungjajang, Kabupaten Lumajang";"JAWA TIMUR";"67358";"Indonesia";"";"";"";"-8.0674129";"113.2349516";"https://maps.google.com/?cid=0x0:0xdf5f3511a0f53b2c";""
"komplek housing";"Pusat Perbelanjaan";"Arastore";"W6XP+6JQ, Krajan, Curahpetung, Kec. Kedungjajang, Kabupaten Lumajang, Jawa Timur 67358";"Krajan, Curahpetung, Kec. Kedungjajang, Kabupaten Lumajang";"JAWA TIMUR";"67358";"Indonesia";"";"";"";"-8.0518269";"113.2366101";"https://maps.google.com/?cid=0x0:0xa2336462088fda10";""
"komplek housing";"Perumahan";"Lieks craft dan olshop Perumahan Wonorejo Indah L 3";"Unnamed Road, Krajan, Wonorejo, Kedungjajang, Lumajang Regency, East Java 67358";"Krajan, Wonorejo, Kedungjajang, Lumajang Regency";"JAWA TIMUR";"67358";"Indonesia";" 082331115608";"";"";"-8.0768559";"113.2339369";"https://maps.google.com/?cid=0x0:0xf01ec53e08a48768";""
"komplek housing";"Komplek perumahan";"Dicky Muhaimin";"W6P7+57M, Krajan, Pandansari, Kec. Kedungjajang, Kabupaten Lumajang, Jawa Timur";"Kabupaten Lumajang, Jawa Timur";"JAWA TIMUR";"";"Indonesia";" 08563544991";"";"";"-8.0645493";"113.2131655";"https://maps.google.com/?cid=0x0:0xa7b956d2c5f4b8fb";""
"komplek housing";"Komplek perumahan";"Novi's house";"X62J+56G, Jl. Tomodiharjo, Krajan Kedung Jajang, Kedungjajang, Kec. Kedungjajang, Kabupaten Lumajang, Jawa Timur 67358";"Jl. Tomodiharjo, Krajan Kedung Jajang, Kedungjajang, Kec. Kedungjajang, Kabupaten Lumajang";"JAWA TIMUR";"67358";"Indonesia";"";"";"";"-8.0495647";"113.2305746";"https://maps.google.com/?cid=0x0:0xe580b4828bd081f5";""
"komplek housing";"Perumahan";"RUMAH RAS";"X6M7+VFM, Ketindan, Tempursari, Kec. Kedungjajang, Kabupaten Lumajang, Jawa Timur 67358";"Ketindan, Tempursari, Kec. Kedungjajang, Kabupaten Lumajang";"JAWA TIMUR";"67358";"Indonesia";"";"";"";"-8.0150586";"113.2135742";"https://maps.google.com/?cid=0x0:0x30c31e38c000e9c2";""
"komplek housing";"komplek housing";"Jawa Timur 67358";"Kec. Kedungjajang, Kabupaten Lumajang, Jawa Timur";"Kabupaten Lumajang, Jawa Timur";"JAWA TIMUR";"";"Indonesia";"";"";"";"-8.0588965";"113.2275347";"https://maps.google.com/?cid=0x0:0x1c00c5eb5b542890";""
"komplek housing";"komplek housing";"karyadie";"X6W8+G9W, Makam, Sawaran Kulon, Kec. Kedungjajang, Kabupaten Lumajang, Jawa Timur 67358";"Makam, Sawaran Kulon, Kec. Kedungjajang, Kabupaten Lumajang";"JAWA TIMUR";"67358";"Indonesia";"";"";"";"-8.0035998";"113.2159118";"https://maps.google.com/?cid=0x0:0x2c0e88dc9960e2e2";""
"komplek housing";"Pembangunan Perumahan";"Cong Holik";"X6W7+QXX, Makam, Sawaran Kulon, Kec. Kedungjajang, Kabupaten Lumajang, Jawa Timur 67358";"Makam, Sawaran Kulon, Kec. Kedungjajang, Kabupaten Lumajang";"JAWA TIMUR";"67358";"Indonesia";" 085155205307";"";"";"-8.0005081";"113.2196514";"https://maps.google.com/?cid=0x0:0xacff5209b4096e7e";""
"komplek housing";"Komplek perumahan";"Krasak kedungjajang";"X64C+V28, Krajan, Krasak, Kec. Kedungjajang, Kabupaten Lumajang, Jawa Timur 67358";"Krajan, Krasak, Kec. Kedungjajang, Kabupaten Lumajang";"JAWA TIMUR";"67358";"Indonesia";"";"";"";"-8.0428327";"113.2200905";"https://maps.google.com/?cid=0x0:0x1e9a48a41c697108";""
"komplek housing";"Kantor Perusahaan";"kandang ayam p. gono";"W6XM+J48, Krajan Kedung Jajang, Kedungjajang, Kec. Kedungjajang, Kabupaten Lumajang, Jawa Timur 67358";"Krajan Kedung Jajang, Kedungjajang, Kec. Kedungjajang, Kabupaten Lumajang";"JAWA TIMUR";"67358";"Indonesia";"";"";"";"-8.0509505";"113.2328375";"https://maps.google.com/?cid=0x0:0x95a1e10cf7d6163c";""
"komplek housing";"komplek housing";"Rumah Hairul Imam";"W6FW+8P3, Darungan, Wonorejo, Kec. Kedungjajang, Kabupaten Lumajang, Jawa Timur 67358";"Darungan, Wonorejo, Kec. Kedungjajang, Kabupaten Lumajang";"JAWA TIMUR";"67358";"Indonesia";"";"";"";"-8.0767332";"113.2468055";"https://maps.google.com/?cid=0x0:0x7baea30f80aae72c";""
"komplek housing";"komplek housing";"Husaeni Murdanis House";"Jl. Raya Ranu Klakah No.335, Dusun Krajan II, Tegalrandu, Kec. Klakah, Kabupaten Lumajang, Jawa Timur 67356";"Dusun Krajan II, Tegalrandu, Kec. Klakah, Kabupaten Lumajang";"JAWA TIMUR";"67356";"Indonesia";"";"";"";"-7.9929069";"113.2593733";"https://maps.google.com/?cid=0x0:0x3da2f4fcd255b3dc";""
"komplek housing";"komplek housing";"Dim Starlet / Viva";"X7MC+F3M, Buwek, Ranupakis, Kec. Klakah, Kabupaten Lumajang, Jawa Timur 67356";"Buwek, Ranupakis, Kec. Klakah, Kabupaten Lumajang";"JAWA TIMUR";"67356";"Indonesia";"";"";"";"-8.0162764";"113.2701695";"https://maps.google.com/?cid=0x0:0x4c8daf1f3f7df4aa";""
"komplek housing";"komplek housing";"Fatimah";"26FF+VC2, Bakah, Sawaran Lor, Kec. Klakah, Kabupaten Lumajang, Jawa Timur 67356";"Bakah, Sawaran Lor, Kec. Klakah, Kabupaten Lumajang";"JAWA TIMUR";"67356";"Indonesia";"";"";"";"-7.9753625";"113.2235156";"https://maps.google.com/?cid=0x0:0xb65c9243b7f97f02";""
"komplek housing";"Komplek perumahan";"Gang kopral rasad";"2733+4WX, Jl. Tambak Boyo, Linuboyo, Klakah, Kec. Klakah, Kabupaten Lumajang, Jawa Timur 67356";"Jl. Tambak Boyo, Linuboyo, Klakah, Kec. Klakah, Kabupaten Lumajang";"JAWA TIMUR";"67356";"Indonesia";"";"";"";"-7.9971305";"113.2548699";"https://maps.google.com/?cid=0x0:0xfacfea526a3f7311";""
"komplek housing";"Komplek perumahan";"Hasan alkhaf";"X787+RXH, Dusun Kidul Sawah, Kudus, Kec. Klakah, Kabupaten Lumajang, Jawa Timur 67356";"Dusun Kidul Sawah, Kudus, Kec. Klakah, Kabupaten Lumajang";"JAWA TIMUR";"67356";"Indonesia";"";"";"";"-8.03311";"113.2649067";"https://maps.google.com/?cid=0x0:0x8773887c9ae840b9";""
"komplek housing";"komplek housing";"Sawaran lor";"26FF+VC2, Bakah, Sawaran Lor, Kec. Klakah, Kabupaten Lumajang, Jawa Timur 67356";"Bakah, Sawaran Lor, Kec. Klakah, Kabupaten Lumajang";"JAWA TIMUR";"67356";"Indonesia";"";"";"";"-7.9752785";"113.2234637";"https://maps.google.com/?cid=0x0:0xa559b4b72fc98276";""
"komplek housing";"Komplek perumahan";"Reni.s House";"X7X4+XV9, Krajan, Ranupakis, Kec. Klakah, Kabupaten Lumajang, Jawa Timur 67356";"Krajan, Ranupakis, Kec. Klakah, Kabupaten Lumajang";"JAWA TIMUR";"67356";"Indonesia";"";"";"";"-8.0000881";"113.2572272";"https://maps.google.com/?cid=0x0:0x7d1f3f092c5d0180";""
"komplek housing";"Komplek perumahan";"Ucik home";"X6VM+7JQ, Dusun Krajan, Sruni, Kec. Klakah, Kabupaten Lumajang, Jawa Timur 67356";"Dusun Krajan, Sruni, Kec. Klakah, Kabupaten Lumajang";"JAWA TIMUR";"67356";"Indonesia";"";"";"";"-8.0068189";"113.2341559";"https://maps.google.com/?cid=0x0:0xaa6355b90463fd3b";""
"komplek housing";"komplek housing";"Home";"2768+QWG, Jl. Raya Ranu Klakah Desa, RT.02/RW.01, Dusun Krajan I, Tegalrandu, Kec. Klakah, Kabupaten Lumajang, Jawa Timur 67356";"Jl. Raya Ranu Klakah Desa, RT.02/RW.01, Dusun Krajan I, Tegalrandu, Kec. Klakah, Kabupaten Lumajang";"JAWA TIMUR";"67356";"Indonesia";"";"";"";"-7.9879074";"113.2671758";"https://maps.google.com/?cid=0x0:0x9a601df413da0a7f";""
"komplek housing";"Komplek perumahan";"Rumah fikri";"262J+FGH, Dusun Jalan Ki Ageng Sentono, Dusun Kayu Putih, Sruni, Klakah, Lumajang Regency, East Java 67356";"Dusun Jalan Ki Ageng Sentono, Dusun Kayu Putih, Sruni, Klakah, Lumajang Regency";"JAWA TIMUR";"67356";"Indonesia";"";"";"";"-7.9988144";"113.231363";"https://maps.google.com/?cid=0x0:0x5e79bcde37f7bc82";""
"komplek housing";"Gedung Apartemen";"Rohman House";"269H+PWR, Karang Tengah, Tegalciut, Kec. Klakah, Kabupaten Lumajang, Jawa Timur";"Kabupaten Lumajang, Jawa Timur";"JAWA TIMUR";"";"Indonesia";"";"";"";"-7.980723";"113.2299028";"https://maps.google.com/?cid=0x0:0xf3956b74a7000e7c";""
"komplek housing";"Pembangunan Perumahan";"rumah rika";"X764+XQ7, Dusun Clarak, Kebonan, Kec. Klakah, Kabupaten Lumajang, Jawa Timur 67356";"Dusun Clarak, Kebonan, Kec. Klakah, Kabupaten Lumajang";"JAWA TIMUR";"67356";"Indonesia";"";"";"";"-8.0381032";"113.2567789";"https://maps.google.com/?cid=0x0:0xf7a942a77448ff49";""
"komplek housing";"Komplek perumahan";"Holis bakul gedhang";"27FC+GH6, Dusun Jatian, Tegalrandu, Kec. Klakah, Kabupaten Lumajang, Jawa Timur 67356";"Dusun Jatian, Tegalrandu, Kec. Klakah, Kabupaten Lumajang";"JAWA TIMUR";"67356";"Indonesia";" 082245674718";"";"";"-7.9762018";"113.2713993";"https://maps.google.com/?cid=0x0:0x9f9a9d299708c84a";""
"komplek housing";"Pembangunan Perumahan";"Hobir";"2668+F3Q, pocok, Sawaran Lor, Kec. Klakah, Kabupaten Lumajang, Jawa Timur";"Kabupaten Lumajang, Jawa Timur";"JAWA TIMUR";"";"Indonesia";"";"";"";"-7.9888395";"113.2158638";"https://maps.google.com/?cid=0x0:0xdddc329c7f3a61af";""
"komplek housing";"Perhimpunan Pengembang Perumahan";"LESTARI RANU PAKIS";"X7W6+QX4, Jl. Saunah, Krajan, Ranupakis, Kec. Klakah, Kabupaten Lumajang, Jawa Timur 67356";"Jl. Saunah, Krajan, Ranupakis, Kec. Klakah, Kabupaten Lumajang";"JAWA TIMUR";"67356";"Indonesia";"";"";"";"-8.002623";"113.262694";"https://maps.google.com/?cid=0x0:0x732e254683c5c0d3";""
"komplek housing";"Gedung Apartemen";"Nanda";"26CW+XCC, Krajan, Mlawang, Kec. Klakah, Kabupaten Lumajang, Jawa Timur 67356";"Krajan, Mlawang, Kec. Klakah, Kabupaten Lumajang";"JAWA TIMUR";"67356";"Indonesia";"";"";"";"-7.9775518";"113.2460015";"https://maps.google.com/?cid=0x0:0xa8e1f1d357df5ccd";""
"komplek housing";"Komplek perumahan";"Rumah Klakah";"2733+RCQ, Jl. Ranu, Linuboyo, Klakah, Kec. Klakah, Kabupaten Lumajang, Jawa Timur 67356";"Jl. Ranu, Linuboyo, Klakah, Kec. Klakah, Kabupaten Lumajang";"JAWA TIMUR";"67356";"Indonesia";"";"";"";"-7.9954177";"113.253619";"https://maps.google.com/?cid=0x0:0x5ee922cd941970d0";""
"komplek housing";"Komplek perumahan";"Bu Samari";"Jl. Ranu Pakis Jl. Kauman No.486, Linuboyo, Klakah, Kec. Klakah, Kabupaten Lumajang, Jawa Timur 67356";"Linuboyo, Klakah, Kec. Klakah, Kabupaten Lumajang";"JAWA TIMUR";"67356";"Indonesia";"";"";"";"-7.996261";"113.257831";"https://maps.google.com/?cid=0x0:0x824457504f1c15c1";""
"komplek housing";"Pembangunan Perumahan";"Lindawati";"26PF+JFX, Bringinan, Tegalciut, Kec. Klakah, Kabupaten Lumajang, Jawa Timur";"Kabupaten Lumajang, Jawa Timur";"JAWA TIMUR";"";"Indonesia";"";"";"";"-7.96339";"113.2237207";"https://maps.google.com/?cid=0x0:0x4146428200b0c855";""
"komplek housing";"komplek housing";"Jawa Timur 67356";"Kec. Klakah, Kabupaten Lumajang, Jawa Timur";"Kabupaten Lumajang, Jawa Timur";"JAWA TIMUR";"";"Indonesia";"";"";"";"-7.9965612";"113.2513554";"https://maps.google.com/?cid=0x0:0x1c00c5eb5b542870";""
"komplek housing";"Pembangunan Perumahan";"Purwanto  Eliza";"279F+CP8, Dusun Jatian, Tegalrandu, Kec. Klakah, Kabupaten Lumajang, Jawa Timur 67356";"Dusun Jatian, Tegalrandu, Kec. Klakah, Kabupaten Lumajang";"JAWA TIMUR";"67356";"Indonesia";"";"";"";"-7.9815566";"113.274308";"https://maps.google.com/?cid=0x0:0xe5864c39a68139f7";""
"komplek housing";"Pembangunan Perumahan";"Badrus home";"RT001 RW001, Dusun Krajan, Sruni, Kec. Klakah, Kabupaten Lumajang, Jawa Timur 67356";"Dusun Krajan, Sruni, Kec. Klakah, Kabupaten Lumajang";"JAWA TIMUR";"67356";"Indonesia";" 081249348394";"";"";"-8.0073423";"113.2335562";"https://maps.google.com/?cid=0x0:0x65b0c0b5ad005a4c";""
"komplek housing";"Komplek perumahan";"Posyandu Kader Juharia";"X764+XQ7, Dusun Clarak, Kebonan, Kec. Klakah, Kabupaten Lumajang, Jawa Timur 67356";"Dusun Clarak, Kebonan, Kec. Klakah, Kabupaten Lumajang";"JAWA TIMUR";"67356";"Indonesia";" 085645719606";"";"";"-8.0381354";"113.2568131";"https://maps.google.com/?cid=0x0:0x8f82caf1de4236fa";""
"komplek housing";"Komplek perumahan";"Rumah";"2755+8XP, Jl. Raya Ranu Klakah, Dusun Krajan II, Tegalrandu, Kec. Klakah, Kabupaten Lumajang, Jawa Timur 67356";"Jl. Raya Ranu Klakah, Dusun Krajan II, Tegalrandu, Kec. Klakah, Kabupaten Lumajang";"JAWA TIMUR";"67356";"Indonesia";"";"";"";"-7.9916548";"113.2599573";"https://maps.google.com/?cid=0x0:0x406ad176cdac90e3";""
"komplek housing";"Komplek perumahan";"Mutiara Kunir Residence";"Jl. Ahmad Yani No.184, Kebonan, Kunir Lor, Kec. Kunir, Kabupaten Lumajang, Jawa Timur 67383";"Kebonan, Kunir Lor, Kec. Kunir, Kabupaten Lumajang";"JAWA TIMUR";"67383";"Indonesia";" 082229993595";"";"";"-8.2163377";"113.2221706";"https://maps.google.com/?cid=0x0:0xe5a2e6cd143c3df4";""
"komplek housing";"Kantor Perusahaan";"Perumahan";"Mutiara kunir residence, Blok B -19, Kebonan, Kunir Lor, Kec. Kunir, Kabupaten Lumajang, Jawa Timur";"Kabupaten Lumajang, Jawa Timur";"JAWA TIMUR";"";"Indonesia";"";"";"";"-8.2163272";"113.222619";"https://maps.google.com/?cid=0x0:0xfad01dde0b6e08a6";""
"komplek housing";"Pembangunan Perumahan";"Perumahan Kunir Asri";"Q6MH+WVQ, Kebonan, Kunir Lor, Kec. Kunir, Kabupaten Lumajang, Jawa Timur 67383";"Kebonan, Kunir Lor, Kec. Kunir, Kabupaten Lumajang";"JAWA TIMUR";"67383";"Indonesia";" 085336471982";"";"";"-8.2151505";"113.2297261";"https://maps.google.com/?cid=0x0:0xca49f186f9fd1705";""
"komplek housing";"Pembangunan Perumahan";"Seketariat grub SUKOREJO MAKMUR. Kunir. Lumajang.";"Q69X+62G, Jl. Sukorejo, Tenggalek, Sukorejo, Kec. Kunir, Kabupaten Lumajang, Jawa Timur 67383";"Jl. Sukorejo, Tenggalek, Sukorejo, Kec. Kunir, Kabupaten Lumajang";"JAWA TIMUR";"67383";"Indonesia";"";"";"";"-8.2319267";"113.2475689";"https://maps.google.com/?cid=0x0:0x6f1cd67beacf089e";""
"komplek housing";"Komplek perumahan";"Sri ayati";"MUTIARA KUNIR RESIDENCE BLOK C/24, Kebonan, Kunir Lor, Kec. Kunir, Kabupaten Lumajang, Jawa Timur 67383";"Kebonan, Kunir Lor, Kec. Kunir, Kabupaten Lumajang";"JAWA TIMUR";"67383";"Indonesia";"";"";"";"-8.2156897";"113.223541";"https://maps.google.com/?cid=0x0:0x4106a453af98b5cb";""
"komplek housing";"Vila";"Villa Shofia Kunir";"Q6QG+CP6, Sumbersari, Kunir Lor, Kec. Kunir, Kabupaten Lumajang, Jawa Timur 67383";"Sumbersari, Kunir Lor, Kec. Kunir, Kabupaten Lumajang";"JAWA TIMUR";"67383";"Indonesia";" 081252199344";"";"";"-8.21132";"113.227002";"https://maps.google.com/?cid=0x0:0x512af171aad27e10";""
"komplek housing";"komplek housing";"Perumahan D'Green Village Dorogowok";"JR688+45V, Sumber Bendo, Dorogowok, Kec. Kunir, Kabupaten Lumajang, Jawa Timur 67383";"Sumber Bendo, Dorogowok, Kec. Kunir, Kabupaten Lumajang";"JAWA TIMUR";"67383";"Indonesia";" 08388177008";"";"";"-8.1818384";"113.2147634";"https://maps.google.com/?cid=0x0:0xa0426eba4c487625";""
"komplek housing";"Komplek perumahan";"@N_Annuriyah27";"Q6FX+V9F, Tenggalek, Sukorejo, Kec. Kunir, Kabupaten Lumajang, Jawa Timur 67383";"Tenggalek, Sukorejo, Kec. Kunir, Kabupaten Lumajang";"JAWA TIMUR";"67383";"Indonesia";"";"";"";"-8.2248617";"113.2490471";"https://maps.google.com/?cid=0x0:0x434e3ca6f577218";""
"komplek housing";"Komplek perumahan";"Rumah Pak Husni";"P6VG+86G, Pandan Sari, Jatimulyo, Kec. Kunir, Kabupaten Lumajang, Jawa Timur 67383";"Pandan Sari, Jatimulyo, Kec. Kunir, Kabupaten Lumajang";"JAWA TIMUR";"67383";"Indonesia";" 082225203344";"";"";"-8.2566875";"113.2255781";"https://maps.google.com/?cid=0x0:0x2716649bd3401583";""
"komplek housing";"Pembangunan Perumahan";"Peace Family";"Q6PH+8XW, Sumbersari, Kunir Lor, Kec. Kunir, Kabupaten Lumajang, Jawa Timur 67383";"Sumbersari, Kunir Lor, Kec. Kunir, Kabupaten Lumajang";"JAWA TIMUR";"67383";"Indonesia";"";"";"";"-8.2139429";"113.2299833";"https://maps.google.com/?cid=0x0:0xcbc0fc7f0914dfcd";""
"komplek housing";"Komplek perumahan";"Riyan Homestay D31";"Perum. Mutiara Kunir Residence, Blok D31, Kebonan, Kunir Lor, Kec. Kunir, Kabupaten Lumajang, Jawa Timur 67383";"Blok D31, Kebonan, Kunir Lor, Kec. Kunir, Kabupaten Lumajang";"JAWA TIMUR";"67383";"Indonesia";" 087819524361";"";"";"-8.2163491";"113.2231158";"https://maps.google.com/?cid=0x0:0x920bc7dbf6b814b8";""
"komplek housing";"Komplek perumahan";"Pak Sumi Punya Nama";"P6QF+M7V, Sumber Wongso, Jatimulyo, Kec. Kunir, Kabupaten Lumajang, Jawa Timur 67383";"Sumber Wongso, Jatimulyo, Kec. Kunir, Kabupaten Lumajang";"JAWA TIMUR";"67383";"Indonesia";"";"";"";"-8.2608547";"113.2232638";"https://maps.google.com/?cid=0x0:0x9d35afb7d40357f8";""
"komplek housing";"Komplek perumahan";"Perumahan kavling indah permata";"Karanganyar, Kabuaran, Kec. Kunir, Kabupaten Lumajang, Jawa Timur 67383";"Kabuaran, Kec. Kunir, Kabupaten Lumajang";"JAWA TIMUR";"67383";"Indonesia";"";"";"";"-8.1714812";"113.2370446";"https://maps.google.com/?cid=0x0:0x6768a8dad15dc416";""
"komplek housing";"Komplek perumahan";"Rumah Riris";"P6QF+CPW, Jl. Raya Jatimulyo-Darungan, Tunjung Sari, Jatimulyo, Kec. Kunir, Kabupaten Lumajang, Jawa Timur 67383";"Jl. Raya Jatimulyo-Darungan, Tunjung Sari, Jatimulyo, Kec. Kunir, Kabupaten Lumajang";"JAWA TIMUR";"67383";"Indonesia";"";"";"";"-8.261724";"113.225569";"https://maps.google.com/?cid=0x0:0xd0e64f5f2d0b06ff";""
"komplek housing";"Komplek perumahan";"Griya chalief widha";"R6HJ+FJF, Jalan, Karanganyar, Kabuaran, Kunir, Lumajang Regency, East Java 67383";"Jalan, Karanganyar, Kabuaran, Kunir, Lumajang Regency";"JAWA TIMUR";"67383";"Indonesia";" 083872766119";"";"";"-8.1713179";"113.231545";"https://maps.google.com/?cid=0x0:0x3dce3eb25a001a5c";""
"komplek housing";"Komplek perumahan";"Hengky";"Q6W8+335, Reco Banteng, Kunir Lor, Kec. Kunir, Kabupaten Lumajang, Jawa Timur 67383";"Reco Banteng, Kunir Lor, Kec. Kunir, Kabupaten Lumajang";"JAWA TIMUR";"67383";"Indonesia";"";"";"";"-8.2048704";"113.2152412";"https://maps.google.com/?cid=0x0:0xe8ce06a1422c538f";""
"komplek housing";"Pembangunan Perumahan";"Ervan rmh";"Q67C+X52, Unnamed Road, Kebun Bayur, Jatigono, Kec. Kunir, Kabupaten Lumajang, Jawa Timur 67383";"Unnamed Road, Kebun Bayur, Jatigono, Kec. Kunir, Kabupaten Lumajang";"JAWA TIMUR";"67383";"Indonesia";"";"";"";"-8.2351";"113.2203776";"https://maps.google.com/?cid=0x0:0xbf83f97824b2a33a";""
"komplek housing";"Komplek perumahan";"Rumah Rahmat Hadi Saputra";"R62V+4F4, Unnamed Road, Sumber Kari, Karanglo, Kec. Kunir, Kabupaten Lumajang, Jawa Timur 67383";"Unnamed Road, Sumber Kari, Karanglo, Kec. Kunir, Kabupaten Lumajang";"JAWA TIMUR";"67383";"Indonesia";" 085291142019";"";"";"-8.199748";"113.243694";"https://maps.google.com/?cid=0x0:0x861c54da835e6969";""
"komplek housing";"Pembangunan Perumahan";"Markas TERATE pantai SHelatan";"P6Q9+59X, RT.4/RW.1, Ampel Gading, Jatimulyo, Kec. Kunir, Kabupaten Lumajang, Jawa Timur 67383";"RT.4/RW.1, Ampel Gading, Jatimulyo, Kec. Kunir, Kabupaten Lumajang";"JAWA TIMUR";"67383";"Indonesia";" 082333499671";"";"";"-8.2620049";"113.2184917";"https://maps.google.com/?cid=0x0:0x513e46bce8c55adf";""
"komplek housing";"Komplek perumahan";"Rumah Kampung";"P6Q9+V7C, RT.04/RW.01, Pandan Sari, Jatimulyo, Kec. Kunir, Kabupaten Lumajang, Jawa Timur 67383";"RT.04/RW.01, Pandan Sari, Jatimulyo, Kec. Kunir, Kabupaten Lumajang";"JAWA TIMUR";"67383";"Indonesia";"";"";"";"-8.259969";"113.2181387";"https://maps.google.com/?cid=0x0:0xf4fae8060428cced";""
"komplek housing";"komplek housing";"Kec. Kunir";"Kabupaten Lumajang, Jawa Timur";"Kabupaten Lumajang, Jawa Timur";"JAWA TIMUR";"";"Indonesia";"";"";"";"-8.2189011";"113.2218075";"https://maps.google.com/?cid=0x0:0x5359528c968e7f19";""
"komplek housing";"komplek housing";"rumah dela";"Q6WX+F95, Sidomulyo, Karanglo, Kec. Kunir, Kabupaten Lumajang, Jawa Timur 67383";"Sidomulyo, Karanglo, Kec. Kunir, Kabupaten Lumajang";"JAWA TIMUR";"67383";"Indonesia";"";"";"";"-8.2029619";"113.2487669";"https://maps.google.com/?cid=0x0:0x7b3e2cbb5b7ffb9b";""
"komplek housing";"Komplek perumahan";"Royal Galaxy Residence";"Cluster Royal Galaxy Residence, Jl. Palem 5, RT.002/RW.008, Jaka Mulya, Kec. Bekasi Sel., Kota Bks, Jawa Barat 17146";"Jl. Palem 5, RT.002/RW.008, Jaka Mulya, Kec. Bekasi Sel., Kota Bks";"JAWA TIMUR";"17146";"Indonesia";"";"";"";"-6.2637155";"106.965437";"https://maps.google.com/?cid=0x0:0x5cc9b338c644bd09";""
"komplek housing";"Komplek perumahan";"Grand Cimuning Residence";"M287+MPJ, RT.005/RW.008, Cimuning, Kec. Mustika Jaya, Kota Bks, Jawa Barat 17155";"RT.005/RW.008, Cimuning, Kec. Mustika Jaya, Kota Bks";"JAWA TIMUR";"17155";"Indonesia";"";"";"";"-6.3332861";"107.0142556";"https://maps.google.com/?cid=0x0:0x3bac8ebd00bba207";""
"komplek housing";"Perumahan";"Grand Residence City";"Jl. Raya Cimuning, Cijengkol, Kec. Setu, Kabupaten Bekasi, Jawa Barat 17320";"Cijengkol, Kec. Setu, Kabupaten Bekasi";"JAWA TIMUR";"17320";"Indonesia";" 081292700900";"";"";"-6.3311959";"107.0321825";"https://maps.google.com/?cid=0x0:0xd53ba5d9dfd69444";""
"komplek housing";"Komplek perumahan";"Hunian";"PWC9+39R, Jl. Bojong Tua, RT.009/RW.008, Jatimakmur, Kec. Pd. Gede, Kota Bks, Jawa Barat 17411";"Jl. Bojong Tua, RT.009/RW.008, Jatimakmur, Kec. Pd. Gede, Kota Bks";"JAWA TIMUR";"17411";"Indonesia";" 08116145185";"";"";"-6.279762";"106.918378";"https://maps.google.com/?cid=0x0:0x677c66a269a60ad1";""
"komplek housing";"Kantor Perusahaan";"PERUMAHAN HR RESIDENCE";"Jl. Kalimas, Rogotrunan, Kec. Lumajang, Kabupaten Lumajang, Jawa Timur 67316";"Rogotrunan, Kec. Lumajang, Kabupaten Lumajang";"JAWA TIMUR";"67316";"Indonesia";" 082143063760";"";"";"-8.1263624";"113.2398549";"https://maps.google.com/?cid=0x0:0x7530598dec98b371";""
"komplek housing";"Pembangunan Perumahan";"AffandiHome";"Tegir, Pasirian, Kec. Pasirian, Kabupaten Lumajang, Jawa Timur 67372";"Pasirian, Kec. Pasirian, Kabupaten Lumajang";"JAWA TIMUR";"67372";"Indonesia";"";"";"";"-8.2108066";"113.1329115";"https://maps.google.com/?cid=0x0:0x71a79d3a7f9fdf8c";""
"komplek housing";"Pembangunan Perumahan";"Ringinsari No 4";"V6F8+G3W, Tompokersan, Kec. Lumajang, Kabupaten Lumajang, Jawa Timur";"Kabupaten Lumajang, Jawa Timur";"JAWA TIMUR";"";"Indonesia";"";"";"";"-8.1261365";"113.2152026";"https://maps.google.com/?cid=0x0:0xf84b64e42d949ca3";""
"komplek housing";"Komplek perumahan";"Rumah";"R7XH+FGQ, Krajan Dua, Dawuan Wetan, Kec. Rowokangkung, Kabupaten Lumajang, Jawa Timur 67359";"Krajan Dua, Dawuan Wetan, Kec. Rowokangkung, Kabupaten Lumajang";"JAWA TIMUR";"67359";"Indonesia";"";"";"";"-8.151284";"113.2788514";"https://maps.google.com/?cid=0x0:0x3ecae152036061a9";""
"komplek housing";"Pembangunan Perumahan";"Hunian Tetap (Huntap) Area Curah Kobokan";"V2F6+6X, Umbulrejo, Sumbermujur, Kec. Candipuro, Kabupaten Lumajang, Jawa Timur 67373";"Umbulrejo, Sumbermujur, Kec. Candipuro, Kabupaten Lumajang";"JAWA TIMUR";"67373";"Indonesia";"";"";"";"-8.1268752";"113.0124199";"https://maps.google.com/?cid=0x0:0x133f907060917799";""
"komplek housing";"komplek housing";"Perumahan D'Green Village Dorogowok";"JR688+45V, Sumber Bendo, Dorogowok, Kec. Kunir, Kabupaten Lumajang, Jawa Timur 67383";"Sumber Bendo, Dorogowok, Kec. Kunir, Kabupaten Lumajang";"JAWA TIMUR";"67383";"Indonesia";" 08388177008";"";"";"-8.1818384";"113.2147634";"https://maps.google.com/?cid=0x0:0xa0426eba4c487625";""
"komplek housing";"Komplek perumahan";"rumah";"X62J+HFJ, Jl. Tomodiharjo, Krajan Kedung Jajang, Kedungjajang, Kec. Kedungjajang, Kabupaten Lumajang, Jawa Timur 67358";"Jl. Tomodiharjo, Krajan Kedung Jajang, Kedungjajang, Kec. Kedungjajang, Kabupaten Lumajang";"JAWA TIMUR";"67358";"Indonesia";"";"";"";"-8.0485443";"113.2311416";"https://maps.google.com/?cid=0x0:0x7f9677b7865f33bf";""
"komplek housing";"Komplek perumahan";"Heimat von Dias";"Jl. Raya Karangbendo No.35, Krajan, Karangbendo, Kec. Tekung, Kabupaten Lumajang, Jawa Timur 67381";"Krajan, Karangbendo, Kec. Tekung, Kabupaten Lumajang";"JAWA TIMUR";"67381";"Indonesia";" 087880770001";"";"";"-8.1614293";"113.2413954";"https://maps.google.com/?cid=0x0:0xf31f1ad0675d4d5d";""
"komplek housing";"Komplek perumahan";"Rumah Muhammad Usman";"P5W5+M4, Krajan, Selok Anyar, Kec. Pasirian, Kabupaten Lumajang, Jawa Timur";"Kabupaten Lumajang, Jawa Timur";"JAWA TIMUR";"";"Indonesia";"";"";"";"-8.2533125";"113.1578125";"https://maps.google.com/?cid=0x0:0xa623c83ff5926736";""
"komplek housing";"Komplek perumahan";"Perumahan kavling indah permata";"Karanganyar, Kabuaran, Kec. Kunir, Kabupaten Lumajang, Jawa Timur 67383";"Kabuaran, Kec. Kunir, Kabupaten Lumajang";"JAWA TIMUR";"67383";"Indonesia";"";"";"";"-8.1714812";"113.2370446";"https://maps.google.com/?cid=0x0:0x6768a8dad15dc416";""
"komplek housing";"Komplek perumahan";"Umah e robbi";"X567+QM6, Sidomulyo, Kertowono, Kec. Gucialit, Kabupaten Lumajang, Jawa Timur 67353";"Sidomulyo, Kertowono, Kec. Gucialit, Kabupaten Lumajang";"JAWA TIMUR";"67353";"Indonesia";"";"";"";"-8.0380998";"113.164126";"https://maps.google.com/?cid=0x0:0xa2b495279bf2e257";""
"komplek housing";"komplek housing";"Doni Setiawan";"W6M9+5CQ, Krajan, Pandansari, Kec. Kedungjajang, Kabupaten Lumajang, Jawa Timur";"Kabupaten Lumajang, Jawa Timur";"JAWA TIMUR";"";"Indonesia";"";"";"";"-8.0670487";"113.2186017";"https://maps.google.com/?cid=0x0:0x5e03c8c3d36bcaa4";""
"komplek housing";"komplek housing";"Rumah";"W766+4MW, Jl. Desa Umbol, RT.01/RW.01, Umbul, Kec. Kedungjajang, Kabupaten Lumajang, Jawa Timur 67358";"Jl. Desa Umbol, RT.01/RW.01, Umbul, Kec. Kedungjajang, Kabupaten Lumajang";"JAWA TIMUR";"67358";"Indonesia";"";"";"";"-8.0895223";"113.2613551";"https://maps.google.com/?cid=0x0:0x87b3673fa5260978";""
"komplek housing";"Pembangunan Perumahan";"Rumahfendydewi";"Duren tengah No.rt20rw06, Winong, Dawuhan Lor, Kec. Sukodono, Kabupaten Lumajang, Jawa Timur 67352";"Winong, Dawuhan Lor, Kec. Sukodono, Kabupaten Lumajang";"JAWA TIMUR";"67352";"Indonesia";"";"";"";"-8.095363";"113.2204427";"https://maps.google.com/?cid=0x0:0xbf4ed8ac31cc5945";""
"komplek housing";"Perumahan";"Rumah Bu Heti";"Perum Randu J1, Blimbing, Sumberejo, Kec. Sukodono, Kabupaten Lumajang, Jawa Timur 67352";"Blimbing, Sumberejo, Kec. Sukodono, Kabupaten Lumajang";"JAWA TIMUR";"67352";"Indonesia";" 081351676919";"";"";"-8.1189576";"113.2469691";"https://maps.google.com/?cid=0x0:0xddfdc231ca257705";""
"komplek housing";"Pembangunan Perumahan";"Omahku";"V6G2+97Q, Wringinsari, Klanting, Kec. Sukodono, Kabupaten Lumajang, Jawa Timur";"Kabupaten Lumajang, Jawa Timur";"JAWA TIMUR";"";"Indonesia";"";"";"";"-8.1240279";"113.2007354";"https://maps.google.com/?cid=0x0:0x734afd9c5449075e";""
"komplek housing";"Komplek perumahan";"OMAH E WONG TULUS";"V6GQ+J3P, Sekarputih, Sumberejo, Kec. Sukodono, Kabupaten Lumajang, Jawa Timur 67352";"Sekarputih, Sumberejo, Kec. Sukodono, Kabupaten Lumajang";"JAWA TIMUR";"67352";"Indonesia";"";"";"";"-8.1234141";"113.2376886";"https://maps.google.com/?cid=0x0:0x421ca2dc3f7d0b10";""
"komplek housing";"komplek housing";"Syafi'i";"R6V8+XJ4, Grati Satu, Grati, Kec. Sumbersuko, Kabupaten Lumajang, Jawa Timur 67316";"Grati Satu, Grati, Kec. Sumbersuko, Kabupaten Lumajang";"JAWA TIMUR";"67316";"Indonesia";"";"";"";"-8.1549572";"113.2166339";"https://maps.google.com/?cid=0x0:0xe6a01480973a712f";""
"komplek housing";"komplek housing";"Istana MH";"X8X9+XW4, RT.002/RW.004, Dusun Ranulading, Sumberwringin, Kec. Klakah, Kabupaten Lumajang, Jawa Timur 67356";"RT.002/RW.004, Dusun Ranulading, Sumberwringin, Kec. Klakah, Kabupaten Lumajang";"JAWA TIMUR";"67356";"Indonesia";"";"";"";"-8.0001098";"113.3198354";"https://maps.google.com/?cid=0x0:0x38f938d7d7f1aedc";""
"komplek housing";"komplek housing";"Jawa Timur 67311";"Tompokersan, Kec. Lumajang, Kabupaten Lumajang, Jawa Timur";"Kabupaten Lumajang, Jawa Timur";"JAWA TIMUR";"";"Indonesia";"";"";"";"-8.1265996";"113.2146271";"https://maps.google.com/?cid=0x0:0x99bbb624b5e86c19";""
"komplek housing";"Vila";"Villa Shofia Kunir";"Q6QG+CP6, Sumbersari, Kunir Lor, Kec. Kunir, Kabupaten Lumajang, Jawa Timur 67383";"Sumbersari, Kunir Lor, Kec. Kunir, Kabupaten Lumajang";"JAWA TIMUR";"67383";"Indonesia";" 081252199344";"";"";"-8.21132";"113.227002";"https://maps.google.com/?cid=0x0:0x512af171aad27e10";""
"komplek housing";"Pembangunan Perumahan";"Perumahan Graha Adhi Denok Lumajang";"Dusun Bejo, Denok, Lumajang, Jawa Timur (selatan Pondok Pesantren Darul Falah), Area Sawah/Kebun, Denok, Kec. Lumajang, Kabupaten Lumajang, Jawa Timur 67351";"Denok, Lumajang, Jawa Timur (selatan Pondok Pesantren Darul Falah), Area Sawah/Kebun, Denok, Kec. Lumajang, Kabupaten Lumajang";"JAWA TIMUR";"67351";"Indonesia";" 082244290005";"";"/url?q>>u003dhttp://www.grahadutabangsa.com/>>u0026opi>>u003d79508299>>u0026sa>>u003dU>>u0026ved>>u003d0ahUKEwj45onI0eeLAxXISGwGHawDKF4Q61gIFigS>>u0026usg>>u003dAOvVaw2ObbD9j_hzQ9lCBdoaDepk";"-8.1558331";"113.2628793";"https://maps.google.com/?cid=0x0:0x336d15f45a16c0d3";""
"komplek housing";"Pembangunan Perumahan";"Perumahan Graha Adhi 4";"graha adhi 4 blok O No 62, Wonokerto, Kec. Tekung, Kabupaten Lumajang";"Kabupaten Lumajang, Jawa Timur";"JAWA TIMUR";"";"Indonesia";"";"";"";"-8.1559546";"113.2592784";"https://maps.google.com/?cid=0x0:0x913d3a6c875e4d26";""
"komplek housing";"Pengembang Realestat";"Jati Belanda Lumajang The Hasanah Residence";"R698+H84, Jln. Raya Dorogowok Klampokarum, Sumber Bendo, Dorogowok, Kec. Kunir, Kabupaten Lumajang, Jawa Timur 67383";"Jln. Raya Dorogowok Klampokarum, Sumber Bendo, Dorogowok, Kec. Kunir, Kabupaten Lumajang";"JAWA TIMUR";"67383";"Indonesia";"";"";"";"-8.1816115";"113.2166715";"https://maps.google.com/?cid=0x0:0xc61eefa9393e5c24";""
"komplek housing";"Komplek perumahan";"Perumahan Green Zahra-Boreng";"Jl. Doktren No.59, Area Sawah/Kebun, Boreng, Kec. Lumajang, Kabupaten Lumajang, Jawa Timur 67311";"Area Sawah/Kebun, Boreng, Kec. Lumajang, Kabupaten Lumajang";"JAWA TIMUR";"67311";"Indonesia";" 081286410101";"";"";"-8.1356173";"113.2600672";"https://maps.google.com/?cid=0x0:0x83066f24de243603";""
"komplek housing";"Komplek perumahan";"Rumah Gathan";"V6J8+3VQ, Jl. Gn. Ijen, RT.02/RW.24, Tompokersan, Kec. Lumajang, Kabupaten Lumajang, Jawa Timur 67311";"Jl. Gn. Ijen, RT.02/RW.24, Tompokersan, Kec. Lumajang, Kabupaten Lumajang";"JAWA TIMUR";"67311";"Indonesia";"";"";"";"-8.1198581";"113.2171114";"https://maps.google.com/?cid=0x0:0x6cfb9430cc3c3831";""
"komplek housing";"Komplek perumahan";"Baharuddin Maulana";"Jl. Argopuro No.102, Tompokersan, Kec. Lumajang, Kabupaten Lumajang, Jawa Timur 67316";"Tompokersan, Kec. Lumajang, Kabupaten Lumajang";"JAWA TIMUR";"67316";"Indonesia";"";"";"";"-8.1251166";"113.2149772";"https://maps.google.com/?cid=0x0:0x63b460251b1e8d57";""
"komplek housing";"komplek housing";"Perumahan D'Green Village Dorogowok";"JR688+45V, Sumber Bendo, Dorogowok, Kec. Kunir, Kabupaten Lumajang, Jawa Timur 67383";"Sumber Bendo, Dorogowok, Kec. Kunir, Kabupaten Lumajang";"JAWA TIMUR";"67383";"Indonesia";" 08388177008";"";"";"-8.1818384";"113.2147634";"https://maps.google.com/?cid=0x0:0xa0426eba4c487625";""
"komplek housing";"komplek housing";"Jawa Timur 67312";"Citrodiwangsan, Kec. Lumajang, Kabupaten Lumajang, Jawa Timur";"Kabupaten Lumajang, Jawa Timur";"JAWA TIMUR";"";"Indonesia";"";"";"";"-8.1253342";"113.2142913";"https://maps.google.com/?cid=0x0:0xb7a41e670c31e21e";""
"komplek housing";"Komplek perumahan";"Perumahan Taman Sukodono Asri";"Jl. Soekarno Hatta No.34, Area Sawah, Kutorenon, Kec. Sukodono, Kabupaten Lumajang, Jawa Timur 67352";"Area Sawah, Kutorenon, Kec. Sukodono, Kabupaten Lumajang";"JAWA TIMUR";"67352";"Indonesia";" 08976440042";"";"";"-8.0963529";"113.2352662";"https://maps.google.com/?cid=0x0:0x68e3b62543617663";""
"komplek housing";"Komplek perumahan";"Griya Semeru Permai";"Timur Jaya, Citrodiwangsan, Kec. Lumajang, Kabupaten Lumajang, Jawa Timur 67312";"Citrodiwangsan, Kec. Lumajang, Kabupaten Lumajang";"JAWA TIMUR";"67312";"Indonesia";"";"";"";"-8.1298208";"113.2044768";"https://maps.google.com/?cid=0x0:0xbaf6871e1352e77e";""
"komplek housing";"Program Rumah Murah";"Perumahan Graha Adhi 2 Wonokerto Tekung";"R7V6+H8C, Unnamed Road, Area Sawah/Kebun, Denok, Kec. Lumajang, Kabupaten Lumajang, Jawa Timur 67316";"Unnamed Road, Area Sawah/Kebun, Denok, Kec. Lumajang, Kabupaten Lumajang";"JAWA TIMUR";"67316";"Indonesia";"";"";"";"-8.1560535";"113.2607553";"https://maps.google.com/?cid=0x0:0xf528b328e9fff1a";""
"komplek housing";"Pengembang Realestat";"Cluster Hasanah Park";"V6WR+M6G, Unnamed Road, Panjunan, Selokbesuki, Kec. Sukodono, Kabupaten Lumajang, Jawa Timur 67352";"Unnamed Road, Panjunan, Selokbesuki, Kec. Sukodono, Kabupaten Lumajang";"JAWA TIMUR";"67352";"Indonesia";" 0334894349";"";"";"-8.1033241";"113.2405673";"https://maps.google.com/?cid=0x0:0x56f24e482e79c01c";""
"komplek housing";"Rumah Kayu";"Rumahku";"Jl. Flamboyan No.19, Citrodiwangsan, Kec. Lumajang, Kabupaten Lumajang, Jawa Timur 67312";"Citrodiwangsan, Kec. Lumajang, Kabupaten Lumajang";"JAWA TIMUR";"67312";"Indonesia";"";"";"";"-8.1368108";"113.2122118";"https://maps.google.com/?cid=0x0:0x926699565aae178a";""
"komplek housing";"Kantor Perusahaan";"PERUMAHAN HR RESIDENCE";"Jl. Kalimas, Rogotrunan, Kec. Lumajang, Kabupaten Lumajang, Jawa Timur 67316";"Rogotrunan, Kec. Lumajang, Kabupaten Lumajang";"JAWA TIMUR";"67316";"Indonesia";" 082143063760";"";"";"-8.1263624";"113.2398549";"https://maps.google.com/?cid=0x0:0x7530598dec98b371";""
"komplek housing";"Pengembang Realestat";"Gardenia Arcapada Park (GAP)";"V687+JCV, Jl. Imam Bonjol, Citrodiwangsan, Kec. Lumajang, Kabupaten Lumajang, Jawa Timur 67316";"Jl. Imam Bonjol, Citrodiwangsan, Kec. Lumajang, Kabupaten Lumajang";"JAWA TIMUR";"67316";"Indonesia";" 082231069893";"";"";"-8.133396";"113.2135595";"https://maps.google.com/?cid=0x0:0x615cda16408c4143";""
"komplek housing";"komplek housing";"Perumahan";"V687+JMV, Jl. Imam Bonjol, RT.3/RW.5, Citrodiwangsan, Kec. Lumajang, Kabupaten Lumajang, Jawa Timur 67316";"Jl. Imam Bonjol, RT.3/RW.5, Citrodiwangsan, Kec. Lumajang, Kabupaten Lumajang";"JAWA TIMUR";"67316";"Indonesia";"";"";"";"-8.1333953";"113.2141734";"https://maps.google.com/?cid=0x0:0xf0a3b8117c7faa82";""
"komplek housing";"Komplek perumahan";"Boim Homes";"Jl. Lawu GG Sedap Malam 06 No.2, Citrodiwangsan, Kec. Lumajang, Kabupaten Lumajang, Jawa Timur 67312";"Citrodiwangsan, Kec. Lumajang, Kabupaten Lumajang";"JAWA TIMUR";"67312";"Indonesia";"";"";"";"-8.1221164";"113.2137011";"https://maps.google.com/?cid=0x0:0x3ac14f1c4c2d5758";""
"komplek housing";"Asosiasi pemilik rumah";"SJ sweet home";"Jl. Demokrasi No.8, RT.8/RW.1, Ditotrunan, Kec. Lumajang, Kabupaten Lumajang, Jawa Timur 67313";"RT.8/RW.1, Ditotrunan, Kec. Lumajang, Kabupaten Lumajang";"JAWA TIMUR";"67313";"Indonesia";"";"";"";"-8.143095";"113.2235866";"https://maps.google.com/?cid=0x0:0x2c7b2e1376202a19";""
"komplek housing";"komplek housing";"Grasidriff 21";"komplek amarta abd, Jl. Komodor Yos Sudarso Blok i/75, Ditotrunan, Kec. Lumajang, Kabupaten Lumajang, Jawa Timur 67316";"Jl. Komodor Yos Sudarso Blok i/75, Ditotrunan, Kec. Lumajang, Kabupaten Lumajang";"JAWA TIMUR";"67316";"Indonesia";"";"";"";"-8.1366928";"113.2214529";"https://maps.google.com/?cid=0x0:0x2d18a81e4fe53e3e";""
"komplek housing";"Pembangunan Perumahan";"Rumah";"V66F+64Q, Ditotrunan, Kec. Lumajang, Kabupaten Lumajang, Jawa Timur 67313";"Ditotrunan, Kec. Lumajang, Kabupaten Lumajang";"JAWA TIMUR";"67313";"Indonesia";"";"";"";"-8.1394125";"113.2228594";"https://maps.google.com/?cid=0x0:0x2e475cb2dfeb8036";""
"komplek housing";"Komplek perumahan";"Umah e Hadi";"Jl. Imam Suja'i Gg. IV No.1, Ditotrunan, LumajangKabupaten, Kabupaten Lumajang, Jawa Timur 67313";"Ditotrunan, LumajangKabupaten, Kabupaten Lumajang";"JAWA TIMUR";"67313";"Indonesia";"";"";"";"-8.138729";"113.2238964";"https://maps.google.com/?cid=0x0:0xd81b2395fb9ee62f";""
"komplek housing";"Kantor Perusahaan";"PERUMAHAN HR RESIDENCE";"Jl. Kalimas, Rogotrunan, Kec. Lumajang, Kabupaten Lumajang, Jawa Timur 67316";"Rogotrunan, Kec. Lumajang, Kabupaten Lumajang";"JAWA TIMUR";"67316";"Indonesia";" 082143063760";"";"";"-8.1263624";"113.2398549";"https://maps.google.com/?cid=0x0:0x7530598dec98b371";""
"komplek housing";"Organisasi Keagamaan";"Rumah KanKemenag Lumajang dan Banyuwangi";"Jl. Wijaya Kusuma No.21, RT.05/RW.02, Ditotrunan, Kec. Lumajang, Kabupaten Lumajang, Jawa Timur 67313";"RT.05/RW.02, Ditotrunan, Kec. Lumajang, Kabupaten Lumajang";"JAWA TIMUR";"67313";"Indonesia";"";"";"";"-8.1464767";"113.2209283";"https://maps.google.com/?cid=0x0:0x2bf89ea2acba5cb";""
"komplek housing";"komplek housing";"Rumah";"Jl. KH. Wahid Hasyim Gg. 4 No.mor 7, Tompokersan, Kec. Lumajang, Kabupaten Lumajang, Jawa Timur 67316";"Tompokersan, Kec. Lumajang, Kabupaten Lumajang";"JAWA TIMUR";"67316";"Indonesia";"";"";"";"-8.1311815";"113.2207852";"https://maps.google.com/?cid=0x0:0x4f18ece2f16ddc8a";""
"komplek housing";"komplek housing";"Kavling jogotrunan Asri";"Jl. Demokrasi, Jogotrunan, Kec. Lumajang, Kabupaten Lumajang, Jawa Timur 67314";"Jogotrunan, Kec. Lumajang, Kabupaten Lumajang";"JAWA TIMUR";"67314";"Indonesia";"";"";"";"-8.1458966";"113.2300574";"https://maps.google.com/?cid=0x0:0x33fb1bbf386376ba";""
"komplek housing";"Pembangunan Perumahan";"Perum Permata Biru D3 Pathok Baru";"V63H+M4G, Jogotrunan, Kec. Lumajang, Kabupaten Lumajang, Jawa Timur 67316";"Jogotrunan, Kec. Lumajang, Kabupaten Lumajang";"JAWA TIMUR";"67316";"Indonesia";"";"";"";"-8.1458192";"113.2278128";"https://maps.google.com/?cid=0x0:0xb77423ce62ed48d3";""
"komplek housing";"Komplek perumahan";"Rumah Mbah Ferda Astor";"V659+XW3, jl. suruji gang mushlah manmbaul khoir, Ditotrunan, Kec. Lumajang, Kabupaten Lumajang, Jawa Timur 67313";"jl. suruji gang mushlah manmbaul khoir, Ditotrunan, Kec. Lumajang, Kabupaten Lumajang";"JAWA TIMUR";"67313";"Indonesia";"";"";"";"-8.1401";"113.2198";"https://maps.google.com/?cid=0x0:0xa4c86c5b33fa5bee";""
"komplek housing";"komplek housing";"RUMAH BAK IMA MASUK GANG SELATAN";"V68H+8HV, Jogoyudan, Kec. Lumajang, Kabupaten Lumajang, Jawa Timur 67316";"Jogoyudan, Kec. Lumajang, Kabupaten Lumajang";"JAWA TIMUR";"67316";"Indonesia";"";"";"";"-8.134144";"113.2289101";"https://maps.google.com/?cid=0x0:0x67acdac8bdf91dc";""
"komplek housing";"Komplek perumahan";"Rumah Andhyka dan maymunach";"R6W9+HCM, Grati Satu, Grati, Kec. Sumbersuko, Kabupaten Lumajang, Jawa Timur 67316";"Grati Satu, Grati, Kec. Sumbersuko, Kabupaten Lumajang";"JAWA TIMUR";"67316";"Indonesia";"";"";"";"-8.1535391";"113.218539";"https://maps.google.com/?cid=0x0:0x925bc5226635da36";""
"komplek housing";"komplek housing";"Rumah Dzafi + Haidar";"RT.004/RW.001, Krajan Timur, Labruk Kidul, Kec. Sumbersuko, Kabupaten Lumajang, Jawa Timur 67316";"Krajan Timur, Labruk Kidul, Kec. Sumbersuko, Kabupaten Lumajang";"JAWA TIMUR";"67316";"Indonesia";"";"";"";"-8.1508207";"113.2052226";"https://maps.google.com/?cid=0x0:0x80c29938965f1a41";""
"komplek housing";"Komplek perumahan";"Aruna's House";"Jl. Imam Suja'i gg. Wira-Wiri No.7, Ditotrunan, Kec. Lumajang, Kabupaten Lumajang, Jawa Timur 67313";"Ditotrunan, Kec. Lumajang, Kabupaten Lumajang";"JAWA TIMUR";"67313";"Indonesia";" 081337495218";"";"";"-8.1389918";"113.2235274";"https://maps.google.com/?cid=0x0:0x90fc4a2ba8c19e0e";""
"komplek housing";"Pondok";"Fitri  Agys's home";"Griya Syahfalah Blok B.14, Bagusari, Jogotrunan, Kec. Lumajang, Kabupaten Lumajang, Jawa Timur 67314";"Bagusari, Jogotrunan, Kec. Lumajang, Kabupaten Lumajang";"JAWA TIMUR";"67314";"Indonesia";" 085733145025";"";"";"-8.1471877";"113.2327867";"https://maps.google.com/?cid=0x0:0xd308387c1a1be44a";""
"komplek housing";"Komplek perumahan";"Aisyah house";"Jl. Kapten Kyai Ilyas Gg VIII No.04, Citrodiwangsan, Kec. Lumajang, Kabupaten Lumajang, Jawa Timur 67316";"Citrodiwangsan, Kec. Lumajang, Kabupaten Lumajang";"JAWA TIMUR";"67316";"Indonesia";"";"";"";"-8.1320973";"113.2190365";"https://maps.google.com/?cid=0x0:0xd4288242ec9c2d2c";""
"komplek housing";"Komplek perumahan";"Hidayah Hadi";"Jl. Imam Suja'i No.2, Ditotrunan, Kec. Lumajang, Kabupaten Lumajang, Jawa Timur 67313";"Ditotrunan, Kec. Lumajang, Kabupaten Lumajang";"JAWA TIMUR";"67313";"Indonesia";"";"";"";"-8.138729";"113.223884";"https://maps.google.com/?cid=0x0:0x8d01bca7e795f0b3";""
"komplek housing";"Perumahan";"Indra";"R6V8+XV8, Grati Satu, Grati, Kec. Sumbersuko, Kabupaten Lumajang, Jawa Timur 67316";"Grati Satu, Grati, Kec. Sumbersuko, Kabupaten Lumajang";"JAWA TIMUR";"67316";"Indonesia";"";"";"";"-8.1550993";"113.2171989";"https://maps.google.com/?cid=0x0:0x91065d522372a625";""
"komplek housing";"komplek housing";"Jawa Timur 67313";"Ditotrunan, Kec. Lumajang, Kabupaten Lumajang, Jawa Timur";"Kabupaten Lumajang, Jawa Timur";"JAWA TIMUR";"";"Indonesia";"";"";"";"-8.1421157";"113.2171129";"https://maps.google.com/?cid=0x0:0xb8ecff6278189c93";""
"komplek housing";"Pembangunan Perumahan";"Harun Home";"Jl. Mayor Kamari Sampurno No.34, Ditotrunan, Kec. Lumajang, Kabupaten Lumajang, Jawa Timur 67316";"Ditotrunan, Kec. Lumajang, Kabupaten Lumajang";"JAWA TIMUR";"67316";"Indonesia";"";"";"";"-8.1400559";"113.2225674";"https://maps.google.com/?cid=0x0:0xc8953a574c822656";""
"komplek housing";"Perumahan";"Komplek Karya Husada Bagusari";"Jl. Lumajang - Jember No.497, Jogotrunan, Kec. Lumajang, Kabupaten Lumajang, Jawa Timur 67316";"Jogotrunan, Kec. Lumajang, Kabupaten Lumajang";"JAWA TIMUR";"67316";"Indonesia";"";"";"";"-8.1430059";"113.2353584";"https://maps.google.com/?cid=0x0:0x8aa05c8c0c0b7d21";""
"komplek housing";"komplek housing";"Kabupaten Lumajang";"Jawa Timur";"Kabupaten Lumajang, Jawa Timur";"JAWA TIMUR";"";"Indonesia";"";"";"";"-8.0943571";"113.1441558";"https://maps.google.com/?cid=0x0:0x3027a76e352bda0";""
"komplek housing";"Kantor Perusahaan";"PERUMAHAN HR RESIDENCE";"Jl. Kalimas, Rogotrunan, Kec. Lumajang, Kabupaten Lumajang, Jawa Timur 67316";"Rogotrunan, Kec. Lumajang, Kabupaten Lumajang";"JAWA TIMUR";"67316";"Indonesia";" 082143063760";"";"";"-8.1263624";"113.2398549";"https://maps.google.com/?cid=0x0:0x7530598dec98b371";""
"komplek housing";"komplek housing";"Grasidriff 21";"komplek amarta abd, Jl. Komodor Yos Sudarso Blok i/75, Ditotrunan, Kec. Lumajang, Kabupaten Lumajang, Jawa Timur 67316";"Jl. Komodor Yos Sudarso Blok i/75, Ditotrunan, Kec. Lumajang, Kabupaten Lumajang";"JAWA TIMUR";"67316";"Indonesia";"";"";"";"-8.1366928";"113.2214529";"https://maps.google.com/?cid=0x0:0x2d18a81e4fe53e3e";""
"komplek housing";"Perumahan";"Komplek Karya Husada Bagusari";"Jl. Lumajang - Jember No.497, Jogotrunan, Kec. Lumajang, Kabupaten Lumajang, Jawa Timur 67316";"Jogotrunan, Kec. Lumajang, Kabupaten Lumajang";"JAWA TIMUR";"67316";"Indonesia";"";"";"";"-8.1430059";"113.2353584";"https://maps.google.com/?cid=0x0:0x8aa05c8c0c0b7d21";""
"komplek housing";"Pembangunan Perumahan";"Perumahan Graha Adhi 4";"graha adhi 4 blok O No 62, Wonokerto, Kec. Tekung, Kabupaten Lumajang";"Kabupaten Lumajang, Jawa Timur";"JAWA TIMUR";"";"Indonesia";"";"";"";"-8.1559546";"113.2592784";"https://maps.google.com/?cid=0x0:0x913d3a6c875e4d26";""
"komplek housing";"Komplek perumahan";"Rumah";"R7XH+FGQ, Krajan Dua, Dawuan Wetan, Kec. Rowokangkung, Kabupaten Lumajang, Jawa Timur 67359";"Krajan Dua, Dawuan Wetan, Kec. Rowokangkung, Kabupaten Lumajang";"JAWA TIMUR";"67359";"Indonesia";"";"";"";"-8.151284";"113.2788514";"https://maps.google.com/?cid=0x0:0x3ecae152036061a9";""
"komplek housing";"Komplek perumahan";"Rumah Rahmat Hadi Saputra";"R62V+4F4, Unnamed Road, Sumber Kari, Karanglo, Kec. Kunir, Kabupaten Lumajang, Jawa Timur 67383";"Unnamed Road, Sumber Kari, Karanglo, Kec. Kunir, Kabupaten Lumajang";"JAWA TIMUR";"67383";"Indonesia";" 085291142019";"";"";"-8.199748";"113.243694";"https://maps.google.com/?cid=0x0:0x861c54da835e6969";""
"komplek housing";"Komplek perumahan";"Perumahan kavling indah permata";"Karanganyar, Kabuaran, Kec. Kunir, Kabupaten Lumajang, Jawa Timur 67383";"Kabuaran, Kec. Kunir, Kabupaten Lumajang";"JAWA TIMUR";"67383";"Indonesia";"";"";"";"-8.1714812";"113.2370446";"https://maps.google.com/?cid=0x0:0x6768a8dad15dc416";""
"komplek housing";"Komplek perumahan";"Hidayah Hadi";"Jl. Imam Suja'i No.2, Ditotrunan, Kec. Lumajang, Kabupaten Lumajang, Jawa Timur 67313";"Ditotrunan, Kec. Lumajang, Kabupaten Lumajang";"JAWA TIMUR";"67313";"Indonesia";"";"";"";"-8.138729";"113.223884";"https://maps.google.com/?cid=0x0:0x8d01bca7e795f0b3";""
"komplek housing";"komplek housing";"Perumahan D'Green Village Dorogowok";"JR688+45V, Sumber Bendo, Dorogowok, Kec. Kunir, Kabupaten Lumajang, Jawa Timur 67383";"Sumber Bendo, Dorogowok, Kec. Kunir, Kabupaten Lumajang";"JAWA TIMUR";"67383";"Indonesia";" 08388177008";"";"";"-8.1818384";"113.2147634";"https://maps.google.com/?cid=0x0:0xa0426eba4c487625";""
"komplek housing";"komplek housing";"Double D audio system Lumajang";"V7F7+C54, Urang Gantung, Uranggantung, Kec. Sukodono, Kabupaten Lumajang, Jawa Timur";"Kabupaten Lumajang, Jawa Timur";"JAWA TIMUR";"";"Indonesia";" 081937575013";"";"";"-8.1261913";"113.2631421";"https://maps.google.com/?cid=0x0:0x8c240cb30a2d2d46";""
"komplek housing";"komplek housing";"Rumah ulfatun hasanah";"R882+WG3, Sadeng, Sumberanyar, Kec. Rowokangkung, Kabupaten Lumajang, Jawa Timur 67359";"Sadeng, Sumberanyar, Kec. Rowokangkung, Kabupaten Lumajang";"JAWA TIMUR";"67359";"Indonesia";"";"";"";"-8.1827424";"113.3013013";"https://maps.google.com/?cid=0x0:0x95da7e0b0fbfc83c";""
"komplek housing";"Komplek perumahan";"Rumah Muhammad Usman";"P5W5+M4, Krajan, Selok Anyar, Kec. Pasirian, Kabupaten Lumajang, Jawa Timur";"Kabupaten Lumajang, Jawa Timur";"JAWA TIMUR";"";"Indonesia";"";"";"";"-8.2533125";"113.1578125";"https://maps.google.com/?cid=0x0:0xa623c83ff5926736";""
"komplek housing";"komplek housing";"emon lumajang";"perum griya safalah Jl. Cemp. blok b15, Jogotrunan, Kec. Lumajang, Kabupaten Lumajang, Jawa Timur 67381";"Jogotrunan, Kec. Lumajang, Kabupaten Lumajang";"JAWA TIMUR";"67381";"Indonesia";"";"";"";"-8.1472372";"113.2327669";"https://maps.google.com/?cid=0x0:0xbbaba3a90bbfc071";""
"komplek housing";"komplek housing";"Doni Setiawan";"W6M9+5CQ, Krajan, Pandansari, Kec. Kedungjajang, Kabupaten Lumajang, Jawa Timur";"Kabupaten Lumajang, Jawa Timur";"JAWA TIMUR";"";"Indonesia";"";"";"";"-8.0670487";"113.2186017";"https://maps.google.com/?cid=0x0:0x5e03c8c3d36bcaa4";""
"komplek housing";"Komplek perumahan";"ABDOL MAKHIN AFRIYANTO";"V623+C65, NAMA:ABDOL MAKHIN AFRIYATO, Jl. Sindu, RT.12/RW.02, Krajan Timur, Labruk Kidul, Kec. Sumbersuko, Kabupaten Lumajang, Jawa Timur 67316";"NAMA:ABDOL MAKHIN AFRIYATO, Jl. Sindu, RT.12/RW.02, Krajan Timur, Labruk Kidul, Kec. Sumbersuko, Kabupaten Lumajang";"JAWA TIMUR";"67316";"Indonesia";"";"";"";"-8.1489891";"113.2031038";"https://maps.google.com/?cid=0x0:0xfce892185233c123";""
"komplek housing";"Komplek perumahan";"rumah";"X62J+HFJ, Jl. Tomodiharjo, Krajan Kedung Jajang, Kedungjajang, Kec. Kedungjajang, Kabupaten Lumajang, Jawa Timur 67358";"Jl. Tomodiharjo, Krajan Kedung Jajang, Kedungjajang, Kec. Kedungjajang, Kabupaten Lumajang";"JAWA TIMUR";"67358";"Indonesia";"";"";"";"-8.0485443";"113.2311416";"https://maps.google.com/?cid=0x0:0x7f9677b7865f33bf";""
"komplek housing";"Pembangunan Perumahan";"Harun Home";"Jl. Mayor Kamari Sampurno No.34, Ditotrunan, Kec. Lumajang, Kabupaten Lumajang, Jawa Timur 67316";"Ditotrunan, Kec. Lumajang, Kabupaten Lumajang";"JAWA TIMUR";"67316";"Indonesia";"";"";"";"-8.1400559";"113.2225674";"https://maps.google.com/?cid=0x0:0xc8953a574c822656";""
"komplek housing";"Komplek perumahan";"OMAH E WONG TULUS";"V6GQ+J3P, Sekarputih, Sumberejo, Kec. Sukodono, Kabupaten Lumajang, Jawa Timur 67352";"Sekarputih, Sumberejo, Kec. Sukodono, Kabupaten Lumajang";"JAWA TIMUR";"67352";"Indonesia";"";"";"";"-8.1234141";"113.2376886";"https://maps.google.com/?cid=0x0:0x421ca2dc3f7d0b10";""
"komplek housing";"komplek housing";"Rumah Afan Hilu";"V428+9G8, RT.03/RW.04, Besuk Selatan, Tumpeng, Kec. Candipuro, Kabupaten Lumajang, Jawa Timur 67373";"RT.03/RW.04, Besuk Selatan, Tumpeng, Kec. Candipuro, Kabupaten Lumajang";"JAWA TIMUR";"67373";"Indonesia";"";"";"";"-8.1490885";"113.1163295";"https://maps.google.com/?cid=0x0:0x15aff3784f89c9b0";""
"komplek housing";"komplek housing";"Jawa Timur 67314";"Jogotrunan, Kec. Lumajang, Kabupaten Lumajang, Jawa Timur";"Kabupaten Lumajang, Jawa Timur";"JAWA TIMUR";"";"Indonesia";"";"";"";"-8.1364554";"113.227701";"https://maps.google.com/?cid=0x0:0xd3ef06f618e9776c";""
"komplek housing";"Komplek perumahan";"Hall room balai rama";"Jl. Bengawan Solo No.2, Jogoyudan, Jogotrunan, Kec. Lumajang, Kabupaten Lumajang, Jawa Timur 67314";"Jogoyudan, Jogotrunan, Kec. Lumajang, Kabupaten Lumajang";"JAWA TIMUR";"67314";"Indonesia";"";"";"";"-8.1367274";"113.2292502";"https://maps.google.com/?cid=0x0:0x243dbb3e3539d6d1";""
"komplek housing";"komplek housing";"Gajah Mada Hotel, Resto  Hall Lumajang";"Jl. Panglima Besar Sudirman No.46, Tompokersan, Kec. Lumajang, Kabupaten Lumajang, Jawa Timur 67311";"Tompokersan, Kec. Lumajang, Kabupaten Lumajang";"JAWA TIMUR";"67311";"Indonesia";" 082332822828";"";"/url?q>>u003dhttp://linktr.ee/gml>>u0026opi>>u003d79508299>>u0026sa>>u003dU>>u0026ved>>u003d0ahUKEwi3spqC0ueLAxUtSGcHHbExCLUQ61gIFigS>>u0026usg>>u003dAOvVaw1gTQcBU2WfJk5oQBM3VVZ-";"-8.1319836";"113.2238068";"https://maps.google.com/?cid=0x0:0xe32342a1e82373e";""
"komplek housing";"komplek housing";"RUMAH BAK IMA MASUK GANG SELATAN";"V68H+8HV, Jogoyudan, Kec. Lumajang, Kabupaten Lumajang, Jawa Timur 67316";"Jogoyudan, Kec. Lumajang, Kabupaten Lumajang";"JAWA TIMUR";"67316";"Indonesia";"";"";"";"-8.134144";"113.2289101";"https://maps.google.com/?cid=0x0:0x67acdac8bdf91dc";""
"komplek housing";"komplek housing";"Grasidriff 21";"komplek amarta abd, Jl. Komodor Yos Sudarso Blok i/75, Ditotrunan, Kec. Lumajang, Kabupaten Lumajang, Jawa Timur 67316";"Jl. Komodor Yos Sudarso Blok i/75, Ditotrunan, Kec. Lumajang, Kabupaten Lumajang";"JAWA TIMUR";"67316";"Indonesia";"";"";"";"-8.1366928";"113.2214529";"https://maps.google.com/?cid=0x0:0x2d18a81e4fe53e3e";""
"komplek housing";"Komplek perumahan";"Umah e Hadi";"Jl. Imam Suja'i Gg. IV No.1, Ditotrunan, LumajangKabupaten, Kabupaten Lumajang, Jawa Timur 67313";"Ditotrunan, LumajangKabupaten, Kabupaten Lumajang";"JAWA TIMUR";"67313";"Indonesia";"";"";"";"-8.138729";"113.2238964";"https://maps.google.com/?cid=0x0:0xd81b2395fb9ee62f";""
"komplek housing";"Pembangunan Perumahan";"Rumah";"V66F+64Q, Ditotrunan, Kec. Lumajang, Kabupaten Lumajang, Jawa Timur 67313";"Ditotrunan, Kec. Lumajang, Kabupaten Lumajang";"JAWA TIMUR";"67313";"Indonesia";"";"";"";"-8.1394125";"113.2228594";"https://maps.google.com/?cid=0x0:0x2e475cb2dfeb8036";""
"komplek housing";"Perumahan";"Komplek Karya Husada Bagusari";"Jl. Lumajang - Jember No.497, Jogotrunan, Kec. Lumajang, Kabupaten Lumajang, Jawa Timur 67316";"Jogotrunan, Kec. Lumajang, Kabupaten Lumajang";"JAWA TIMUR";"67316";"Indonesia";"";"";"";"-8.1430059";"113.2353584";"https://maps.google.com/?cid=0x0:0x8aa05c8c0c0b7d21";""
"komplek housing";"Pembangunan Perumahan";"Perumahan Graha Adhi Denok Lumajang";"Dusun Bejo, Denok, Lumajang, Jawa Timur (selatan Pondok Pesantren Darul Falah), Area Sawah/Kebun, Denok, Kec. Lumajang, Kabupaten Lumajang, Jawa Timur 67351";"Denok, Lumajang, Jawa Timur (selatan Pondok Pesantren Darul Falah), Area Sawah/Kebun, Denok, Kec. Lumajang, Kabupaten Lumajang";"JAWA TIMUR";"67351";"Indonesia";" 082244290005";"";"/url?q>>u003dhttp://www.grahadutabangsa.com/>>u0026opi>>u003d79508299>>u0026sa>>u003dU>>u0026ved>>u003d0ahUKEwjp7fqR0ueLAxUBV2wGHZ9mH7IQ61gIFigS>>u0026usg>>u003dAOvVaw2VIBpi9wplQuR929tNKa2a";"-8.1558331";"113.2628793";"https://maps.google.com/?cid=0x0:0x336d15f45a16c0d3";""
"komplek housing";"Pembangunan Perumahan";"Hunian Tetap (Huntap) Area Curah Kobokan";"V2F6+6X, Umbulrejo, Sumbermujur, Kec. Candipuro, Kabupaten Lumajang, Jawa Timur 67373";"Umbulrejo, Sumbermujur, Kec. Candipuro, Kabupaten Lumajang";"JAWA TIMUR";"67373";"Indonesia";"";"";"";"-8.1268752";"113.0124199";"https://maps.google.com/?cid=0x0:0x133f907060917799";""
"komplek housing";"Komplek perumahan";"Umae arshaka";"V69F+RJ6, Tompokersan, Kec. Lumajang, Kabupaten Lumajang, Jawa Timur";"Kabupaten Lumajang, Jawa Timur";"JAWA TIMUR";"";"Indonesia";"";"";"";"-8.1304683";"113.2240119";"https://maps.google.com/?cid=0x0:0x8b1453293a798ec3";""
"komplek housing";"Komplek perumahan";"Hidayah Hadi";"Jl. Imam Suja'i No.2, Ditotrunan, Kec. Lumajang, Kabupaten Lumajang, Jawa Timur 67313";"Ditotrunan, Kec. Lumajang, Kabupaten Lumajang";"JAWA TIMUR";"67313";"Indonesia";"";"";"";"-8.138729";"113.223884";"https://maps.google.com/?cid=0x0:0x8d01bca7e795f0b3";""
"komplek housing";"Komplek perumahan";"Aruna's House";"Jl. Imam Suja'i gg. Wira-Wiri No.7, Ditotrunan, Kec. Lumajang, Kabupaten Lumajang, Jawa Timur 67313";"Ditotrunan, Kec. Lumajang, Kabupaten Lumajang";"JAWA TIMUR";"67313";"Indonesia";" 081337495218";"";"";"-8.1389918";"113.2235274";"https://maps.google.com/?cid=0x0:0x90fc4a2ba8c19e0e";""
"komplek housing";"Pembangunan Perumahan";"AffandiHome";"Tegir, Pasirian, Kec. Pasirian, Kabupaten Lumajang, Jawa Timur 67372";"Pasirian, Kec. Pasirian, Kabupaten Lumajang";"JAWA TIMUR";"67372";"Indonesia";"";"";"";"-8.2108066";"113.1329115";"https://maps.google.com/?cid=0x0:0x71a79d3a7f9fdf8c";""
"komplek housing";"Komplek perumahan";"Perumahan kavling indah permata";"Karanganyar, Kabuaran, Kec. Kunir, Kabupaten Lumajang, Jawa Timur 67383";"Kabuaran, Kec. Kunir, Kabupaten Lumajang";"JAWA TIMUR";"67383";"Indonesia";"";"";"";"-8.1714812";"113.2370446";"https://maps.google.com/?cid=0x0:0x6768a8dad15dc416";""
"komplek housing";"komplek housing";"Rumah Mas Fendik";"V68G+W57, Rogotrunan, Kec. Lumajang, Kabupaten Lumajang, Jawa Timur 67316";"Rogotrunan, Kec. Lumajang, Kabupaten Lumajang";"JAWA TIMUR";"67316";"Indonesia";"";"";"";"-8.1327013";"113.2254142";"https://maps.google.com/?cid=0x0:0xf827ff2a086b3b65";""
