Category;Real Category;Business Name;Address;City;State;Postal Code;Country;Phone;Email;Website;Latitude;Longitude;Map Link;Details Link
"komplek housing";"komplek housing";"Gn. Agung";"Kec. Gn. Terang, Kab. Tulang Bawang Barat, Lampung";"Kab. Tulang Bawang Barat, Lampung";"LAMPUNG";"";"Indonesia";"";"";"";"-4.2909142";"105.1083542";"https://maps.google.com/?cid=0x0:0xdf388747035ccf3c";""
"komplek housing";"Komplek perumahan";"AISYAH UNYIL";"P36W+QRQ, Gn. Agung, Kec. Gn. Agung, Kab. Tulang Bawang Barat, Lampung 34684";"Gn. Agung, Kec. Gn. Agung, Kab. Tulang Bawang Barat";"LAMPUNG";"34684";"Indonesia";" 085719457055";"";"";"-4.2889506";"105.0973217";"https://maps.google.com/?cid=0x0:0xf0aa184bc45100e7";""
"komplek housing";"Pembangunan Perumahan";"House Herbin Silalahi";"P33W+7W2, Gn. Agung, Kec. Gn. Agung, Kab. Tulang Bawang Barat, Lampung";"Kab. Tulang Bawang Barat, Lampung";"LAMPUNG";"";"Indonesia";"";"";"";"-4.29686";"105.0972751";"https://maps.google.com/?cid=0x0:0xdcb6e7d862977d5";""
"komplek housing";"Komplek perumahan";"FARUL baik hati";"P344+CF8, Marga Jaya, Kec. Gn. Agung, Kab. Tulang Bawang Barat, Lampung";"Kab. Tulang Bawang Barat, Lampung";"LAMPUNG";"";"Indonesia";"";"";"";"-4.2939566";"105.0561904";"https://maps.google.com/?cid=0x0:0x8abc914da2df5397";""
"komplek housing";"Pusat Perbelanjaan";"Unyil tiyuh gunung agung";"P3JF+45W, Suka Jaya, Kec. Gn. Agung, Kab. Tulang Bawang Barat, Lampung";"Kab. Tulang Bawang Barat, Lampung";"LAMPUNG";"";"Indonesia";"";"";"";"-4.2696372";"105.0729542";"https://maps.google.com/?cid=0x0:0xaf09455bab5362a";""
"komplek housing";"Komplek perumahan";"Maryana";"P33R+8P, Gn. Agung, Kec. Gn. Agung, Kab. Tulang Bawang Barat, Lampung";"Kab. Tulang Bawang Barat, Lampung";"LAMPUNG";"";"Indonesia";"";"";"";"-4.296638";"105.091803";"https://maps.google.com/?cid=0x0:0x35c1fcba95e9ce51";""
"komplek housing";"Komplek perumahan";"cindycarolinee";"P324+PF2, Marga Jaya, Kec. Gn. Agung, Kab. Tulang Bawang Barat, Lampung 34683";"Marga Jaya, Kec. Gn. Agung, Kab. Tulang Bawang Barat";"LAMPUNG";"34683";"Indonesia";"";"";"";"-4.2982282";"105.0561305";"https://maps.google.com/?cid=0x0:0x4f04fe37f85fe00c";""
"komplek housing";"komplek housing";"donlarratt";"J4W6+7W9, Desa, Sumber Rejo, Kec. Lambu Kibang, Kab. Tulang Bawang Barat, Lampung 34683";"Desa, Sumber Rejo, Kec. Lambu Kibang, Kab. Tulang Bawang Barat";"LAMPUNG";"34683";"Indonesia";"";"";"";"-4.3537136";"105.1124296";"https://maps.google.com/?cid=0x0:0x9780e088bb85065b";""
"komplek housing";"komplek housing";"Tegar tidak suka mokel";"sp 2b setia bumi blok tugu, Kab. Tulang Bawang Barat, Lampung";"Kab. Tulang Bawang Barat, Lampung";"LAMPUNG";"";"Indonesia";"";"";"";"-4.3212222";"105.0849687";"https://maps.google.com/?cid=0x0:0xb2f15cb0606d9d46";""
"komplek housing";"Komplek perumahan";"Panjimenshot";"P36W+6W, Gn. Agung, Kec. Gn. Agung, Kab. Tulang Bawang Barat, Lampung";"Kab. Tulang Bawang Barat, Lampung";"LAMPUNG";"";"Indonesia";"";"";"";"-4.2893965";"105.0973225";"https://maps.google.com/?cid=0x0:0x1378d19d336acd11";""
"komplek housing";"Komplek perumahan";"Ipeh home";"P325+P9X, Marga Jaya, Kec. Gn. Agung, Kab. Tulang Bawang Barat, Lampung 34683";"Marga Jaya, Kec. Gn. Agung, Kab. Tulang Bawang Barat";"LAMPUNG";"34683";"Indonesia";"";"";"";"-4.2968469";"105.0591348";"https://maps.google.com/?cid=0x0:0x84a7cb1e34e5d98f";""
"komplek housing";"Pembangunan Perumahan";"Sigit Prasetio";"M4W3+35W, Gn. Agung, Kec. Gn. Agung, Kab. Tulang Bawang Barat, Lampung";"Kab. Tulang Bawang Barat, Lampung";"LAMPUNG";"";"Indonesia";"";"";"";"-4.30519";"105.10233";"https://maps.google.com/?cid=0x0:0x5143439aefa5935e";""
"komplek housing";"Komplek perumahan";"Mikha sulimin";"P379+FPX Tiyuh Sumber Rejeki, Gang kunti (belakang SD, Suka Jaya, Kec. Gn. Agung, Kab. Tulang Bawang Barat, Lampung 34684";"Gang kunti (belakang SD, Suka Jaya, Kec. Gn. Agung, Kab. Tulang Bawang Barat";"LAMPUNG";"34684";"Indonesia";" 081278338057";"";"";"-4.2862599";"105.0693694";"https://maps.google.com/?cid=0x0:0xbb7c0e3d402f3e97";""
"komplek housing";"Komplek perumahan";"lek harji";"P3FF+XQ5, Suka Jaya, Kec. Gn. Agung, Kab. Tulang Bawang Barat, Lampung 34684";"Suka Jaya, Kec. Gn. Agung, Kab. Tulang Bawang Barat";"LAMPUNG";"34684";"Indonesia";"";"";"";"-4.2749996";"105.075107";"https://maps.google.com/?cid=0x0:0xffbd45dd3b919030";""
"komplek housing";"komplek housing";"Wifi Mellaputri";"J4Q5+Q8H, Sumber Rejo, Kec. Lambu Kibang, Kab. Tulang Bawang Barat, Lampung";"Kab. Tulang Bawang Barat, Lampung";"LAMPUNG";"";"Indonesia";"";"";"";"-4.3605539";"105.1083542";"https://maps.google.com/?cid=0x0:0x6518e5346b8c0d60";""
"komplek housing";"Komplek perumahan";"Della";"P33W+J8J, Gn. Agung, Kec. Gn. Terang, Kab. Tulang Bawang Barat, Lampung";"Kab. Tulang Bawang Barat, Lampung";"LAMPUNG";"";"Indonesia";"";"";"";"-4.2959104";"105.0957515";"https://maps.google.com/?cid=0x0:0x99dda832bc2e8572";""
"komplek housing";"Komplek perumahan";"Rumah mas eddy";"P37W+JV, Gn. Agung, Kec. Gn. Agung, Kab. Tulang Bawang Barat, Lampung 34684";"Gn. Agung, Kec. Gn. Agung, Kab. Tulang Bawang Barat";"LAMPUNG";"34684";"Indonesia";"";"";"";"-4.2859807";"105.0971558";"https://maps.google.com/?cid=0x0:0xc1a058339671c53a";""
"komplek housing";"Komplek perumahan";"Rumah maryanto";"P344+2Q7, Marga Jaya, Kec. Gn. Agung, Kab. Tulang Bawang Barat, Lampung 34683";"Marga Jaya, Kec. Gn. Agung, Kab. Tulang Bawang Barat";"LAMPUNG";"34683";"Indonesia";"";"";"";"-4.2939238";"105.0561526";"https://maps.google.com/?cid=0x0:0x57c5831fdbbdc0b5";""
"komplek housing";"Komplek perumahan";"Rumah Joko ayu";"P38X+3F8, Gn. Agung, Kec. Gn. Terang, Kab. Tulang Bawang Barat, Lampung 34684";"Gn. Agung, Kec. Gn. Terang, Kab. Tulang Bawang Barat";"LAMPUNG";"34684";"Indonesia";"";"";"";"-4.2848456";"105.0987073";"https://maps.google.com/?cid=0x0:0x5621595d8596cc6f";""
"komplek housing";"Pembangunan Perumahan";"inces cantik";"P47F+7XG, Gn. Agung, Kec. Gn. Terang, Kab. Tulang Bawang Barat, Lampung 34684";"Gn. Agung, Kec. Gn. Terang, Kab. Tulang Bawang Barat";"LAMPUNG";"34684";"Indonesia";"";"";"";"-4.2868125";"105.1249531";"https://maps.google.com/?cid=0x0:0xe7f415125da45433";""
"komplek housing";"Komplek perumahan";"Rumah Jiman";"P35W+MHF, Gn. Agung, Kec. Gn. Agung, Kab. Tulang Bawang Barat, Lampung 34684";"Gn. Agung, Kec. Gn. Agung, Kab. Tulang Bawang Barat";"LAMPUNG";"34684";"Indonesia";"";"";"";"-4.290286";"105.09741";"https://maps.google.com/?cid=0x0:0x2fef0b5e3193d4a";""
"komplek housing";"Komplek perumahan";"marhendi sehati";"P36W+56, Gn. Agung, Kec. Gn. Agung, Kab. Tulang Bawang Barat, Lampung";"Kab. Tulang Bawang Barat, Lampung";"LAMPUNG";"";"Indonesia";"";"";"";"-4.289571";"105.0955554";"https://maps.google.com/?cid=0x0:0xf687b16fc3907202";""
"komplek housing";"Perhimpunan Pengembang Perumahan";"LINDA SUSILOWATI";"P455+J8Q, Gn. Agung, Kec. Gn. Terang, Kab. Tulang Bawang Barat, Lampung 34684";"Gn. Agung, Kec. Gn. Terang, Kab. Tulang Bawang Barat";"LAMPUNG";"34684";"Indonesia";"";"";"";"-4.2909142";"105.1083542";"https://maps.google.com/?cid=0x0:0xbaecc1e94d6010a1";""
"komplek housing";"Komplek perumahan";"Rumah Lila";"P33W+6Q6, Gn. Agung, Kec. Gn. Agung, Kab. Tulang Bawang Barat, Lampung 34684";"Gn. Agung, Kec. Gn. Agung, Kab. Tulang Bawang Barat";"LAMPUNG";"34684";"Indonesia";"";"";"";"-4.297199";"105.0968406";"https://maps.google.com/?cid=0x0:0x23c87f5cdd695582";""
"komplek housing";"Komplek perumahan";"Menggala B Unyil";"P33X+R58, Gn. Agung, Kec. Gn. Terang, Kab. Tulang Bawang Barat, Lampung 34684";"Gn. Agung, Kec. Gn. Terang, Kab. Tulang Bawang Barat";"LAMPUNG";"34684";"Indonesia";"";"";"";"-4.2954557";"105.0980182";"https://maps.google.com/?cid=0x0:0xce65739405bd55c1";""
"komplek housing";"Komplek perumahan";"Rumah DARA,RAESHAJIHAN";"P432+8V, Gn. Agung, Kec. Gn. Agung, Kab. Tulang Bawang Barat, Lampung";"Kab. Tulang Bawang Barat, Lampung";"LAMPUNG";"";"Indonesia";"";"";"";"-4.2967483";"105.1022385";"https://maps.google.com/?cid=0x0:0x807e258e37dc1bec";""
"komplek housing";"komplek housing";"Lampung 34683";"Kab. Tulang Bawang Barat, Lampung";"Kab. Tulang Bawang Barat, Lampung";"LAMPUNG";"";"Indonesia";"";"";"";"-4.3865291";"105.0557415";"https://maps.google.com/?cid=0x0:0x94cc1f3bfc894b34";""
"komplek housing";"Perumahan";"RUMAH PENDI";"J2MM+W2G, Toto Katon, Kec. Gn. Terang, Kab. Tulang Bawang Barat, Lampung 34683";"Toto Katon, Kec. Gn. Terang, Kab. Tulang Bawang Barat";"LAMPUNG";"34683";"Indonesia";" 085366683507";"";"";"-4.3651766";"105.0325779";"https://maps.google.com/?cid=0x0:0xf06b8455f9e1ab12";""
"komplek housing";"Komplek perumahan";"Rumah Andrian";"J2VM+7QP, Toto Katon, Kec. Gn. Terang, Kab. Tulang Bawang Barat, Lampung 34683";"Toto Katon, Kec. Gn. Terang, Kab. Tulang Bawang Barat";"LAMPUNG";"34683";"Indonesia";"";"";"";"-4.356943";"105.0350016";"https://maps.google.com/?cid=0x0:0xa1d27fff35d3c6a7";""
"komplek housing";"Pembangunan Perumahan";"Rumah Vemas Adi Saputra -haha-";"J2MM+W2G, Toto Katon, Kec. Gn. Terang, Kab. Tulang Bawang Barat, Lampung 34683";"Toto Katon, Kec. Gn. Terang, Kab. Tulang Bawang Barat";"LAMPUNG";"34683";"Indonesia";"";"";"";"-4.3650887";"105.0337302";"https://maps.google.com/?cid=0x0:0x57148e9d03939f1f";""
"komplek housing";"Pembangunan Perumahan";"Rangga home";"M2HX+6XC, Toto Mulyo, Kec. Gn. Terang, Kab. Tulang Bawang Barat, Lampung";"Kab. Tulang Bawang Barat, Lampung";"LAMPUNG";"";"Indonesia";"";"";"";"-4.3219316";"105.0498966";"https://maps.google.com/?cid=0x0:0x76237950073078da";""
"komplek housing";"Komplek perumahan";"Rumah Arofan";"J3M9+PPP, Panca Marga, Kec. Gn. Terang, Kab. Tulang Bawang Barat, Lampung 34683";"Panca Marga, Kec. Gn. Terang, Kab. Tulang Bawang Barat";"LAMPUNG";"34683";"Indonesia";"";"";"";"-4.366875";"105.069273";"https://maps.google.com/?cid=0x0:0x80cd3eac2c20a186";""
"komplek housing";"Komplek perumahan";"rumah lia.SR";"M3CR+62V, Setia Bumi, Kec. Gn. Terang, Kab. Tulang Bawang Barat, Lampung 34683";"Setia Bumi, Kec. Gn. Terang, Kab. Tulang Bawang Barat";"LAMPUNG";"34683";"Indonesia";"";"";"";"-4.3293675";"105.0903087";"https://maps.google.com/?cid=0x0:0xf2d7b86f2dd7ca2c";""
"komplek housing";"Komplek perumahan";"Ahmad budiono";"J3R7+FMR, Panca Marga, Kec. Gn. Terang, Kab. Tulang Bawang Barat, Lampung 34683";"Panca Marga, Kec. Gn. Terang, Kab. Tulang Bawang Barat";"LAMPUNG";"34683";"Indonesia";"";"";"";"-4.3587037";"105.0641606";"https://maps.google.com/?cid=0x0:0xbabad7da0253bd98";""
"komplek housing";"Komplek perumahan";"Rumah pakde";"M3FJ+Q2W, Setia Bumi, Kec. Gn. Terang, Kab. Tulang Bawang Barat, Lampung 34683";"Setia Bumi, Kec. Gn. Terang, Kab. Tulang Bawang Barat";"LAMPUNG";"34683";"Indonesia";"";"";"";"-4.3259575";"105.0799893";"https://maps.google.com/?cid=0x0:0xe85c72a326f3ba80";""
"komplek housing";"Komplek perumahan";"Hary";"J3R7+FMR, Panca Marga, Kec. Gn. Terang, Kab. Tulang Bawang Barat, Lampung 34683";"Panca Marga, Kec. Gn. Terang, Kab. Tulang Bawang Barat";"LAMPUNG";"34683";"Indonesia";"";"";"";"-4.3584892";"105.0646541";"https://maps.google.com/?cid=0x0:0xa0db6c387b9762a7";""
"komplek housing";"Komplek perumahan";"Rumah MKNA";"J2PJ+3WC, Toto Katon, Kec. Gn. Terang, Kabupaten Lampung Utara, Lampung";"Kabupaten Lampung Utara, Lampung";"LAMPUNG";"";"Indonesia";"";"";"";"-4.3648123";"105.0322663";"https://maps.google.com/?cid=0x0:0x655f6ea84ed5c66d";""
"komplek housing";"komplek housing";"Tegar tidak suka mokel";"sp 2b setia bumi blok tugu, Kab. Tulang Bawang Barat, Lampung";"Kab. Tulang Bawang Barat, Lampung";"LAMPUNG";"";"Indonesia";"";"";"";"-4.3212222";"105.0849687";"https://maps.google.com/?cid=0x0:0xb2f15cb0606d9d46";""
"komplek housing";"Komplek perumahan";"Rumah Bg Edi";"J3WQ+RWC, Gn. Terang, Kec. Gn. Terang, Kab. Tulang Bawang Barat, Lampung 34683";"Gn. Terang, Kec. Gn. Terang, Kab. Tulang Bawang Barat";"LAMPUNG";"34683";"Indonesia";"";"";"";"-4.353493";"105.0902454";"https://maps.google.com/?cid=0x0:0x667567ef7efd7058";""
"komplek housing";"Komplek perumahan";"Rumah Nuryadi";"J22P+MF, Terang Batin, Kec. Gn. Terang, Kab. Tulang Bawang Barat, Lampung";"Kab. Tulang Bawang Barat, Lampung";"LAMPUNG";"";"Indonesia";"";"";"";"-4.3976455";"105.0364004";"https://maps.google.com/?cid=0x0:0x76dd1e0f1066d6c6";""
"komplek housing";"Komplek perumahan";"Rumah Aden Samsi";"J3P7+R9W, Panca Marga, Kec. Gn. Terang, Kab. Tulang Bawang Barat, Lampung 34683";"Panca Marga, Kec. Gn. Terang, Kab. Tulang Bawang Barat";"LAMPUNG";"34683";"Indonesia";"";"";"";"-4.36308";"105.06318";"https://maps.google.com/?cid=0x0:0x8af094a0edbd6e7f";""
"komplek housing";"Komplek perumahan";"Lampung";"M396+9XH, Toto Mulyo, Kec. Gn. Terang, Kab. Tulang Bawang Barat, Lampung";"Kab. Tulang Bawang Barat, Lampung";"LAMPUNG";"";"Indonesia";"";"";"";"-4.3315625";"105.0624877";"https://maps.google.com/?cid=0x0:0x70a0b3694ea1a260";""
"komplek housing";"komplek housing";"Rumah bang Agus";"J3XR+92M, Gn. Terang, Kec. Gn. Terang, Kab. Tulang Bawang Barat, Lampung";"Kab. Tulang Bawang Barat, Lampung";"LAMPUNG";"";"Indonesia";"";"";"";"-4.3515326";"105.090059";"https://maps.google.com/?cid=0x0:0x4c4cb74d86db26b8";""
"komplek housing";"Komplek perumahan";"Rumah raka";"J3Q8+VX4, Panca Marga, Kec. Gn. Terang, Kab. Tulang Bawang Barat, Lampung 34683";"Panca Marga, Kec. Gn. Terang, Kab. Tulang Bawang Barat";"LAMPUNG";"34683";"Indonesia";"";"";"";"-4.3603653";"105.067463";"https://maps.google.com/?cid=0x0:0x423b99db90175350";""
"komplek housing";"Komplek perumahan";"naura pom";"J2WM+M98, Toto Katon, Kec. Gn. Terang, Kab. Tulang Bawang Barat, Lampung";"Kab. Tulang Bawang Barat, Lampung";"LAMPUNG";"";"Indonesia";" 081511207471";"";"";"-4.3533486";"105.0334392";"https://maps.google.com/?cid=0x0:0x637db573482258ad";""
"komplek housing";"komplek housing";"donlarratt";"J4W6+7W9, Desa, Sumber Rejo, Kec. Lambu Kibang, Kab. Tulang Bawang Barat, Lampung 34683";"Desa, Sumber Rejo, Kec. Lambu Kibang, Kab. Tulang Bawang Barat";"LAMPUNG";"34683";"Indonesia";"";"";"";"-4.3537136";"105.1124296";"https://maps.google.com/?cid=0x0:0x9780e088bb85065b";""
"komplek housing";"komplek housing";"Gn. Terang";"Kec. Langkapura, Kota Bandar Lampung, Lampung";"Kota Bandar Lampung, Lampung";"LAMPUNG";"";"Indonesia";"";"";"";"-5.3838924";"105.2355711";"https://maps.google.com/?cid=0x0:0x2fd47cd216f73114";""
"komplek housing";"Komplek perumahan";"Rumah Arapi";"MX9W+7JH, Marga Mulyo, Kec. Gn. Terang, Kab. Tulang Bawang Barat, Lampung";"Kab. Tulang Bawang Barat, Lampung";"LAMPUNG";"";"Indonesia";"";"";"";"-4.3318044";"104.9966185";"https://maps.google.com/?cid=0x0:0x5975b12e5efc78df";""
"komplek housing";"Perumahan";"ARTHA SETYA CLUSTER GUNUNG TERANG";"J6CP+CG6, Gn. Terang, Kec. Langkapura, Kota Bandar Lampung, Lampung 35146";"Gn. Terang, Kec. Langkapura, Kota Bandar Lampung";"LAMPUNG";"35146";"Indonesia";" 082280251177";"";"";"-5.3789699";"105.2362756";"https://maps.google.com/?cid=0x0:0x647ae51f59502b4b";""
"komplek housing";"Komplek perumahan";"Rumah Rizal";"M2HX+6XC, RT.06/RW.02, Toto Mulyo, Kec. Gn. Terang, Kab. Tulang Bawang Barat, Lampung";"Kab. Tulang Bawang Barat, Lampung";"LAMPUNG";"";"Indonesia";"";"";"";"-4.3219316";"105.0498966";"https://maps.google.com/?cid=0x0:0x41b7e062c25ead78";""
"komplek housing";"Komplek perumahan";"Griya Annisa Swadaya V";"J68M+GXV, Gg. Swadaya V, Gn. Terang, Kec. Tj. Karang Bar., Kota Bandar Lampung, Lampung 35146";"Gg. Swadaya V, Gn. Terang, Kec. Tj. Karang Bar., Kota Bandar Lampung";"LAMPUNG";"35146";"Indonesia";"";"";"";"-5.3836296";"105.2349311";"https://maps.google.com/?cid=0x0:0xea07b7cf89c79b5";""
"komplek housing";"Perhimpunan Pengembang Perumahan";"Kapi";"J2GF+MCV, Toto Wonodadi, Kec. Gn. Terang, Kab. Tulang Bawang Barat, Lampung";"Kab. Tulang Bawang Barat, Lampung";"LAMPUNG";"";"Indonesia";"";"";"";"-4.3732674";"105.0235409";"https://maps.google.com/?cid=0x0:0x239e70f376079bad";""
"komplek housing";"Komplek perumahan";"Rumah puput";"M3CM+Q2P, Setia Bumi, Kec. Gn. Terang, Kab. Tulang Bawang Barat, Lampung 34683";"Setia Bumi, Kec. Gn. Terang, Kab. Tulang Bawang Barat";"LAMPUNG";"34683";"Indonesia";"";"";"";"-4.3261701";"105.0827516";"https://maps.google.com/?cid=0x0:0xc6c36ba928036006";""
"komplek housing";"komplek housing";"Kec. Gn. Terang";"Kab. Tulang Bawang Barat, Lampung";"Kab. Tulang Bawang Barat, Lampung";"LAMPUNG";"";"Indonesia";"";"";"";"-4.3316445";"105.0625305";"https://maps.google.com/?cid=0x0:0x85f2d41c9e699231";""
"komplek housing";"Komplek perumahan";"Rumah pagede";"P325+3X6, Toto Mulyo, Kec. Gn. Terang, Kab. Tulang Bawang Barat, Lampung 34683";"Toto Mulyo, Kec. Gn. Terang, Kab. Tulang Bawang Barat";"LAMPUNG";"34683";"Indonesia";"";"";"";"-4.2998719";"105.0598782";"https://maps.google.com/?cid=0x0:0x97699f26e8c50cac";""
"komplek housing";"komplek housing";"Kec. Lambu Kibang";"Kab. Tulang Bawang Barat, Lampung";"Kab. Tulang Bawang Barat, Lampung";"LAMPUNG";"";"Indonesia";"";"";"";"-4.3328453";"105.1576626";"https://maps.google.com/?cid=0x0:0x3a685ba0f9a1acce";""
"komplek housing";"Komplek perumahan";"Rumah Pak Paijo";"J4MV+96J, Pagar Jaya, Kec. Lambu Kibang, Kab. Tulang Bawang Barat, Lampung 34388";"Pagar Jaya, Kec. Lambu Kibang, Kab. Tulang Bawang Barat";"LAMPUNG";"34388";"Indonesia";"";"";"";"-4.3661936";"105.1426635";"https://maps.google.com/?cid=0x0:0xa2e341b45a655a78";""
"komplek housing";"Perumahan";"rumah ku";"J5Q2+QGV, Gn. Sari, Kec. Lambu Kibang, Kab. Tulang Bawang Barat, Lampung 34388";"Gn. Sari, Kec. Lambu Kibang, Kab. Tulang Bawang Barat";"LAMPUNG";"34388";"Indonesia";"";"";"";"-4.3606249";"105.1513298";"https://maps.google.com/?cid=0x0:0x731331ee72f5491d";""
"komplek housing";"Komplek perumahan";"Fahim";"J5JG+8GV, Mekar Sari Jaya, Kec. Lambu Kibang, Kab. Tulang Bawang Barat, Lampung 34388";"Mekar Sari Jaya, Kec. Lambu Kibang, Kab. Tulang Bawang Barat";"LAMPUNG";"34388";"Indonesia";"";"";"";"-4.368994";"105.1767436";"https://maps.google.com/?cid=0x0:0x4560c568046f2a77";""
"komplek housing";"Perumahan";"Garas Home";"H6WH+X42, Unnamed Road, Lesung Bakti Jaya, Kec. Lambu Kibang, Kab. Tulang Bawang Barat, Lampung 34388";"Unnamed Road, Lesung Bakti Jaya, Kec. Lambu Kibang, Kab. Tulang Bawang Barat";"LAMPUNG";"34388";"Indonesia";"";"";"";"-4.4026151";"105.2277793";"https://maps.google.com/?cid=0x0:0x993350b09214c8eb";""
"komplek housing";"Komplek perumahan";"Rumah keluarga bayu";"H5QP+8F8, Bujung Sari Marga, Kec. Pagar Dewa, Kab. Tulang Bawang Barat, Lampung 34388";"Bujung Sari Marga, Kec. Pagar Dewa, Kab. Tulang Bawang Barat";"LAMPUNG";"34388";"Indonesia";"";"";"";"-4.4117604";"105.1850992";"https://maps.google.com/?cid=0x0:0xfd50ab45401e114c";""
"komplek housing";"Komplek perumahan";"Ruang Kerja Bigboss Bayu Arif Firmansyah";"J5JG+M9R, Mekar Sari Jaya, Kec. Lambu Kibang, Kab. Tulang Bawang Barat, Lampung 34388";"Mekar Sari Jaya, Kec. Lambu Kibang, Kab. Tulang Bawang Barat";"LAMPUNG";"34388";"Indonesia";" 085768986573";"";"";"-4.3686694";"105.1761435";"https://maps.google.com/?cid=0x0:0x38d092f7d1b94b0b";""
"komplek housing";"Komplek perumahan";"Rumah Wulandari sinjaya (cemplok)";"M585+GXR, Jl. Raya SP Randu Unit 6, Kibang Budi Jaya, Kec. Lambu Kibang, Kab. Tulang Bawang Barat, Lampung 34388";"Jl. Raya SP Randu Unit 6, Kibang Budi Jaya, Kec. Lambu Kibang, Kab. Tulang Bawang Barat";"LAMPUNG";"34388";"Indonesia";"";"";"";"-4.3336817";"105.1598219";"https://maps.google.com/?cid=0x0:0xbf7267d15cc99798";""
"komplek housing";"Komplek perumahan";"Rumah pak ponimin";"J4JX+M5H, Pagar Jaya, Kec. Lambu Kibang, Kab. Tulang Bawang Barat, Lampung 34388";"Pagar Jaya, Kec. Lambu Kibang, Kab. Tulang Bawang Barat";"LAMPUNG";"34388";"Indonesia";"";"";"";"-4.3683261";"105.1479637";"https://maps.google.com/?cid=0x0:0x29eb8d8f790fb40b";""
"komplek housing";"Komplek perumahan";"Endro";"M53F+C59, Mekar Sari Jaya, Kec. Lambu Kibang, Kab. Tulang Bawang Barat, Lampung 34388";"Mekar Sari Jaya, Kec. Lambu Kibang, Kab. Tulang Bawang Barat";"LAMPUNG";"34388";"Indonesia";"";"";"";"-4.3462973";"105.1732738";"https://maps.google.com/?cid=0x0:0x125f07bb9768e526";""
"komplek housing";"Komplek perumahan";"Rumah bang Ap";"H5QR+3VG, Bujung Sari Marga, Kec. Pagar Dewa, Kab. Tulang Bawang Barat, Lampung 34388";"Bujung Sari Marga, Kec. Pagar Dewa, Kab. Tulang Bawang Barat";"LAMPUNG";"34388";"Indonesia";"";"";"";"-4.412404";"105.1922626";"https://maps.google.com/?cid=0x0:0x30d05542fe436ca3";""
"komplek housing";"Komplek perumahan";"Rumah my wife";"J5MG+84W, Mekar Sari Jaya, Kec. Lambu Kibang, Kab. Tulang Bawang Barat, Lampung 34388";"Mekar Sari Jaya, Kec. Lambu Kibang, Kab. Tulang Bawang Barat";"LAMPUNG";"34388";"Indonesia";"";"";"";"-4.366215";"105.174965";"https://maps.google.com/?cid=0x0:0x832b267e629a182a";""
"komplek housing";"Pembangunan Perumahan";"Putra";"H5PW+W4V, Bujung Dewa, Kec. Pagar Dewa, Kab. Tulang Bawang Barat, Lampung 34388";"Bujung Dewa, Kec. Pagar Dewa, Kab. Tulang Bawang Barat";"LAMPUNG";"34388";"Indonesia";"";"";"";"-4.4126327";"105.1952879";"https://maps.google.com/?cid=0x0:0x94e19e55c862a9a9";""
"komplek housing";"Pembangunan Perumahan";"Wasdiyanti";"M56V+76Q, Pagar Dewa Suka Mulya, Kec. Pagar Dewa, Kab. Tulang Bawang Barat, Lampung 34388";"Pagar Dewa Suka Mulya, Kec. Pagar Dewa, Kab. Tulang Bawang Barat";"LAMPUNG";"34388";"Indonesia";"";"";"";"-4.3396551";"105.1935778";"https://maps.google.com/?cid=0x0:0x9d54c888c6a1bfb9";""
"komplek housing";"Komplek perumahan";"Dapoer mommy arkie";"H6XJ+464, Lesung Bakti Jaya, Kec. Lambu Kibang, Kab. Tulang Bawang Barat, Lampung 34388";"Lesung Bakti Jaya, Kec. Lambu Kibang, Kab. Tulang Bawang Barat";"LAMPUNG";"34388";"Indonesia";"";"";"";"-4.4020922";"105.2299388";"https://maps.google.com/?cid=0x0:0x3013cddb63849a22";""
"komplek housing";"Komplek perumahan";"Owen FLLaG";"J62P+2PQ, Unnamed Road, Lesung Bakti Jaya, Kec. Lambu Kibang, Kab. Tulang Bawang Barat, Lampung 34388";"Unnamed Road, Lesung Bakti Jaya, Kec. Lambu Kibang, Kab. Tulang Bawang Barat";"LAMPUNG";"34388";"Indonesia";"";"";"";"-4.3999583";"105.2368673";"https://maps.google.com/?cid=0x0:0xb814dec0d04053fe";""
"komplek housing";"Komplek perumahan";"Rumah AmbarWulan";"M56V+76Q, Pagar Dewa Suka Mulya, Kec. Pagar Dewa, Kab. Tulang Bawang Barat, Lampung 34388";"Pagar Dewa Suka Mulya, Kec. Pagar Dewa, Kab. Tulang Bawang Barat";"LAMPUNG";"34388";"Indonesia";"";"";"";"-4.3397897";"105.1929803";"https://maps.google.com/?cid=0x0:0xc7133cc11169cfed";""
"komplek housing";"Komplek perumahan";"Sulistiowati";"J6P4+FC5, Jaya Makmur, Kec. Banjar Baru, Kab. Tulang Bawang, Lampung 34388";"Jaya Makmur, Kec. Banjar Baru, Kab. Tulang Bawang";"LAMPUNG";"34388";"Indonesia";"";"";"";"-4.3638502";"105.2060991";"https://maps.google.com/?cid=0x0:0x3239aa09b83febc2";""
"komplek housing";"Komplek perumahan";"Raffa ilham";"J6W4+FJV, Cahyou Randu, Kec. Pagar Dewa, Kab. Tulang Bawang Barat, Lampung 34388";"Cahyou Randu, Kec. Pagar Dewa, Kab. Tulang Bawang Barat";"LAMPUNG";"34388";"Indonesia";"";"";"";"-4.3541409";"105.20643";"https://maps.google.com/?cid=0x0:0x73070028b6ad9589";""
"komplek housing";"Pembangunan Perumahan";"GUSTOMI";"M587+383, Jl. Raya SP Randu Unit 6, Kibang Budi Jaya, Kec. Lambu Kibang, Kab. Tulang Bawang Barat, Lampung 34388";"Jl. Raya SP Randu Unit 6, Kibang Budi Jaya, Kec. Lambu Kibang, Kab. Tulang Bawang Barat";"LAMPUNG";"34388";"Indonesia";"";"";"";"-4.3348567";"105.1632823";"https://maps.google.com/?cid=0x0:0xc7efaf3376ec5125";""
"komplek housing";"Komplek perumahan";"Lambu kibang";"M568+6P8, Kibang Budi Jaya, Kec. Lambu Kibang, Kab. Tulang Bawang Barat, Lampung 34792";"Kibang Budi Jaya, Kec. Lambu Kibang, Kab. Tulang Bawang Barat";"LAMPUNG";"34792";"Indonesia";"";"";"";"-4.3394534";"105.1668326";"https://maps.google.com/?cid=0x0:0xd17480f9624b6d6";""
"komplek housing";"Komplek perumahan";"Rahman Linda";"G64M+5W2, Jalan AbdurRahman, Menggala Sel., Kec. Menggala, Kab. Tulang Bawang, Lampung 34388";"Jalan AbdurRahman, Menggala Sel., Kec. Menggala, Kab. Tulang Bawang";"LAMPUNG";"34388";"Indonesia";"";"";"";"-4.494621";"105.2347649";"https://maps.google.com/?cid=0x0:0x179704f21d17c12f";""
"komplek housing";"Komplek perumahan";"Noven Tamin";"G64M+3P6, Jl. Abdulrahman, Menggala Sel., Kec. Menggala, Kab. Tulang Bawang, Lampung 34388";"Jl. Abdulrahman, Menggala Sel., Kec. Menggala, Kab. Tulang Bawang";"LAMPUNG";"34388";"Indonesia";"";"";"";"-4.49521";"105.2344081";"https://maps.google.com/?cid=0x0:0x651dd49441f7dc6";""
"komplek housing";"Komplek perumahan";"Komplek Abadi";"Jl. Kolonel Sugiono No.64, RT.5/RW.4, Duren Sawit, Kec. Duren Sawit, Kota Jakarta Timur, Daerah Khusus Ibukota Jakarta 13440";"RT.5/RW.4, Duren Sawit, Kec. Duren Sawit, Kota Jakarta Timur";"LAMPUNG";"13440";"Indonesia";"";"";"";"-6.2263602";"106.9090587";"https://maps.google.com/?cid=0x0:0x411a933e73c7ea82";""
"komplek housing";"Komplek perumahan";"Rumah Basith";"Gg. Rais 1 No.29, Ujung Gn., Kec. Menggala, Kab. Tulang Bawang, Lampung 34388";"Ujung Gn., Kec. Menggala, Kab. Tulang Bawang";"LAMPUNG";"34388";"Indonesia";"";"";"";"-4.4814318";"105.2388702";"https://maps.google.com/?cid=0x0:0xa2b8facbc32f6b5";""
"komplek housing";"komplek housing";"Kec. Pagar Dewa";"Kabupaten Lampung Barat, Lampung";"Kabupaten Lampung Barat, Lampung";"LAMPUNG";"";"Indonesia";"";"";"";"-4.9508124";"104.3959669";"https://maps.google.com/?cid=0x0:0x52c11fad8c195b34";""
"komplek housing";"komplek housing";"Pagar Dewa";"Kec. Selebar, Kota Bengkulu, Bengkulu";"Kota Bengkulu, Bengkulu";"LAMPUNG";"";"Indonesia";"";"";"";"-3.8389782";"102.3206187";"https://maps.google.com/?cid=0x0:0x330e0d15f51d4349";""
"komplek housing";"komplek housing";"Lampung 34693";"Lampung";"Lampung";"LAMPUNG";"";"Indonesia";"";"";"";"-4.5841503";"105.1492869";"https://maps.google.com/?cid=0x0:0xeb05e39e383eec1c";""
"komplek housing";"komplek housing";"Lampung 34885";"Kabupaten Lampung Barat, Lampung";"Kabupaten Lampung Barat, Lampung";"LAMPUNG";"";"Indonesia";"";"";"";"-4.9642479";"104.3093759";"https://maps.google.com/?cid=0x0:0x33d570ca1e861638";""
"komplek housing";"Komplek perumahan";"Queen Family house";"376W+Q8, Mekar Sari, Kec. Pagar Dewa, Kabupaten Lampung Barat, Lampung";"Kabupaten Lampung Barat, Lampung";"LAMPUNG";"";"Indonesia";"";"";"";"-4.9387043";"104.2953892";"https://maps.google.com/?cid=0x0:0xb6c6d907e1ffa9f2";""
"komplek housing";"Perumahan";"elhuda_19";"37QW+8X9, Sidomulyo, Kec. Pagar Dewa, Kabupaten Lampung Barat, Lampung 34885";"Sidomulyo, Kec. Pagar Dewa, Kabupaten Lampung Barat";"LAMPUNG";"34885";"Indonesia";"";"";"";"-4.9117224";"104.297492";"https://maps.google.com/?cid=0x0:0xf9d9d1fbab7494f7";""
"komplek housing";"Komplek perumahan";"Naura zairatunnafisa";"377W+879, Sukamulya, Kec. Pagar Dewa, Kabupaten Lampung Barat, Lampung 34885";"Sukamulya, Kec. Pagar Dewa, Kabupaten Lampung Barat";"LAMPUNG";"34885";"Indonesia";"";"";"";"-4.9367177";"104.2957232";"https://maps.google.com/?cid=0x0:0xbf31a64f3f5c3d19";""
"komplek housing";"Komplek perumahan";"RUMAH PADE SAPARI";"4882+58P, Sidomulyo, Kec. Pagar Dewa, Kabupaten Lampung Barat, Lampung 34885";"Sidomulyo, Kec. Pagar Dewa, Kabupaten Lampung Barat";"LAMPUNG";"34885";"Indonesia";"";"";"";"-4.8845389";"104.3008297";"https://maps.google.com/?cid=0x0:0xa9204a2183a6c27e";""
"komplek housing";"Toko";"Nizam";"379H+C68, Unnamed Road, Mekar Sari, Kec. Pagar Dewa, Kabupaten Lampung Barat, Lampung 34872";"Unnamed Road, Mekar Sari, Kec. Pagar Dewa, Kabupaten Lampung Barat";"LAMPUNG";"34872";"Indonesia";" 085789226004";"";"";"-4.9314634";"104.278085";"https://maps.google.com/?cid=0x0:0xc88c3c792f97b1ae";""
"komplek housing";"Komplek perumahan";"Komplek perumahan";"27PQ+JF9, Mekar Sari, Kec. Pagar Dewa, Kabupaten Lampung Barat, Lampung";"Kabupaten Lampung Barat, Lampung";"LAMPUNG";"";"Indonesia";"";"";"";"-4.9634673";"104.2887467";"https://maps.google.com/?cid=0x0:0x17674f1ec52ea4a3";""
"komplek housing";"komplek housing";"Home Fathurrahman";"X72P+JQG, Sekincau, Kec. Sekincau, Kabupaten Lampung Barat, Lampung 34885";"Sekincau, Kec. Sekincau, Kabupaten Lampung Barat";"LAMPUNG";"34885";"Indonesia";"";"";"";"-5.0485103";"104.2873566";"https://maps.google.com/?cid=0x0:0xfdac7b5551f85cd0";""
"komplek housing";"Pembangunan Perumahan";"Talanng jabar";"3978+9P9, Sidodadi, Kec. Pagar Dewa, Kabupaten Lampung Barat, Lampung 34766";"Sidodadi, Kec. Pagar Dewa, Kabupaten Lampung Barat";"LAMPUNG";"34766";"Indonesia";"";"";"";"-4.9371848";"104.3666567";"https://maps.google.com/?cid=0x0:0x192ac7589df494a5";""
"komplek housing";"Perhimpunan Pengembang Perumahan";"Rumah tiara";"37QW+8X9, Sidomulyo, Kec. Pagar Dewa, Kabupaten Lampung Barat, Lampung 34885";"Sidomulyo, Kec. Pagar Dewa, Kabupaten Lampung Barat";"LAMPUNG";"34885";"Indonesia";"";"";"";"-4.9117165";"104.2974244";"https://maps.google.com/?cid=0x0:0x93024febb475dda6";""
"komplek housing";"Pembangunan Perumahan";"dexdi";"388X+2R8, Sidodadi, Kec. Pagar Dewa, Kabupaten Lampung Barat, Lampung";"Kabupaten Lampung Barat, Lampung";"LAMPUNG";"";"Indonesia";"";"";"";"-4.9349625";"104.3495781";"https://maps.google.com/?cid=0x0:0xb868fb5d678f94ee";""
"komplek housing";"Komplek perumahan";"Talang sidorame";"386P+RJ, Pahayu Jaya, Kec. Pagar Dewa, Kabupaten Lampung Barat, Lampung";"Kabupaten Lampung Barat, Lampung";"LAMPUNG";"";"Indonesia";"";"";"";"-4.9378956";"104.3366398";"https://maps.google.com/?cid=0x0:0xd39bee83657220be";""
"komplek housing";"Komplek perumahan";"Rumah intan";"27RV+V7R, Mekar Sari, Kec. Pagar Dewa, Kabupaten Lampung Barat, Lampung 34885";"Mekar Sari, Kec. Pagar Dewa, Kabupaten Lampung Barat";"LAMPUNG";"34885";"Indonesia";"";"";"";"-4.9577834";"104.2932112";"https://maps.google.com/?cid=0x0:0x609d9cab3e91bd85";""
"komplek housing";"Komplek perumahan";"Itut home";"28MP+46, Pahayu Jaya, Kec. Pagar Dewa, Kabupaten Lampung Barat, Lampung";"Kabupaten Lampung Barat, Lampung";"LAMPUNG";"";"Indonesia";"";"";"";"-4.9672348";"104.3356118";"https://maps.google.com/?cid=0x0:0x8f7c6ef8cbb68518";""
"komplek housing";"Komplek perumahan";"Mekarsari";"27PQ+Q92, Mekar Sari, Kec. Pagar Dewa, Kabupaten Lampung Barat, Lampung 34885";"Mekar Sari, Kec. Pagar Dewa, Kabupaten Lampung Barat";"LAMPUNG";"34885";"Indonesia";"";"";"";"-4.9634844";"104.2887866";"https://maps.google.com/?cid=0x0:0x3292fdbe2105858d";""
"komplek housing";"Perumahan";"fadilah umar";"37VX+VMG, Sidomulyo, Kec. Pagar Dewa, Kabupaten Lampung Barat, Lampung 34885";"Sidomulyo, Kec. Pagar Dewa, Kabupaten Lampung Barat";"LAMPUNG";"34885";"Indonesia";"";"";"";"-4.9057907";"104.2991728";"https://maps.google.com/?cid=0x0:0x5fa34d8beeca2c15";""
"komplek housing";"Komplek perumahan";"Talang baru";"28GV+HP6, Pahayu Jaya, Kec. Pagar Dewa, Kabupaten Lampung Barat, Lampung";"Kabupaten Lampung Barat, Lampung";"LAMPUNG";"";"Indonesia";"";"";"";"-4.9735815";"104.3442794";"https://maps.google.com/?cid=0x0:0xabc53b98c195fecd";""
"komplek housing";"Komplek perumahan";"Dinda home";"28GV+PW3, Pahayu Jaya, Kec. Pagar Dewa, Kabupaten Lampung Barat, Lampung";"Kabupaten Lampung Barat, Lampung";"LAMPUNG";"";"Indonesia";"";"";"";"-4.9732025";"104.3445383";"https://maps.google.com/?cid=0x0:0xe39755234153ba91";""
"komplek housing";"Komplek perumahan";"Nina Home";"28HV+2R5, mekar agung, Pahayu Jaya, Kec. Pagar Dewa, Kabupaten Lampung Barat, Lampung";"Kabupaten Lampung Barat, Lampung";"LAMPUNG";"";"Indonesia";"";"";"";"-4.9724871";"104.3446164";"https://maps.google.com/?cid=0x0:0x30a4735ca53b9ded";""
"komplek housing";"Komplek perumahan";"TALANG PUR";"2988+6JM, Pahayu Jaya, Kec. Pagar Dewa, Kabupaten Lampung Barat, Lampung";"Kabupaten Lampung Barat, Lampung";"LAMPUNG";"";"Indonesia";"";"";"";"-4.9844239";"104.3665468";"https://maps.google.com/?cid=0x0:0x87fde353c2a17266";""
"komplek housing";"komplek housing";"Rumah Kadus Tegal Rejo B";"2898+45, Pampangan, Kec. Sekincau, Kabupaten Lampung Barat, Lampung";"Kabupaten Lampung Barat, Lampung";"LAMPUNG";"";"Indonesia";"";"";"";"-4.9822031";"104.3154608";"https://maps.google.com/?cid=0x0:0x616e87554c52f9ab";""
"komplek housing";"komplek housing";"Rumah Fikri";"2874+886, Pampangan, Kec. Sekincau, Kabupaten Lampung Barat, Lampung 34885";"Pampangan, Kec. Sekincau, Kabupaten Lampung Barat";"LAMPUNG";"34885";"Indonesia";"";"";"";"-4.9876074";"104.3065619";"https://maps.google.com/?cid=0x0:0x57905f7b6427e32a";""
"komplek housing";"komplek housing";"Rumah bude Sri";"X72H+H2C, Waspada, Kec. Sekincau, Kabupaten Lampung Barat, Lampung";"Kabupaten Lampung Barat, Lampung";"LAMPUNG";"";"Indonesia";"";"";"";"-5.0476283";"104.2771444";"https://maps.google.com/?cid=0x0:0xe57dde254322089e";""
"komplek housing";"komplek housing";"Kec. Pagar Dewa";"Kabupaten Lampung Barat, Lampung";"Kabupaten Lampung Barat, Lampung";"LAMPUNG";"";"Indonesia";"";"";"";"-4.9508124";"104.3959669";"https://maps.google.com/?cid=0x0:0x52c11fad8c195b34";""
"komplek housing";"Komplek perumahan";"Zefri(cod)";"27QV+277, Mekar Sari, Kec. Pagar Dewa, Kabupaten Lampung Barat, Lampung";"Kabupaten Lampung Barat, Lampung";"LAMPUNG";"";"Indonesia";"";"";"";"-4.9624525";"104.2931737";"https://maps.google.com/?cid=0x0:0xb0237e4a6ebadf7b";""
"komplek housing";"Komplek perumahan";"Jnh f";"27PQ+Q92, Mekar Sari, Kec. Pagar Dewa, Kabupaten Lampung Barat, Lampung 34885";"Mekar Sari, Kec. Pagar Dewa, Kabupaten Lampung Barat";"LAMPUNG";"34885";"Indonesia";"";"";"";"-4.9633969";"104.2877554";"https://maps.google.com/?cid=0x0:0x479997b2f52a2eab";""
"komplek housing";"Komplek perumahan";"Rumah pak Toto";"27VR+H6H, Mekar Sari, Kec. Pagar Dewa, Kabupaten Lampung Barat, Lampung 34885";"Mekar Sari, Kec. Pagar Dewa, Kabupaten Lampung Barat";"LAMPUNG";"34885";"Indonesia";"";"";"";"-4.9557681";"104.2904871";"https://maps.google.com/?cid=0x0:0x1b512d7c6ae5c9e9";""
"komplek housing";"Komplek perumahan";"RUMAH MANG ROSID";"476X+J29, Sidomulyo, Kec. Pagar Dewa, Kabupaten Lampung Barat, Lampung 34885";"Sidomulyo, Kec. Pagar Dewa, Kabupaten Lampung Barat";"LAMPUNG";"34885";"Indonesia";" 085769875219";"";"";"-4.8884504";"104.2976221";"https://maps.google.com/?cid=0x0:0x32b77212e17e7890";""
"komplek housing";"Komplek perumahan";"Malla Naura";"377P+6PC, Mekar Sari, Kec. Pagar Dewa, Kabupaten Lampung Barat, Lampung 34885";"Mekar Sari, Kec. Pagar Dewa, Kabupaten Lampung Barat";"LAMPUNG";"34885";"Indonesia";"";"";"";"-4.936932";"104.2867712";"https://maps.google.com/?cid=0x0:0x4a8fb9f5f83b2e01";""
"komplek housing";"komplek housing";"Lampung 34693";"Lampung";"Lampung";"LAMPUNG";"";"Indonesia";"";"";"";"-4.5841503";"105.1492869";"https://maps.google.com/?cid=0x0:0xeb05e39e383eec1c";""
"komplek housing";"Pembangunan Perumahan";"Lampung, Tubaba, Tirta Makmur";"C3XX+W2R, Tirta Makmur, Kec. Tulang Bawang Tengah, Kab. Tulang Bawang Barat, Lampung 34693";"Tirta Makmur, Kec. Tulang Bawang Tengah, Kab. Tulang Bawang Barat";"LAMPUNG";"34693";"Indonesia";" 082298059047";"";"";"-4.553094";"105.0999545";"https://maps.google.com/?cid=0x0:0x709d347b254b76c6";""
"komplek housing";"Komplek perumahan";"Rumah samsul hidayat";"C5J2+4WJ, Mulya Kencana, Kec. Tulang Bawang Tengah, Kab. Tulang Bawang Barat, Lampung 34693";"Mulya Kencana, Kec. Tulang Bawang Tengah, Kab. Tulang Bawang Barat";"LAMPUNG";"34693";"Indonesia";" 082186536110";"";"";"-4.5697018";"105.1514752";"https://maps.google.com/?cid=0x0:0x8a06620fb34e45ea";""
"komplek housing";"Pertanian";"Agus's Green House";"9543+VP8, RT.003/RW.001, Tunas Asri, Kec. Tulang Bawang Tengah, Kab. Tulang Bawang Barat, Lampung 34693";"RT.003/RW.001, Tunas Asri, Kec. Tulang Bawang Tengah, Kab. Tulang Bawang Barat";"LAMPUNG";"34693";"Indonesia";" 085279020545";"";"";"-4.6428271";"105.15433";"https://maps.google.com/?cid=0x0:0x585d9b1634209337";""
"komplek housing";"Komplek perumahan";"Mulya kencana";"C5P4+4PV, Mulya Kencana, Kec. Tulang Bawang Tengah, Kab. Tulang Bawang Barat, Lampung 34693";"Mulya Kencana, Kec. Tulang Bawang Tengah, Kab. Tulang Bawang Barat";"LAMPUNG";"34693";"Indonesia";"";"";"";"-4.5646444";"105.1567873";"https://maps.google.com/?cid=0x0:0xbbd40315b88eba2a";""
"komplek housing";"Komplek perumahan";"Rumah Jeje";"rk 3 rt 8, Mulya Kencana, Kec. Tulang Bawang Tengah, Kab. Tulang Bawang Barat, Lampung 34693";"Mulya Kencana, Kec. Tulang Bawang Tengah, Kab. Tulang Bawang Barat";"LAMPUNG";"34693";"Indonesia";"";"";"";"-4.5656931";"105.1595138";"https://maps.google.com/?cid=0x0:0x703c1a27b6de0865";""
"komplek housing";"Komplek perumahan";"Rumah Bagas";"C5M6+R8W, Mulya Kencana, Kec. Tulang Bawang Tengah, Kab. Tulang Bawang Barat, Lampung 34693";"Mulya Kencana, Kec. Tulang Bawang Tengah, Kab. Tulang Bawang Barat";"LAMPUNG";"34693";"Indonesia";"";"";"";"-4.5653928";"105.1608169";"https://maps.google.com/?cid=0x0:0x510fe92eac1f623e";""
"komplek housing";"Komplek perumahan";"Rumah";"C5Q9+7WJ, Mulya Kencana, Kec. Tulang Bawang Tengah, Kab. Tulang Bawang Barat, Lampung 34693";"Mulya Kencana, Kec. Tulang Bawang Tengah, Kab. Tulang Bawang Barat";"LAMPUNG";"34693";"Indonesia";"";"";"";"-4.5617811";"105.1697613";"https://maps.google.com/?cid=0x0:0x7ebe8b750bc4ccbd";""
"komplek housing";"Komplek perumahan";"Rumah Bang Gogon (tranggono)";"95R3+XM, Candra Kencana, Kec. Tulang Bawang Tengah, Kab. Tulang Bawang Barat, Lampung 34693";"Candra Kencana, Kec. Tulang Bawang Tengah, Kab. Tulang Bawang Barat";"LAMPUNG";"34693";"Indonesia";"";"";"";"-4.6066882";"105.1545351";"https://maps.google.com/?cid=0x0:0x5d96dd43dc389815";""
"komplek housing";"Perancang busana";"𝘵𝘶𝘭𝘢𝘯𝘨 𝘣𝘢𝘸𝘢𝘯𝘨 𝘣𝘢𝘳𝘢𝘵";"C44Q+62P, Candra Kencana, Kec. Tulang Bawang Tengah, Kab. Tulang Bawang Barat, Lampung 34693";"Candra Kencana, Kec. Tulang Bawang Tengah, Kab. Tulang Bawang Barat";"LAMPUNG";"34693";"Indonesia";"";"";"";"-4.5944004";"105.1375908";"https://maps.google.com/?cid=0x0:0xc1134eba40884bfc";""
"komplek housing";"Pembangunan Perumahan";"Wonokerto";"95WQ+5W, Wonokerto, Kec. Tulang Bawang Tengah, Kab. Tulang Bawang Barat, Lampung 34693";"Wonokerto, Kec. Tulang Bawang Tengah, Kab. Tulang Bawang Barat";"LAMPUNG";"34693";"Indonesia";"";"";"";"-4.6051779";"105.1885789";"https://maps.google.com/?cid=0x0:0x76aa26b3b8951d6";""
"komplek housing";"Komplek perumahan";"Miswanto";"F49M+QV, Tirta Kencana, Kec. Tulang Bawang Tengah, Kab. Tulang Bawang Barat, Lampung 34693";"Tirta Kencana, Kec. Tulang Bawang Tengah, Kab. Tulang Bawang Barat";"LAMPUNG";"34693";"Indonesia";"";"";"";"-4.5303025";"105.1351127";"https://maps.google.com/?cid=0x0:0x35d7b33c62a75b1a";""
"komplek housing";"Komplek perumahan";"Outlet"VARO''";"C5H5+C67, RT.Rw.01/RW.Rt.05, Mulya Kencana, Kec. Tulang Bawang Tengah, Kab. Tulang Bawang Barat, Lampung 34693";"RT.Rw.01/RW.Rt.05, Mulya Kencana, Kec. Tulang Bawang Tengah, Kab. Tulang Bawang Barat";"LAMPUNG";"34693";"Indonesia";"";"";"";"-4.5714676";"105.1580595";"https://maps.google.com/?cid=0x0:0xfc33b3e3ee2ed97c";""
"komplek housing";"Pembangunan Perumahan";"mas tek";"C4HV+RV5, RT./Rw/RW.026/005, Mulya Jaya, Kec. Tulang Bawang Tengah, Kab. Tulang Bawang Barat, Lampung";"Kab. Tulang Bawang Barat, Lampung";"LAMPUNG";"";"Indonesia";" 083168429278";"";"";"-4.5703908";"105.143958";"https://maps.google.com/?cid=0x0:0x8311c006fe772a5f";""
"komplek housing";"Komplek perumahan";"Rumah razka wildan";"C4MR+766, Mulya Jaya, Kec. Tulang Bawang Tengah, Kab. Tulang Bawang Barat, Lampung 34693";"Mulya Jaya, Kec. Tulang Bawang Tengah, Kab. Tulang Bawang Barat";"LAMPUNG";"34693";"Indonesia";"";"";"";"-4.566848";"105.1405147";"https://maps.google.com/?cid=0x0:0x47a42f374583bf8c";""
"komplek housing";"Pembangunan Perumahan";"Mr bambang home";"94FX+23J, Mulya Asri, Kec. Tulang Bawang Tengah, Kab. Tulang Bawang Barat, Lampung 34693";"Mulya Asri, Kec. Tulang Bawang Tengah, Kab. Tulang Bawang Barat";"LAMPUNG";"34693";"Indonesia";"";"";"";"-4.6274091";"105.1476423";"https://maps.google.com/?cid=0x0:0x82cf248e7f6a07a5";""
"komplek housing";"Komplek perumahan";"Rumah Mas Radit";"94XP+48Q, Candra Kencana, Kec. Tulang Bawang Tengah, Kab. Tulang Bawang Barat, Lampung 34693";"Candra Kencana, Kec. Tulang Bawang Tengah, Kab. Tulang Bawang Barat";"LAMPUNG";"34693";"Indonesia";"";"";"";"-4.6021691";"105.1358688";"https://maps.google.com/?cid=0x0:0x8ed35f957af1126d";""
"komplek housing";"Komplek perumahan";"Wongsokolo ker";"94WQ+VQ6, Candra Kencana, Kec. Tulang Bawang Tengah, Kab. Tulang Bawang Barat, Lampung 34693";"Candra Kencana, Kec. Tulang Bawang Tengah, Kab. Tulang Bawang Barat";"LAMPUNG";"34693";"Indonesia";"";"";"";"-4.6028476";"105.1394034";"https://maps.google.com/?cid=0x0:0xc49ac0ad1cce08b7";""
"komplek housing";"Gudang";"Bank Sampah "SEHATI" MULYA KENCANA";"C5M7+F8W, Mulya Kencana, Kec. Tulang Bawang Tengah, Kab. Tulang Bawang Barat, Lampung";"Kab. Tulang Bawang Barat, Lampung";"LAMPUNG";"";"Indonesia";"";"";"";"-4.56626";"105.1633352";"https://maps.google.com/?cid=0x0:0x643534c58820ca3f";""
"komplek housing";"Komplek perumahan";"Rumah pak rt";"94WM+93M, Candra Kencana, Kec. Tulang Bawang Tengah, Kab. Tulang Bawang Barat, Lampung 34693";"Candra Kencana, Kec. Tulang Bawang Tengah, Kab. Tulang Bawang Barat";"LAMPUNG";"34693";"Indonesia";"";"";"";"-4.6034785";"105.1327913";"https://maps.google.com/?cid=0x0:0xac2f795f29ac4af2";""
"komplek housing";"Komplek perumahan";"rumah ahmad saputra";"F3JR+MXV, Panaragan Jaya, Kec. Tulang Bawang Tengah, Kab. Tulang Bawang Barat, Lampung 34693";"Panaragan Jaya, Kec. Tulang Bawang Tengah, Kab. Tulang Bawang Barat";"LAMPUNG";"34693";"Indonesia";"";"";"";"-4.5182622";"105.0924361";"https://maps.google.com/?cid=0x0:0x2c283edd6043bab9";""
"komplek housing";"Komplek perumahan";"Rumah Paman";"Tiyuh Mekar Asri, RT.15/RW.03, Mulya Asri, Kec. Tulang Bawang Tengah, Kab. Tulang Bawang Barat, Lampung 34693";"RT.15/RW.03, Mulya Asri, Kec. Tulang Bawang Tengah, Kab. Tulang Bawang Barat";"LAMPUNG";"34693";"Indonesia";"";"";"";"-4.6360256";"105.1803227";"https://maps.google.com/?cid=0x0:0x470f64dd4d1e8e72";""
"komplek housing";"Komplek perumahan";"Rumah Rif'an Alvi";"C43R+G7G, Candra Kencana, Kec. Tulang Bawang Tengah, Kab. Tulang Bawang Barat, Lampung 34693";"Candra Kencana, Kec. Tulang Bawang Tengah, Kab. Tulang Bawang Barat";"LAMPUNG";"34693";"Indonesia";"";"";"";"-4.5961893";"105.1407068";"https://maps.google.com/?cid=0x0:0x440f27757163855a";""
"komplek housing";"Komplek perumahan";"Rumah Pak Suhariyanto";"C462+RQ4, Pulung Kencana, Kec. Tulang Bawang Tengah, Kab. Tulang Bawang Barat, Lampung 34693";"Pulung Kencana, Kec. Tulang Bawang Tengah, Kab. Tulang Bawang Barat";"LAMPUNG";"34693";"Indonesia";"";"";"";"-4.5879937";"105.1019441";"https://maps.google.com/?cid=0x0:0xd9a5b0541466c140";""
"komplek housing";"Komplek perumahan";"rumah napak sugeng riyyanto";"F35R+GGR, Panaragan Jaya, Kec. Tulang Bawang Tengah, Kab. Tulang Bawang Barat, Lampung 34693";"Panaragan Jaya, Kec. Tulang Bawang Tengah, Kab. Tulang Bawang Barat";"LAMPUNG";"34693";"Indonesia";"";"";"";"-4.5411261";"105.091268";"https://maps.google.com/?cid=0x0:0x8caaf3a1084047d6";""
"komplek housing";"komplek housing";"Kec. Tulang Bawang Tengah";"Kab. Tulang Bawang Barat, Lampung";"Kab. Tulang Bawang Barat, Lampung";"LAMPUNG";"";"Indonesia";"";"";"";"-4.6291516";"105.1558349";"https://maps.google.com/?cid=0x0:0x96048249a2df7fab";""
"komplek housing";"Pembangunan Perumahan";"Komplek Perumahan Way Tulung-NI Permai";"C4M4+736, Jalan Raya Panaragan Jaya Panaragan, Pulung Kencana, Tulang Bawang Tengah, West Tulang Bawang Regency, Lampung 34693";"Jalan Raya Panaragan Jaya Panaragan, Pulung Kencana, Tulang Bawang Tengah, West Tulang Bawang Regency";"LAMPUNG";"34693";"Indonesia";"";"";"";"-4.5668408";"105.1051474";"https://maps.google.com/?cid=0x0:0x719b50ef70bcffb8";""
"komplek housing";"Komplek perumahan";"Panaragan jaya utama";"F3H8+CWM, Panaragan Jaya Utama, Kec. Tulang Bawang Tengah, Kab. Tulang Bawang Barat, Lampung 34693";"Panaragan Jaya Utama, Kec. Tulang Bawang Tengah, Kab. Tulang Bawang Barat";"LAMPUNG";"34693";"Indonesia";"";"";"";"-4.5214171";"105.0673088";"https://maps.google.com/?cid=0x0:0xc599f09dc00f53c6";""
"komplek housing";"Komplek perumahan";"Aliana Home";"C4C4+99C, Pulung Kencana, Kec. Tulang Bawang Tengah, Kab. Tulang Bawang Barat, Lampung 34693";"Pulung Kencana, Kec. Tulang Bawang Tengah, Kab. Tulang Bawang Barat";"LAMPUNG";"34693";"Indonesia";"";"";"";"-4.5787162";"105.1061673";"https://maps.google.com/?cid=0x0:0xef0d08084f737c49";""
"komplek housing";"komplek housing";"Lampung 34691";"Kab. Tulang Bawang Barat, Lampung";"Kab. Tulang Bawang Barat, Lampung";"LAMPUNG";"";"Indonesia";"";"";"";"-4.5471664";"105.0089888";"https://maps.google.com/?cid=0x0:0xbcc23fd765d075e0";""
"komplek housing";"Perhimpunan Pengembang Perumahan";"Tinggal";"92MQ+6GH, Karta Raharja, Kec. Tulang Bawang Udik, Kab. Tulang Bawang Barat, Lampung 34691";"Karta Raharja, Kec. Tulang Bawang Udik, Kab. Tulang Bawang Barat";"LAMPUNG";"34691";"Indonesia";"";"";"";"-4.6167035";"105.0395986";"https://maps.google.com/?cid=0x0:0xab317c755fa076d1";""
"komplek housing";"komplek housing";"Rumah D'Piliana🌹";"9256+PRQ, Karta, Kec. Tulang Bawang Udik, Kab. Tulang Bawang Barat, Lampung 34691";"Karta, Kec. Tulang Bawang Udik, Kab. Tulang Bawang Barat";"LAMPUNG";"34691";"Indonesia";"";"";"";"-4.6407589";"105.0120842";"https://maps.google.com/?cid=0x0:0x7eca2774ebcb4570";""
"komplek housing";"";"Lok lampuanh";"92FF+9PR, Way Sido, Kec. Tulang Bawang Udik, Kab. Tulang Bawang Barat, Lampung 34691";"Way Sido, Kec. Tulang Bawang Udik, Kab. Tulang Bawang Barat";"LAMPUNG";"34691";"Indonesia";"";"";"";"-4.626634";"105.0237189";"https://maps.google.com/?cid=0x0:0x2b0e2ed29709cc27";""
"komplek housing";"Minimarket";"Kartaraya";"C23M+F32, Karta Raharja, Kec. Tulang Bawang Udik, Kab. Tulang Bawang Barat, Lampung 34691";"Karta Raharja, Kec. Tulang Bawang Udik, Kab. Tulang Bawang Barat";"LAMPUNG";"34691";"Indonesia";"";"";"";"-4.596485";"105.033848";"https://maps.google.com/?cid=0x0:0x21c99d7ee3d50510";""
"komplek housing";"Komplek perumahan";"ARDI ANSYAH";"C27G+XC, Karta, Kec. Tulang Bawang Udik, Kab. Tulang Bawang Barat, Lampung 34691";"Karta, Kec. Tulang Bawang Udik, Kab. Tulang Bawang Barat";"LAMPUNG";"34691";"Indonesia";"";"";"";"-4.5843347";"105.0262021";"https://maps.google.com/?cid=0x0:0x82789fa747778fae";""
"komplek housing";"Komplek perumahan";"Syifa";"C35P+M7Q, Marga Kencana, Kec. Tulang Bawang Udik, Kab. Tulang Bawang Barat, Lampung 34691";"Marga Kencana, Kec. Tulang Bawang Udik, Kab. Tulang Bawang Barat";"LAMPUNG";"34691";"Indonesia";"";"";"";"-4.590355";"105.085717";"https://maps.google.com/?cid=0x0:0xad24723368fe7b9e";""
"komplek housing";"Pembangunan Perumahan";"Dhea";"93J3+M2F, Karta Raharja, Kec. Tulang Bawang Udik, Kab. Tulang Bawang Barat, Lampung";"Kab. Tulang Bawang Barat, Lampung";"LAMPUNG";"";"Indonesia";"";"";"";"-4.6183199";"105.0525335";"https://maps.google.com/?cid=0x0:0x2d42fc328bcc2bff";""
"komplek housing";"Perhimpunan Pengembang Perumahan";"Rumah Nopi Saputra";"92PV+M9, Karta Raharja, Kec. Tulang Bawang Udik, Kab. Tulang Bawang Barat, Lampung 34691";"Karta Raharja, Kec. Tulang Bawang Udik, Kab. Tulang Bawang Barat";"LAMPUNG";"34691";"Indonesia";"";"";"";"-4.6137255";"105.0437503";"https://maps.google.com/?cid=0x0:0xad3b4a8768a09aff";""
"komplek housing";"Pembangunan Perumahan";"A'ak Rosid";"92MQ+6GH, RT.rk 5/RW.RT 15, Karta Raharja, Kec. Tulang Bawang Udik, Kab. Tulang Bawang Barat, Lampung 34691";"RT.rk 5/RW.RT 15, Karta Raharja, Kec. Tulang Bawang Udik, Kab. Tulang Bawang Barat";"LAMPUNG";"34691";"Indonesia";"";"";"";"-4.6169375";"105.0388594";"https://maps.google.com/?cid=0x0:0xe7bb3e2826d15023";""
"komplek housing";"Komplek perumahan";"My Home";"C34Q+XJJ, Marga Kencana, Kec. Tulang Bawang Udik, Kab. Tulang Bawang Barat, Lampung 34691";"Marga Kencana, Kec. Tulang Bawang Udik, Kab. Tulang Bawang Barat";"LAMPUNG";"34691";"Indonesia";"";"";"";"-4.5925315";"105.0890278";"https://maps.google.com/?cid=0x0:0x4ffd72b95bacb5af";""
"komplek housing";"Kompleks Apartemen";"Nuwo Utia";"F2PC+2R3, Tiyuh, Gn. Katun Tanjungan, Kec. Tulang Bawang Udik, Kab. Tulang Bawang Barat, Lampung 34691";"Tiyuh, Gn. Katun Tanjungan, Kec. Tulang Bawang Udik, Kab. Tulang Bawang Barat";"LAMPUNG";"34691";"Indonesia";"";"";"";"-4.514978";"105.022039";"https://maps.google.com/?cid=0x0:0xf1908ab890d9cb2c";""
"komplek housing";"Pembangunan Perumahan";"Home Ismi Gunawan";"92HR+5XF, Karta Raharja, Kec. Tulang Bawang Udik, Kab. Tulang Bawang Barat, Lampung 34691";"Karta Raharja, Kec. Tulang Bawang Udik, Kab. Tulang Bawang Barat";"LAMPUNG";"34691";"Indonesia";"";"";"";"-4.6220736";"105.042408";"https://maps.google.com/?cid=0x0:0xa68dc67f9786b160";""
"komplek housing";"Komplek perumahan";"Debvi House";"C35P+M8G, Marga Kencana, Kec. Tulang Bawang Udik, Kab. Tulang Bawang Barat, Lampung 34691";"Marga Kencana, Kec. Tulang Bawang Udik, Kab. Tulang Bawang Barat";"LAMPUNG";"34691";"Indonesia";"";"";"";"-4.5908172";"105.085821";"https://maps.google.com/?cid=0x0:0xd00e372b9ce53de6";""
"komplek housing";"komplek housing";"Kartasari";"C269+M9C, Karta Sari, Kec. Tulang Bawang Udik, Kab. Tulang Bawang Barat, Lampung 34691";"Karta Sari, Kec. Tulang Bawang Udik, Kab. Tulang Bawang Barat";"LAMPUNG";"34691";"Indonesia";"";"";"";"-4.588313";"105.0183775";"https://maps.google.com/?cid=0x0:0x1a06c34fc49e17a";""
"komplek housing";"Pembangunan Perumahan";"Abi gael";"Jl. Ratu Pengadilan No.196, Karta Raharja, Kec. Tulang Bawang Udik, Kab. Tulang Bawang Barat, Lampung 34691";"Karta Raharja, Kec. Tulang Bawang Udik, Kab. Tulang Bawang Barat";"LAMPUNG";"34691";"Indonesia";"";"";"";"-4.6204724";"105.0569116";"https://maps.google.com/?cid=0x0:0xb32fa19b9cf7a4a2";""
"komplek housing";"Komplek perumahan";"RUMAH DIMAS";"93H5+P5M, Daya Murni, Kec. Tulang Bawang Udik, Kab. Tulang Bawang Barat, Lampung 34691";"Daya Murni, Kec. Tulang Bawang Udik, Kab. Tulang Bawang Barat";"LAMPUNG";"34691";"Indonesia";"";"";"";"-4.6212778";"105.057959";"https://maps.google.com/?cid=0x0:0xb6ff6af2d7e52cde";""
"komplek housing";"Komplek perumahan";"Rumahchachaaa";"C2Q9+4CV, Karta, Kec. Tulang Bawang Udik, Kab. Tulang Bawang Barat, Lampung 34691";"Karta, Kec. Tulang Bawang Udik, Kab. Tulang Bawang Barat";"LAMPUNG";"34691";"Indonesia";"";"";"";"-4.5621973";"105.0189083";"https://maps.google.com/?cid=0x0:0x99f39bf07d63b5d7";""
"komplek housing";"komplek housing";"rumah wika";"C269+M9C, Karta Sari, Kec. Tulang Bawang Udik, Kab. Tulang Bawang Barat, Lampung 34691";"Karta Sari, Kec. Tulang Bawang Udik, Kab. Tulang Bawang Barat";"LAMPUNG";"34691";"Indonesia";"";"";"";"-4.588313";"105.0183775";"https://maps.google.com/?cid=0x0:0x25bd4c7512bb058d";""
"komplek housing";"Komplek perumahan";"Rian House";"C35Q+C6H, Jl. K.H. Mustofa, Pulung Kencana, Kec. Tulang Bawang Udik, Kab. Tulang Bawang Barat, Lampung";"Kab. Tulang Bawang Barat, Lampung";"LAMPUNG";"";"Indonesia";"";"";"";"-4.5914393";"105.088101";"https://maps.google.com/?cid=0x0:0x85294dbc50245437";""
"komplek housing";"komplek housing";"Cicilia";"926W+CQX, Gn. Timbul, Kec. Tumi Jajar, Kab. Tulang Bawang Barat, Lampung 34691";"Gn. Timbul, Kec. Tumi Jajar, Kab. Tulang Bawang Barat";"LAMPUNG";"34691";"Indonesia";"";"";"";"-4.6388821";"105.0469743";"https://maps.google.com/?cid=0x0:0x3fe4e7c2b8a341fe";""
"komplek housing";"Komplek perumahan";"RUMAH PAK JUMADI";"C36P+GQ7, Marga Kencana, Kec. Tulang Bawang Udik, Kab. Tulang Bawang Barat, Lampung 34691";"Marga Kencana, Kec. Tulang Bawang Udik, Kab. Tulang Bawang Barat";"LAMPUNG";"34691";"Indonesia";"";"";"";"-4.5887192";"105.0869141";"https://maps.google.com/?cid=0x0:0x4b4e9fdd0b7a1352";""
"komplek housing";"Komplek perumahan";"Rumah Cessa";"93M3+CWC, Karta Raharja, Kec. Tulang Bawang Udik, Kab. Tulang Bawang Barat, Lampung";"Kab. Tulang Bawang Barat, Lampung";"LAMPUNG";"";"Indonesia";"";"";"";"-4.6158797";"105.0547541";"https://maps.google.com/?cid=0x0:0xfc8568981dabaa15";""
"komplek housing";"Gedung Apartemen";"Home saddam";"FXGR+XHG, Gn. Katun Tanjungan, Kec. Tulang Bawang Udik, Kab. Tulang Bawang Barat, Lampung 34691";"Gn. Katun Tanjungan, Kec. Tulang Bawang Udik, Kab. Tulang Bawang Barat";"LAMPUNG";"34691";"Indonesia";"";"";"";"-4.5225534";"104.9914601";"https://maps.google.com/?cid=0x0:0x1e8bbec4f7d8470a";""
"komplek housing";"Komplek perumahan";"Lailatul husna";"92JP+4F6, Karta Raharja, Kec. Tulang Bawang Udik, Kab. Tulang Bawang Barat, Lampung 34691";"Karta Raharja, Kec. Tulang Bawang Udik, Kab. Tulang Bawang Barat";"LAMPUNG";"34691";"Indonesia";"";"";"";"-4.6197676";"105.0357533";"https://maps.google.com/?cid=0x0:0x1b764cf5c113ede6";""
"komplek housing";"komplek housing";"Kec. Tulang Bawang Udik";"Kab. Tulang Bawang Barat, Lampung";"Kab. Tulang Bawang Barat, Lampung";"LAMPUNG";"";"Indonesia";"";"";"";"-4.59116";"105.0863595";"https://maps.google.com/?cid=0x0:0x9370d1558c6a0c34";""
"komplek housing";"Pembangunan Perumahan";"Home";"93CP+GGM, Daya Asri, Kec. Tumi Jajar, Kab. Tulang Bawang Barat, Lampung 34691";"Daya Asri, Kec. Tumi Jajar, Kab. Tulang Bawang Barat";"LAMPUNG";"34691";"Indonesia";"";"";"";"-4.6286549";"105.0862881";"https://maps.google.com/?cid=0x0:0x19da9b25bb9e3bcc";""
"komplek housing";"komplek housing";"Rumah Pak Usup";"925W+89R, Gn. Timbul, Kec. Tumi Jajar, Kab. Tulang Bawang Barat, Lampung 34691";"Gn. Timbul, Kec. Tumi Jajar, Kab. Tulang Bawang Barat";"LAMPUNG";"34691";"Indonesia";"";"";"";"-4.642346";"105.0451622";"https://maps.google.com/?cid=0x0:0x74d50724fb0b71a7";""
"komplek housing";"Komplek perumahan";"Rumah pak teguh edet";"938F+QPV, Jl. Ratu Pengadilan, Daya Murni, Kec. Tumi Jajar, Kab. Tulang Bawang Barat, Lampung 34691";"Jl. Ratu Pengadilan, Daya Murni, Kec. Tumi Jajar, Kab. Tulang Bawang Barat";"LAMPUNG";"34691";"Indonesia";"";"";"";"-4.6334628";"105.0739158";"https://maps.google.com/?cid=0x0:0xdafac3ec5da3ab3c";""
"komplek housing";"komplek housing";"Lampung 34594";"Lampung";"Lampung";"LAMPUNG";"";"Indonesia";"";"";"";"-4.7052775";"105.1025075";"https://maps.google.com/?cid=0x0:0x4c8ce07990fc8b97";""
"komplek housing";"Pembangunan Perumahan";"Maryadi home";"84XJ+93X, Margo Mulyo, Kec. Tumi Jajar, Kab. Tulang Bawang Barat, Lampung 34594";"Margo Mulyo, Kec. Tumi Jajar, Kab. Tulang Bawang Barat";"LAMPUNG";"34594";"Indonesia";"";"";"";"-4.6515295";"105.1302607";"https://maps.google.com/?cid=0x0:0x45853da7236078a4";""
"komplek housing";"Komplek perumahan";"Fadhil home";"Jl. Sumber rejo Rw 3 No.Rt 12, Sumber Rejo, Kec. Tumi Jajar, Kab. Tulang Bawang Barat, Lampung 34594";"Sumber Rejo, Kec. Tumi Jajar, Kab. Tulang Bawang Barat";"LAMPUNG";"34594";"Indonesia";"";"";"";"-4.6755606";"105.0912965";"https://maps.google.com/?cid=0x0:0xc41f877ea04d2582";""
"komplek housing";"Komplek perumahan";"Rumah";"84P6+XW8, Margo Dadi, Kec. Tumi Jajar, Kab. Tulang Bawang Barat, Lampung";"Kab. Tulang Bawang Barat, Lampung";"LAMPUNG";"";"Indonesia";"";"";"";"-4.662597";"105.1123277";"https://maps.google.com/?cid=0x0:0x54f179f08ff92dad";""
"komplek housing";"komplek housing";"Rumah Dedik Mustofa";"83FR+6W6, Sumber Rejo, Kec. Tumi Jajar, Kab. Tulang Bawang Barat, Lampung 34594";"Sumber Rejo, Kec. Tumi Jajar, Kab. Tulang Bawang Barat";"LAMPUNG";"34594";"Indonesia";"";"";"";"-4.6769567";"105.0922667";"https://maps.google.com/?cid=0x0:0x55bbba3d33d962cd";""
"komplek housing";"Komplek perumahan";"Mbah Sumari";"935P+JJW, Daya Asri, Kec. Tumi Jajar, Kab. Tulang Bawang Barat, Lampung 34691";"Daya Asri, Kec. Tumi Jajar, Kab. Tulang Bawang Barat";"LAMPUNG";"34691";"Indonesia";"";"";"";"-4.6408932";"105.0865935";"https://maps.google.com/?cid=0x0:0x38d9dbb661aa2a61";""
"komplek housing";"Komplek perumahan";"my home";"83H6+XP6, Makarti, Kec. Tumi Jajar, Kab. Tulang Bawang Barat, Lampung 34594";"Makarti, Kec. Tumi Jajar, Kab. Tulang Bawang Barat";"LAMPUNG";"34594";"Indonesia";"";"";"";"-4.6700412";"105.0613372";"https://maps.google.com/?cid=0x0:0x4bda853f55f9921d";""
"komplek housing";"Komplek perumahan";"Rahman Imanto house";"83FP+93Q, Sumber Rejo, Kec. Tumi Jajar, Kab. Tulang Bawang Barat, Lampung 34594";"Sumber Rejo, Kec. Tumi Jajar, Kab. Tulang Bawang Barat";"LAMPUNG";"34594";"Indonesia";"";"";"";"-4.676335";"105.085897";"https://maps.google.com/?cid=0x0:0x53ba94edc805d36";""
"komplek housing";"Komplek perumahan";"Rumah SPW";"84J8+4R2, Margo Dadi, Kec. Tumi Jajar, Kab. Tulang Bawang Barat, Lampung 34594";"Margo Dadi, Kec. Tumi Jajar, Kab. Tulang Bawang Barat";"LAMPUNG";"34594";"Indonesia";"";"";"";"-4.6697334";"105.1170078";"https://maps.google.com/?cid=0x0:0x3e4517f743e0f69a";""
"komplek housing";"Komplek perumahan";"Omah mbah tomo/ bu dasmi";"rk 04 rt 02, Daya Asri, Kec. Tumi Jajar, Kab. Tulang Bawang Barat, Lampung 34594";"Daya Asri, Kec. Tumi Jajar, Kab. Tulang Bawang Barat";"LAMPUNG";"34594";"Indonesia";"";"";"";"-4.628228";"105.0899171";"https://maps.google.com/?cid=0x0:0x48db9e8afa9ffd91";""
"komplek housing";"Komplek perumahan";"Den rayy";"837M+VJF, Sumber Rejo, Kec. Tumi Jajar, Kab. Tulang Bawang Barat, Lampung 34594";"Sumber Rejo, Kec. Tumi Jajar, Kab. Tulang Bawang Barat";"LAMPUNG";"34594";"Indonesia";"";"";"";"-4.685158";"105.084868";"https://maps.google.com/?cid=0x0:0xfdfbcb0e73fbc61a";""
"komplek housing";"Komplek perumahan";"My home";"83FR+GP8, Sumber Rejo, Kec. Tumi Jajar, Kab. Tulang Bawang Barat, Lampung 34594";"Sumber Rejo, Kec. Tumi Jajar, Kab. Tulang Bawang Barat";"LAMPUNG";"34594";"Indonesia";"";"";"";"-4.6762236";"105.0918426";"https://maps.google.com/?cid=0x0:0xefd870555f541e9c";""
"komplek housing";"Komplek perumahan";"Rumah Yusuf";"84J8+CJF, Jl. Raya Gn. Menanti, Margo Dadi, Kec. Tumi Jajar, Kab. Tulang Bawang Barat, Lampung 34594";"Jl. Raya Gn. Menanti, Margo Dadi, Kec. Tumi Jajar, Kab. Tulang Bawang Barat";"LAMPUNG";"34594";"Indonesia";"";"";"";"-4.6689345";"105.1165394";"https://maps.google.com/?cid=0x0:0xec01b810e934023c";""
"komplek housing";"Komplek perumahan";"Rumah Ahmad Fatoni";"83FG+VV5, Makarti, Kec. Tumi Jajar, Kab. Tulang Bawang Barat, Lampung";"Kab. Tulang Bawang Barat, Lampung";"LAMPUNG";"";"Indonesia";"";"";"";"-4.6753514";"105.0772471";"https://maps.google.com/?cid=0x0:0x6a46f97536eb3e";""
"komplek housing";"Pembangunan Perumahan";"Supangat";"93CR+VVF, Daya Asri, Kec. Tumi Jajar, Kab. Tulang Bawang Barat, Lampung 34594";"Daya Asri, Kec. Tumi Jajar, Kab. Tulang Bawang Barat";"LAMPUNG";"34594";"Indonesia";"";"";"";"-4.6278039";"105.0921641";"https://maps.google.com/?cid=0x0:0xb26f691ff981291e";""
"komplek housing";"Komplek perumahan";"Rumah Bp Supriyanto S. Rejo";"836J+XJJ, Sumber Rejo, Kec. Tumi Jajar, Kab. Tulang Bawang Barat, Lampung 34594";"Sumber Rejo, Kec. Tumi Jajar, Kab. Tulang Bawang Barat";"LAMPUNG";"34594";"Indonesia";"";"";"";"-4.6875541";"105.0814926";"https://maps.google.com/?cid=0x0:0xb53480cca9848b10";""
"komplek housing";"Komplek perumahan";"Rumah hida";"84J2+RHW, Sumber Rejo, Kec. Tumi Jajar, Kab. Tulang Bawang Barat, Lampung 34594";"Sumber Rejo, Kec. Tumi Jajar, Kab. Tulang Bawang Barat";"LAMPUNG";"34594";"Indonesia";"";"";"";"-4.667748";"105.101586";"https://maps.google.com/?cid=0x0:0x8dc0e315a4b61729";""
"komplek housing";"Komplek perumahan";"Rumah Yumna";"93FW+P64, Daya Asri, Kec. Tumi Jajar, Kab. Tulang Bawang Barat, Lampung 34594";"Daya Asri, Kec. Tumi Jajar, Kab. Tulang Bawang Barat";"LAMPUNG";"34594";"Indonesia";"";"";"";"-4.6257328";"105.095592";"https://maps.google.com/?cid=0x0:0xd0a7ed670c5e229c";""
"komplek housing";"Komplek perumahan";"Rumah dewa";"935P+2V8, Jl. Diponegoro, Margo Dadi, Kec. Tumi Jajar, Kab. Tulang Bawang Barat, Lampung 34691";"Jl. Diponegoro, Margo Dadi, Kec. Tumi Jajar, Kab. Tulang Bawang Barat";"LAMPUNG";"34691";"Indonesia";" 085268946249";"";"";"-4.6430096";"105.0869352";"https://maps.google.com/?cid=0x0:0x49d4186ce3f8d456";""
"komplek housing";"Komplek perumahan";"Rumah";"94H2+VX2, Murni Jaya, Kec. Tumi Jajar, Kab. Tulang Bawang Barat, Lampung 34594";"Murni Jaya, Kec. Tumi Jajar, Kab. Tulang Bawang Barat";"LAMPUNG";"34594";"Indonesia";"";"";"";"-4.6203658";"105.10238";"https://maps.google.com/?cid=0x0:0x9555fd136f32dd3b";""
"komplek housing";"Komplek perumahan";"Rumah hani";"839W+VM3, Sumber Rejo, Kec. Tumi Jajar, Kab. Tulang Bawang Barat, Lampung 34594";"Sumber Rejo, Kec. Tumi Jajar, Kab. Tulang Bawang Barat";"LAMPUNG";"34594";"Indonesia";"";"";"";"-4.6803583";"105.096661";"https://maps.google.com/?cid=0x0:0x11053728d47af688";""
"komplek housing";"komplek housing";"Kec. Tumi Jajar";"Kab. Tulang Bawang Barat, Lampung";"Kab. Tulang Bawang Barat, Lampung";"LAMPUNG";"";"Indonesia";"";"";"";"-4.6581791";"105.0583774";"https://maps.google.com/?cid=0x0:0xe85b3c5341d33485";""
"komplek housing";"Komplek perumahan";"rumah ku";"83GX+MCH, Sumber Rejo, Kec. Tumi Jajar, Kab. Tulang Bawang Barat, Lampung 34594";"Sumber Rejo, Kec. Tumi Jajar, Kab. Tulang Bawang Barat";"LAMPUNG";"34594";"Indonesia";"";"";"";"-4.6733478";"105.0985629";"https://maps.google.com/?cid=0x0:0x701fc5fb3b57c131";""
"komplek housing";"Komplek perumahan";"Rumah Suryadi";"842C+22V, Gn. Menanti, Kec. Tumi Jajar, Kab. Tulang Bawang Barat, Lampung 34594";"Gn. Menanti, Kec. Tumi Jajar, Kab. Tulang Bawang Barat";"LAMPUNG";"34594";"Indonesia";"";"";"";"-4.6998803";"105.1200482";"https://maps.google.com/?cid=0x0:0x443caebe2a303b5c";""
"komplek housing";"Komplek perumahan";"Rumah katiman";"84J2+6F3, Sumber Rejo, Kec. Tumi Jajar, Kab. Tulang Bawang Barat, Lampung 34594";"Sumber Rejo, Kec. Tumi Jajar, Kab. Tulang Bawang Barat";"LAMPUNG";"34594";"Indonesia";"";"";"";"-4.6694948";"105.1011736";"https://maps.google.com/?cid=0x0:0x253c53832f5a3160";""
"komplek housing";"Perumahan";"Rumah Muzza";"84J2+RHW, Sumber Rejo, Kec. Tumi Jajar, Kab. Tulang Bawang Barat, Lampung 34594";"Sumber Rejo, Kec. Tumi Jajar, Kab. Tulang Bawang Barat";"LAMPUNG";"34594";"Indonesia";"";"";"";"-4.6678919";"105.1014577";"https://maps.google.com/?cid=0x0:0x16bb8a04aa2a8773";""
"komplek housing";"Komplek perumahan";"Whyainimldh";"848F+C95, Margo Dadi, Kec. Tumi Jajar, Kab. Tulang Bawang Barat, Lampung 34594";"Margo Dadi, Kec. Tumi Jajar, Kab. Tulang Bawang Barat";"LAMPUNG";"34594";"Indonesia";"";"";"";"-4.6839877";"105.1234766";"https://maps.google.com/?cid=0x0:0x73c74e284d3e4cfa";""
"komplek housing";"Komplek perumahan";"Hafizah";"94G5+C4X, Murni Jaya, Kec. Tumi Jajar, Kab. Tulang Bawang Barat, Lampung 34594";"Murni Jaya, Kec. Tumi Jajar, Kab. Tulang Bawang Barat";"LAMPUNG";"34594";"Indonesia";"";"";"";"-4.6238968";"105.1079024";"https://maps.google.com/?cid=0x0:0x169fd90217ed723b";""
"komplek housing";"komplek housing";"Perumahan KENANGA RESIDENCE";"";"";"LAMPUNG";"";"Indonesia";" 081273151316";"";"";"-5.3585305";"105.2726941";"https://maps.google.com/?cid=0x0:0xaee3822b96577bed";""
"komplek housing";"komplek housing";"Kec. Way Kenanga";"Kab. Tulang Bawang Barat, Lampung";"Kab. Tulang Bawang Barat, Lampung";"LAMPUNG";"";"Indonesia";"";"";"";"-4.2613087";"105.1722111";"https://maps.google.com/?cid=0x0:0x7aec7a29ca491b25";""
"perumahan";"Komplek perumahan";"AISYAH UNYIL";"P36W+QRQ, Gn. Agung, Kec. Gn. Agung, Kab. Tulang Bawang Barat, Lampung 34684";"Gn. Agung, Kec. Gn. Agung, Kab. Tulang Bawang Barat";"LAMPUNG";"34684";"Indonesia";" 085719457055";"";"";"-4.2889506";"105.0973217";"https://maps.google.com/?cid=0x0:0xf0aa184bc45100e7";""
"perumahan";"perumahan";"Gn. Agung";"Kec. Gn. Terang, Kab. Tulang Bawang Barat, Lampung";"Kab. Tulang Bawang Barat, Lampung";"LAMPUNG";"";"Indonesia";"";"";"";"-4.2909142";"105.1083542";"https://maps.google.com/?cid=0x0:0xdf388747035ccf3c";""
"perumahan";"Komplek perumahan";"Maryana";"P33R+8P, Gn. Agung, Kec. Gn. Agung, Kab. Tulang Bawang Barat, Lampung";"Kab. Tulang Bawang Barat, Lampung";"LAMPUNG";"";"Indonesia";"";"";"";"-4.296638";"105.091803";"https://maps.google.com/?cid=0x0:0x35c1fcba95e9ce51";""
"perumahan";"Pusat Perbelanjaan";"Unyil tiyuh gunung agung";"P3JF+45W, Suka Jaya, Kec. Gn. Agung, Kab. Tulang Bawang Barat, Lampung";"Kab. Tulang Bawang Barat, Lampung";"LAMPUNG";"";"Indonesia";"";"";"";"-4.2696372";"105.0729542";"https://maps.google.com/?cid=0x0:0xaf09455bab5362a";""
"perumahan";"Komplek perumahan";"Rumah mas eddy";"P37W+JV, Gn. Agung, Kec. Gn. Agung, Kab. Tulang Bawang Barat, Lampung 34684";"Gn. Agung, Kec. Gn. Agung, Kab. Tulang Bawang Barat";"LAMPUNG";"34684";"Indonesia";"";"";"";"-4.2859807";"105.0971558";"https://maps.google.com/?cid=0x0:0xc1a058339671c53a";""
"perumahan";"Komplek perumahan";"Rumah Lila";"P33W+6Q6, Gn. Agung, Kec. Gn. Agung, Kab. Tulang Bawang Barat, Lampung 34684";"Gn. Agung, Kec. Gn. Agung, Kab. Tulang Bawang Barat";"LAMPUNG";"34684";"Indonesia";"";"";"";"-4.297199";"105.0968406";"https://maps.google.com/?cid=0x0:0x23c87f5cdd695582";""
"perumahan";"Pembangunan Perumahan";"Sigit Prasetio";"M4W3+35W, Gn. Agung, Kec. Gn. Agung, Kab. Tulang Bawang Barat, Lampung";"Kab. Tulang Bawang Barat, Lampung";"LAMPUNG";"";"Indonesia";"";"";"";"-4.30519";"105.10233";"https://maps.google.com/?cid=0x0:0x5143439aefa5935e";""
"perumahan";"Komplek perumahan";"Rumah Aryudha";"P3HC+XF, Suka Jaya, Kec. Gn. Agung, Kab. Tulang Bawang Barat, Lampung 34684";"Suka Jaya, Kec. Gn. Agung, Kab. Tulang Bawang Barat";"LAMPUNG";"34684";"Indonesia";"";"";"";"-4.2699422";"105.0711794";"https://maps.google.com/?cid=0x0:0xc04979d0128505d1";""
"perumahan";"Komplek perumahan";"Rumah maryanto";"P344+2Q7, Marga Jaya, Kec. Gn. Agung, Kab. Tulang Bawang Barat, Lampung 34683";"Marga Jaya, Kec. Gn. Agung, Kab. Tulang Bawang Barat";"LAMPUNG";"34683";"Indonesia";"";"";"";"-4.2939238";"105.0561526";"https://maps.google.com/?cid=0x0:0x57c5831fdbbdc0b5";""
"perumahan";"Komplek perumahan";"Sigma yn";"P36W+6W, Gn. Agung, Kec. Gn. Agung, Kab. Tulang Bawang Barat, Lampung";"Kab. Tulang Bawang Barat, Lampung";"LAMPUNG";"";"Indonesia";"";"";"";"-4.2893965";"105.0973225";"https://maps.google.com/?cid=0x0:0x9a3c3bbaa9cce75b";""
"perumahan";"perumahan";"Tegar tidak suka mokel";"sp 2b setia bumi blok tugu, Kab. Tulang Bawang Barat, Lampung";"Kab. Tulang Bawang Barat, Lampung";"LAMPUNG";"";"Indonesia";"";"";"";"-4.3212222";"105.0849687";"https://maps.google.com/?cid=0x0:0xb2f15cb0606d9d46";""
"perumahan";"Perhimpunan Pengembang Perumahan";"Kediamana bpk toyep";"P37X+J5P, Unnamed Road, Gn. Agung, Kec. Gn. Terang, Kab. Tulang Bawang Barat, Lampung 34684";"Unnamed Road, Gn. Agung, Kec. Gn. Terang, Kab. Tulang Bawang Barat";"LAMPUNG";"34684";"Indonesia";"";"";"";"-4.2859066";"105.0979494";"https://maps.google.com/?cid=0x0:0x4faf7c672a4db5c7";""
"perumahan";"Komplek perumahan";"Rumah Jiman";"P35W+MHF, Gn. Agung, Kec. Gn. Agung, Kab. Tulang Bawang Barat, Lampung 34684";"Gn. Agung, Kec. Gn. Agung, Kab. Tulang Bawang Barat";"LAMPUNG";"34684";"Indonesia";"";"";"";"-4.290286";"105.09741";"https://maps.google.com/?cid=0x0:0x2fef0b5e3193d4a";""
"perumahan";"Komplek perumahan";"Rumah mas Ari gengset";"P39W+3QF, Unnamed Road, Gn. Agung, Kec. Gn. Terang, Kab. Tulang Bawang Barat, Lampung 34684";"Unnamed Road, Gn. Agung, Kec. Gn. Terang, Kab. Tulang Bawang Barat";"LAMPUNG";"34684";"Indonesia";"";"";"";"-4.2823233";"105.0969298";"https://maps.google.com/?cid=0x0:0x6adeb3c613788208";""
"perumahan";"Perhimpunan Pengembang Perumahan";"Rumah najwaa";"pasar unyil, Gn. Agung, Kec. Gn. Terang, Kab. Tulang Bawang Barat, Lampung";"Kab. Tulang Bawang Barat, Lampung";"LAMPUNG";"";"Indonesia";"";"";"";"-4.2981097";"105.0912277";"https://maps.google.com/?cid=0x0:0x706b37bcff98a334";""
"perumahan";"Komplek perumahan";"Rumah Joko ayu";"P38X+3F8, Gn. Agung, Kec. Gn. Terang, Kab. Tulang Bawang Barat, Lampung 34684";"Gn. Agung, Kec. Gn. Terang, Kab. Tulang Bawang Barat";"LAMPUNG";"34684";"Indonesia";"";"";"";"-4.2848456";"105.0987073";"https://maps.google.com/?cid=0x0:0x5621595d8596cc6f";""
"perumahan";"Komplek perumahan";"Panjimenshot";"P36W+6W, Gn. Agung, Kec. Gn. Agung, Kab. Tulang Bawang Barat, Lampung";"Kab. Tulang Bawang Barat, Lampung";"LAMPUNG";"";"Indonesia";"";"";"";"-4.2893965";"105.0973225";"https://maps.google.com/?cid=0x0:0x1378d19d336acd11";""
"perumahan";"Komplek perumahan";"RUMAH NURUULL";"P33X+MJ6, Gn. Agung, Kec. Gn. Terang, Kab. Tulang Bawang Barat, Lampung 34684";"Gn. Agung, Kec. Gn. Terang, Kab. Tulang Bawang Barat";"LAMPUNG";"34684";"Indonesia";"";"";"";"-4.2958439";"105.0990552";"https://maps.google.com/?cid=0x0:0x2e3124fd56d9c916";""
"perumahan";"Perhimpunan Pengembang Perumahan";"LINDA SUSILOWATI";"P455+J8Q, Gn. Agung, Kec. Gn. Terang, Kab. Tulang Bawang Barat, Lampung 34684";"Gn. Agung, Kec. Gn. Terang, Kab. Tulang Bawang Barat";"LAMPUNG";"34684";"Indonesia";"";"";"";"-4.2909142";"105.1083542";"https://maps.google.com/?cid=0x0:0xbaecc1e94d6010a1";""
"perumahan";"Komplek perumahan";"Menggala B Unyil";"P33X+R58, Gn. Agung, Kec. Gn. Terang, Kab. Tulang Bawang Barat, Lampung 34684";"Gn. Agung, Kec. Gn. Terang, Kab. Tulang Bawang Barat";"LAMPUNG";"34684";"Indonesia";"";"";"";"-4.2954557";"105.0980182";"https://maps.google.com/?cid=0x0:0xce65739405bd55c1";""
"perumahan";"Kompleks Apartemen";"MustofaArt";"P38W+6H9, Gn. Agung, Kec. Gn. Terang, Kab. Tulang Bawang Barat, Lampung 34684";"Gn. Agung, Kec. Gn. Terang, Kab. Tulang Bawang Barat";"LAMPUNG";"34684";"Indonesia";"";"";"";"-4.284784";"105.0968269";"https://maps.google.com/?cid=0x0:0x98128fd0a3f4d25c";""
"perumahan";"Pembangunan Perumahan";"Perumahan Griya Gunung Agung";"66W6+3P7, Unnamed Road, Gn. Agung, Kec. Terusan Nunyai, Kabupaten Lampung Tengah, Lampung 34167";"Unnamed Road, Gn. Agung, Kec. Terusan Nunyai, Kabupaten Lampung Tengah";"LAMPUNG";"34167";"Indonesia";"";"";"";"-4.7548466";"105.2117854";"https://maps.google.com/?cid=0x0:0xae9271dfb52608f7";""
"perumahan";"Pembangunan Perumahan";"House Herbin Silalahi";"P33W+7W2, Gn. Agung, Kec. Gn. Agung, Kab. Tulang Bawang Barat, Lampung";"Kab. Tulang Bawang Barat, Lampung";"LAMPUNG";"";"Indonesia";"";"";"";"-4.29686";"105.0972751";"https://maps.google.com/?cid=0x0:0xdcb6e7d862977d5";""
"perumahan";"Komplek perumahan";"Rumah erul";"Gunung agung, Jungutan, Kec. Bebandem, Kabupaten Karangasem, Bali 80853";"Jungutan, Kec. Bebandem, Kabupaten Karangasem";"LAMPUNG";"80853";"Indonesia";"";"";"";"-8.3433106";"115.5070575";"https://maps.google.com/?cid=0x0:0xb859516c6739b557";""
"perumahan";"Komplek perumahan";"Mas To";"Gunung agung, Jungutan, Kec. Bebandem, Kabupaten Karangasem, Bali 80853";"Jungutan, Kec. Bebandem, Kabupaten Karangasem";"LAMPUNG";"80853";"Indonesia";"";"";"";"-8.3433106";"115.5070575";"https://maps.google.com/?cid=0x0:0xbf29b29ae3e4de8d";""
"perumahan";"Pembangunan Perumahan";"Heri";"MG44+MRF, Gunung agung, Kec. Bebandem, Kabupaten Karangasem, Bali 80853";"Gunung agung, Kec. Bebandem, Kabupaten Karangasem";"LAMPUNG";"80853";"Indonesia";"";"";"";"-8.3433106";"115.5070575";"https://maps.google.com/?cid=0x0:0xb2249dde2d9a6762";""
"perumahan";"Perumahan";"RUMAH PENDI";"J2MM+W2G, Toto Katon, Kec. Gn. Terang, Kab. Tulang Bawang Barat, Lampung 34683";"Toto Katon, Kec. Gn. Terang, Kab. Tulang Bawang Barat";"LAMPUNG";"34683";"Indonesia";" 085366683507";"";"";"-4.3651766";"105.0325779";"https://maps.google.com/?cid=0x0:0xf06b8455f9e1ab12";""
"perumahan";"Komplek perumahan";"RUMAH PANJULS";"M2G5+629, Marga Mulyo, Kec. Gn. Terang, Kab. Tulang Bawang Barat, Lampung 34683";"Marga Mulyo, Kec. Gn. Terang, Kab. Tulang Bawang Barat";"LAMPUNG";"34683";"Indonesia";"";"";"";"-4.3244568";"105.0076102";"https://maps.google.com/?cid=0x0:0x6fd62d77bd0a9355";""
"perumahan";"perumahan";"Lampung 34683";"Kab. Tulang Bawang Barat, Lampung";"Kab. Tulang Bawang Barat, Lampung";"LAMPUNG";"";"Indonesia";"";"";"";"-4.3865291";"105.0557415";"https://maps.google.com/?cid=0x0:0x94cc1f3bfc894b34";""
"perumahan";"Komplek perumahan";"Rumah Arofan";"J3M9+PPP, Panca Marga, Kec. Gn. Terang, Kab. Tulang Bawang Barat, Lampung 34683";"Panca Marga, Kec. Gn. Terang, Kab. Tulang Bawang Barat";"LAMPUNG";"34683";"Indonesia";"";"";"";"-4.366875";"105.069273";"https://maps.google.com/?cid=0x0:0x80cd3eac2c20a186";""
"perumahan";"Balai masyarakat";"Rumah Tiyuh Gunung Terang";"J36V+2WP, Gn. Terang, Kec. Gn. Terang, Kab. Tulang Bawang Barat, Lampung 34683";"Gn. Terang, Kec. Gn. Terang, Kab. Tulang Bawang Barat";"LAMPUNG";"34683";"Indonesia";"";"";"";"-4.3899217";"105.0948142";"https://maps.google.com/?cid=0x0:0xc3d9d170413b676a";""
"perumahan";"Komplek perumahan";"rumah lia.SR";"M3CR+62V, Setia Bumi, Kec. Gn. Terang, Kab. Tulang Bawang Barat, Lampung 34683";"Setia Bumi, Kec. Gn. Terang, Kab. Tulang Bawang Barat";"LAMPUNG";"34683";"Indonesia";"";"";"";"-4.3293675";"105.0903087";"https://maps.google.com/?cid=0x0:0xf2d7b86f2dd7ca2c";""
"perumahan";"Komplek perumahan";"Rumah raka";"J3Q8+VX4, Panca Marga, Kec. Gn. Terang, Kab. Tulang Bawang Barat, Lampung 34683";"Panca Marga, Kec. Gn. Terang, Kab. Tulang Bawang Barat";"LAMPUNG";"34683";"Indonesia";"";"";"";"-4.3603653";"105.067463";"https://maps.google.com/?cid=0x0:0x423b99db90175350";""
"perumahan";"Komplek perumahan";"Rumah pakde";"M3FJ+Q2W, Setia Bumi, Kec. Gn. Terang, Kab. Tulang Bawang Barat, Lampung 34683";"Setia Bumi, Kec. Gn. Terang, Kab. Tulang Bawang Barat";"LAMPUNG";"34683";"Indonesia";"";"";"";"-4.3259575";"105.0799893";"https://maps.google.com/?cid=0x0:0xe85c72a326f3ba80";""
"perumahan";"Pembangunan Perumahan";"Rumah Vemas Adi Saputra -haha-";"J2MM+W2G, Toto Katon, Kec. Gn. Terang, Kab. Tulang Bawang Barat, Lampung 34683";"Toto Katon, Kec. Gn. Terang, Kab. Tulang Bawang Barat";"LAMPUNG";"34683";"Indonesia";"";"";"";"-4.3650887";"105.0337302";"https://maps.google.com/?cid=0x0:0x57148e9d03939f1f";""
"perumahan";"Komplek perumahan";"Rumah pak Sutrisno misinem";"J2GJ+M5G, Toto Wonodadi, Kec. Gn. Terang, Kab. Tulang Bawang Barat, Lampung 34683";"Toto Wonodadi, Kec. Gn. Terang, Kab. Tulang Bawang Barat";"LAMPUNG";"34683";"Indonesia";"";"";"";"-4.3733196";"105.0304502";"https://maps.google.com/?cid=0x0:0x227ca3dc04ac0742";""
"perumahan";"Komplek perumahan";"Rumah MKNA";"J2PJ+3WC, Toto Katon, Kec. Gn. Terang, Kabupaten Lampung Utara, Lampung";"Kabupaten Lampung Utara, Lampung";"LAMPUNG";"";"Indonesia";"";"";"";"-4.3648123";"105.0322663";"https://maps.google.com/?cid=0x0:0x655f6ea84ed5c66d";""
"perumahan";"Komplek perumahan";"Dwikora Jaya";"J38W+3QJ, Gn. Terang, Kec. Gn. Terang, Kab. Tulang Bawang Barat, Lampung 34792";"Gn. Terang, Kec. Gn. Terang, Kab. Tulang Bawang Barat";"LAMPUNG";"34792";"Indonesia";"";"";"";"-4.384783";"105.096901";"https://maps.google.com/?cid=0x0:0x510ff2e1c58b586d";""
"perumahan";"perumahan";"Rumah bang Agus";"J3XR+92M, Gn. Terang, Kec. Gn. Terang, Kab. Tulang Bawang Barat, Lampung";"Kab. Tulang Bawang Barat, Lampung";"LAMPUNG";"";"Indonesia";"";"";"";"-4.3515326";"105.090059";"https://maps.google.com/?cid=0x0:0x4c4cb74d86db26b8";""
"perumahan";"Komplek perumahan";"naura pom";"J2WM+M98, Toto Katon, Kec. Gn. Terang, Kab. Tulang Bawang Barat, Lampung";"Kab. Tulang Bawang Barat, Lampung";"LAMPUNG";"";"Indonesia";" 081511207471";"";"";"-4.3533486";"105.0334392";"https://maps.google.com/?cid=0x0:0x637db573482258ad";""
"perumahan";"Komplek perumahan";"Rumah Nuryadi";"J22P+MF, Terang Batin, Kec. Gn. Terang, Kab. Tulang Bawang Barat, Lampung";"Kab. Tulang Bawang Barat, Lampung";"LAMPUNG";"";"Indonesia";"";"";"";"-4.3976455";"105.0364004";"https://maps.google.com/?cid=0x0:0x76dd1e0f1066d6c6";""
"perumahan";"Komplek perumahan";"Rumah Aden Samsi";"J3P7+R9W, Panca Marga, Kec. Gn. Terang, Kab. Tulang Bawang Barat, Lampung 34683";"Panca Marga, Kec. Gn. Terang, Kab. Tulang Bawang Barat";"LAMPUNG";"34683";"Indonesia";"";"";"";"-4.36308";"105.06318";"https://maps.google.com/?cid=0x0:0x8af094a0edbd6e7f";""
"perumahan";"Komplek perumahan";"Hary";"J3R7+FMR, Panca Marga, Kec. Gn. Terang, Kab. Tulang Bawang Barat, Lampung 34683";"Panca Marga, Kec. Gn. Terang, Kab. Tulang Bawang Barat";"LAMPUNG";"34683";"Indonesia";"";"";"";"-4.3584892";"105.0646541";"https://maps.google.com/?cid=0x0:0xa0db6c387b9762a7";""
"perumahan";"Komplek perumahan";"Rumah puput";"M3CM+Q2P, Setia Bumi, Kec. Gn. Terang, Kab. Tulang Bawang Barat, Lampung 34683";"Setia Bumi, Kec. Gn. Terang, Kab. Tulang Bawang Barat";"LAMPUNG";"34683";"Indonesia";"";"";"";"-4.3261701";"105.0827516";"https://maps.google.com/?cid=0x0:0xc6c36ba928036006";""
"perumahan";"Komplek perumahan";"Ahmad budiono";"J3R7+FMR, Panca Marga, Kec. Gn. Terang, Kab. Tulang Bawang Barat, Lampung 34683";"Panca Marga, Kec. Gn. Terang, Kab. Tulang Bawang Barat";"LAMPUNG";"34683";"Indonesia";"";"";"";"-4.3587037";"105.0641606";"https://maps.google.com/?cid=0x0:0xbabad7da0253bd98";""
"perumahan";"Gedung Apartemen";"Gunung terang";"F3FH+PJH, Panaragan Jaya Utama, Kec. Tulang Bawang Tengah, Kab. Tulang Bawang Barat, Lampung 34693";"Panaragan Jaya Utama, Kec. Tulang Bawang Tengah, Kab. Tulang Bawang Barat";"LAMPUNG";"34693";"Indonesia";"";"";"";"-4.5256967";"105.0791228";"https://maps.google.com/?cid=0x0:0x1e83cb3a5ff5fbab";""
"perumahan";"perumahan";"Tegar tidak suka mokel";"sp 2b setia bumi blok tugu, Kab. Tulang Bawang Barat, Lampung";"Kab. Tulang Bawang Barat, Lampung";"LAMPUNG";"";"Indonesia";"";"";"";"-4.3212222";"105.0849687";"https://maps.google.com/?cid=0x0:0xb2f15cb0606d9d46";""
"perumahan";"Komplek perumahan";"Riyanto";"M3F7+M6J, Toto Mulyo, Kec. Gn. Terang, Kab. Tulang Bawang Barat, Lampung 34683";"Toto Mulyo, Kec. Gn. Terang, Kab. Tulang Bawang Barat";"LAMPUNG";"34683";"Indonesia";"";"";"";"-4.3257993";"105.0630102";"https://maps.google.com/?cid=0x0:0x65bae5a96f70a5";""
"perumahan";"Komplek perumahan";"Rumah Bg Edi";"J3WQ+RWC, Gn. Terang, Kec. Gn. Terang, Kab. Tulang Bawang Barat, Lampung 34683";"Gn. Terang, Kec. Gn. Terang, Kab. Tulang Bawang Barat";"LAMPUNG";"34683";"Indonesia";"";"";"";"-4.353493";"105.0902454";"https://maps.google.com/?cid=0x0:0x667567ef7efd7058";""
"perumahan";"Komplek perumahan";"Rumah pak Mulyono sunda";"M3PV+FW3, Setia Bumi, Kec. Gn. Terang, Kab. Tulang Bawang Barat, Lampung 34684";"Setia Bumi, Kec. Gn. Terang, Kab. Tulang Bawang Barat";"LAMPUNG";"34684";"Indonesia";"";"";"";"-4.3135483";"105.094845";"https://maps.google.com/?cid=0x0:0xdfcdf1e2d3c87af8";""
"perumahan";"Komplek perumahan";"Rumah Mertua";"J3M4+R59, Panca Marga, Kec. Gn. Terang, Kab. Tulang Bawang Barat, Lampung 34683";"Panca Marga, Kec. Gn. Terang, Kab. Tulang Bawang Barat";"LAMPUNG";"34683";"Indonesia";"";"";"";"-4.3654538";"105.0554722";"https://maps.google.com/?cid=0x0:0xb3d9ae1240790a04";""
"perumahan";"perumahan";"donlarratt";"J4W6+7W9, Desa, Sumber Rejo, Kec. Lambu Kibang, Kab. Tulang Bawang Barat, Lampung 34683";"Desa, Sumber Rejo, Kec. Lambu Kibang, Kab. Tulang Bawang Barat";"LAMPUNG";"34683";"Indonesia";"";"";"";"-4.3537136";"105.1124296";"https://maps.google.com/?cid=0x0:0x9780e088bb85065b";""
"perumahan";"Pembangunan Perumahan";"Rangga home";"M2HX+6XC, Toto Mulyo, Kec. Gn. Terang, Kab. Tulang Bawang Barat, Lampung";"Kab. Tulang Bawang Barat, Lampung";"LAMPUNG";"";"Indonesia";"";"";"";"-4.3219316";"105.0498966";"https://maps.google.com/?cid=0x0:0x76237950073078da";""
"perumahan";"Perhimpunan Pengembang Perumahan";"Rumah parto";"J3M8+269, Panca Marga, Kec. Gn. Terang, Kab. Tulang Bawang Barat, Lampung 34683";"Panca Marga, Kec. Gn. Terang, Kab. Tulang Bawang Barat";"LAMPUNG";"34683";"Indonesia";"";"";"";"-4.3674714";"105.0656096";"https://maps.google.com/?cid=0x0:0x1ee69d5dab1e47e9";""
"perumahan";"perumahan";"Kec. Lambu Kibang";"Kab. Tulang Bawang Barat, Lampung";"Kab. Tulang Bawang Barat, Lampung";"LAMPUNG";"";"Indonesia";"";"";"";"-4.3328453";"105.1576626";"https://maps.google.com/?cid=0x0:0x3a685ba0f9a1acce";""
"perumahan";"perumahan";"Rumah Alzam";"M587+6X3, Kibang Budi Jaya, Kec. Lambu Kibang, Kab. Tulang Bawang Barat, Lampung 34683";"Kibang Budi Jaya, Kec. Lambu Kibang, Kab. Tulang Bawang Barat";"LAMPUNG";"34683";"Indonesia";"";"";"";"-4.3342141";"105.1648732";"https://maps.google.com/?cid=0x0:0x681949f51a34a73e";""
"perumahan";"Komplek perumahan";"Lambu kibang";"M568+6P8, Kibang Budi Jaya, Kec. Lambu Kibang, Kab. Tulang Bawang Barat, Lampung 34792";"Kibang Budi Jaya, Kec. Lambu Kibang, Kab. Tulang Bawang Barat";"LAMPUNG";"34792";"Indonesia";"";"";"";"-4.3394534";"105.1668326";"https://maps.google.com/?cid=0x0:0xd17480f9624b6d6";""
"perumahan";"Komplek perumahan";"Rumah yudi pak tumar";"M587+JF4, Kibang Budi Jaya, Kec. Lambu Kibang, Kab. Tulang Bawang Barat, Lampung 34683";"Kibang Budi Jaya, Kec. Lambu Kibang, Kab. Tulang Bawang Barat";"LAMPUNG";"34683";"Indonesia";" 085726838279";"";"";"-4.3334924";"105.1636991";"https://maps.google.com/?cid=0x0:0xc766e23f7ceafcfd";""
"perumahan";"Komplek perumahan";"Rumah Pak Paijo";"J4MV+96J, Pagar Jaya, Kec. Lambu Kibang, Kab. Tulang Bawang Barat, Lampung 34388";"Pagar Jaya, Kec. Lambu Kibang, Kab. Tulang Bawang Barat";"LAMPUNG";"34388";"Indonesia";"";"";"";"-4.3661936";"105.1426635";"https://maps.google.com/?cid=0x0:0xa2e341b45a655a78";""
"perumahan";"Perumahan";"rumah ku";"J5Q2+QGV, Gn. Sari, Kec. Lambu Kibang, Kab. Tulang Bawang Barat, Lampung 34388";"Gn. Sari, Kec. Lambu Kibang, Kab. Tulang Bawang Barat";"LAMPUNG";"34388";"Indonesia";"";"";"";"-4.3606249";"105.1513298";"https://maps.google.com/?cid=0x0:0x731331ee72f5491d";""
"perumahan";"Komplek perumahan";"Kandang embek";"M567+XHG, Kibang Budi Jaya, Kec. Lambu Kibang, Kab. Tulang Bawang Barat, Lampung 34388";"Kibang Budi Jaya, Kec. Lambu Kibang, Kab. Tulang Bawang Barat";"LAMPUNG";"34388";"Indonesia";" 082371657186";"";"";"-4.337573";"105.1639573";"https://maps.google.com/?cid=0x0:0xd0daee72ddc3a105";""
"perumahan";"Komplek perumahan";"Rumah kadek";"M5HX+CV5, Kibang Tri Jaya, Kec. Lambu Kibang, Kab. Tulang Bawang Barat, Lampung";"Kab. Tulang Bawang Barat, Lampung";"LAMPUNG";"";"Indonesia";"";"";"";"-4.3214818";"105.1997472";"https://maps.google.com/?cid=0x0:0xccc746cff5d29612";""
"perumahan";"Komplek perumahan";"Rumah wafiq";"M586+QVP, Kibang Budi Jaya, Kec. Lambu Kibang, Kab. Tulang Bawang Barat, Lampung 34683";"Kibang Budi Jaya, Kec. Lambu Kibang, Kab. Tulang Bawang Barat";"LAMPUNG";"34683";"Indonesia";"";"";"";"-4.3331259";"105.1625316";"https://maps.google.com/?cid=0x0:0x83bdda59610a3b29";""
"perumahan";"Komplek perumahan";"Rumah Tn. M.Idrus";"M586+H62, Tiyuh, RT./rw:/RW.001/001, Kibang Budi Jaya, Kec. Lambu Kibang, Lampung";"Kab. Tulang Bawang Barat, Lampung";"LAMPUNG";"";"Indonesia";"";"";"";"-4.3336044";"105.1605266";"https://maps.google.com/?cid=0x0:0x8c3b8032923a2631";""
"perumahan";"Komplek perumahan";"Rumah Menel";"J4JX+M5H, Pagar Jaya, Kec. Lambu Kibang, Kab. Tulang Bawang Barat, Lampung 34388";"Pagar Jaya, Kec. Lambu Kibang, Kab. Tulang Bawang Barat";"LAMPUNG";"34388";"Indonesia";"";"";"";"-4.3693063";"105.1475172";"https://maps.google.com/?cid=0x0:0x1cf882872396b80e";""
"perumahan";"Pembangunan Perumahan";"Rumah";"M576+V4Q, Kibang Budi Jaya, Kec. Lambu Kibang, Kab. Tulang Bawang Barat, Lampung 34683";"Kibang Budi Jaya, Kec. Lambu Kibang, Kab. Tulang Bawang Barat";"LAMPUNG";"34683";"Indonesia";"";"";"";"-4.3349924";"105.1603681";"https://maps.google.com/?cid=0x0:0xd4902df398f1429e";""
"perumahan";"Komplek perumahan";"Rumah Rachel";"M597+32P, Kibang Budi Jaya, Kec. Lambu Kibang, Kab. Tulang Bawang Barat, Lampung";"Kab. Tulang Bawang Barat, Lampung";"LAMPUNG";"";"Indonesia";"";"";"";"-4.3326402";"105.1624139";"https://maps.google.com/?cid=0x0:0x7d29c5da780ce448";""
"perumahan";"Komplek perumahan";"Gavin";"M5M6+J3M, Kibang Tri Jaya, Kec. Lambu Kibang, Kab. Tulang Bawang Barat, Lampung";"Kab. Tulang Bawang Barat, Lampung";"LAMPUNG";"";"Indonesia";"";"";"";"-4.31656";"105.1600995";"https://maps.google.com/?cid=0x0:0xb9a18d4e92be307b";""
"perumahan";"perumahan";"Tamini House";"RK 8 No.RT 26, Kibang Budi Jaya, Kec. Lambu Kibang, Kab. Tulang Bawang Barat, Lampung 34486";"Kibang Budi Jaya, Kec. Lambu Kibang, Kab. Tulang Bawang Barat";"LAMPUNG";"34486";"Indonesia";"";"";"";"-4.3328453";"105.1576626";"https://maps.google.com/?cid=0x0:0x11b6cc1642753df7";""
"perumahan";"Pembangunan Perumahan";"Di belakang masjid";"M4HC+Q2V, Kibang Yekti Jaya, Kec. Lambu Kibang, Kab. Tulang Bawang Barat, Lampung";"Kab. Tulang Bawang Barat, Lampung";"LAMPUNG";"";"Indonesia";"";"";"";"-4.3205109";"105.1200482";"https://maps.google.com/?cid=0x0:0xc1d9de1a23756181";""
"perumahan";"perumahan";"rumah jah";"J6V2+JQH, Jaya Makmur, Kec. Pagar Dewa, Kab. Tulang Bawang, Lampung";"Kab. Tulang Bawang, Lampung";"LAMPUNG";"";"Indonesia";"";"";"";"-4.3559377";"105.202017";"https://maps.google.com/?cid=0x0:0xa04f74b9af3b960e";""
"perumahan";"Komplek perumahan";"Rumah Gambar Gajah";"J4MW+5FV, Pagar Jaya, Kec. Lambu Kibang, Kab. Tulang Bawang Barat, Lampung";"Kab. Tulang Bawang Barat, Lampung";"LAMPUNG";"";"Indonesia";"";"";"";"-4.3670049";"105.1461802";"https://maps.google.com/?cid=0x0:0xa64ddde53d87cf0";""
"perumahan";"Perhimpunan Pengembang Perumahan";"Unit 7";"M4FH+JX9, Kibang Yekti Jaya, Kec. Lambu Kibang, Kab. Tulang Bawang Barat, Lampung 34683";"Kibang Yekti Jaya, Kec. Lambu Kibang, Kab. Tulang Bawang Barat";"LAMPUNG";"34683";"Indonesia";"";"";"";"-4.3259555";"105.1299907";"https://maps.google.com/?cid=0x0:0xc872c3702f961405";""
"perumahan";"perumahan";"Wifi Mellaputri";"J4Q5+Q8H, Sumber Rejo, Kec. Lambu Kibang, Kab. Tulang Bawang Barat, Lampung";"Kab. Tulang Bawang Barat, Lampung";"LAMPUNG";"";"Indonesia";"";"";"";"-4.3605539";"105.1083542";"https://maps.google.com/?cid=0x0:0x6518e5346b8c0d60";""
"perumahan";"Komplek perumahan";"Rumah Wulandari sinjaya (cemplok)";"M585+GXR, Jl. Raya SP Randu Unit 6, Kibang Budi Jaya, Kec. Lambu Kibang, Kab. Tulang Bawang Barat, Lampung 34388";"Jl. Raya SP Randu Unit 6, Kibang Budi Jaya, Kec. Lambu Kibang, Kab. Tulang Bawang Barat";"LAMPUNG";"34388";"Indonesia";"";"";"";"-4.3336817";"105.1598219";"https://maps.google.com/?cid=0x0:0xbf7267d15cc99798";""
"perumahan";"Komplek perumahan";"rumahh simbokk";"M4FQ+78R, Kibang Yekti Jaya, Kec. Lambu Kibang, Kab. Tulang Bawang Barat, Lampung 34683";"Kibang Yekti Jaya, Kec. Lambu Kibang, Kab. Tulang Bawang Barat";"LAMPUNG";"34683";"Indonesia";"";"";"";"-4.3268434";"105.1379703";"https://maps.google.com/?cid=0x0:0x320db9fa2697d640";""
"perumahan";"Perhimpunan Pengembang Perumahan";"Si Dodd";"M5V6+G6V, Kibang Tri Jaya, Kec. Lambu Kibang, Kab. Tulang Bawang Barat, Lampung 34684";"Kibang Tri Jaya, Kec. Lambu Kibang, Kab. Tulang Bawang Barat";"LAMPUNG";"34684";"Indonesia";"";"";"";"-4.306029";"105.160182";"https://maps.google.com/?cid=0x0:0x8c9ac4cdf44d9910";""
"perumahan";"perumahan";"Basungan pagar dewa";"29WX+PC, Basungan, Kec. Pagar Dewa, Kabupaten Lampung Barat, Lampung 34766";"Basungan, Kec. Pagar Dewa, Kabupaten Lampung Barat";"LAMPUNG";"34766";"Indonesia";"";"";"";"-4.953157";"104.39858";"https://maps.google.com/?cid=0x0:0xcc458faff6c9726e";""
"perumahan";"Inspektur Tempat Tinggal";"PANWASLU KECAMATAN PAGAR DEWA";"28PV+QXJ, Pahayu Jaya, Kec. Pagar Dewa, Kabupaten Lampung Barat, Lampung 34885";"Pahayu Jaya, Kec. Pagar Dewa, Kabupaten Lampung Barat";"LAMPUNG";"34885";"Indonesia";"";"";"";"-4.9627996";"104.3446429";"https://maps.google.com/?cid=0x0:0x279416df29a77d29";""
"perumahan";"perumahan";"Lampung 34693";"Lampung";"Lampung";"LAMPUNG";"";"Indonesia";"";"";"";"-4.5841503";"105.1492869";"https://maps.google.com/?cid=0x0:0xeb05e39e383eec1c";""
"perumahan";"Komplek perumahan";"Batuan";"385J+2Q8, Pahayu Jaya, Kec. Pagar Dewa, Kabupaten Lampung Barat, Lampung 34885";"Pahayu Jaya, Kec. Pagar Dewa, Kabupaten Lampung Barat";"LAMPUNG";"34885";"Indonesia";"";"";"";"-4.9424568";"104.3319383";"https://maps.google.com/?cid=0x0:0xd186af6e4730e69b";""
"perumahan";"Perhimpunan Pengembang Perumahan";"RUMAH BANG RIAN";"396V+JX6, Basungan, Kec. Pagar Dewa, Kabupaten Lampung Barat, Lampung 34766";"Basungan, Kec. Pagar Dewa, Kabupaten Lampung Barat";"LAMPUNG";"34766";"Indonesia";"";"";"";"-4.9382714";"104.3947912";"https://maps.google.com/?cid=0x0:0xf91420ae8aa4ca97";""
"perumahan";"Komplek perumahan";"Talang baru";"28GV+HP6, Pahayu Jaya, Kec. Pagar Dewa, Kabupaten Lampung Barat, Lampung";"Kabupaten Lampung Barat, Lampung";"LAMPUNG";"";"Indonesia";"";"";"";"-4.9735815";"104.3442794";"https://maps.google.com/?cid=0x0:0xabc53b98c195fecd";""
"perumahan";"Perhimpunan Pengembang Perumahan";"Rumah";"29WX+PC, Basungan, Kec. Pagar Dewa, Kabupaten Lampung Barat, Lampung 34766";"Basungan, Kec. Pagar Dewa, Kabupaten Lampung Barat";"LAMPUNG";"34766";"Indonesia";"";"";"";"-4.953157";"104.39858";"https://maps.google.com/?cid=0x0:0x9b9bedc308ea5262";""
"perumahan";"Perumahan";"Cangkah kanan .";"29R3+M4, Pahayu Jaya, Kec. Pagar Dewa, Kabupaten Lampung Barat, Lampung";"Kabupaten Lampung Barat, Lampung";"LAMPUNG";"";"Indonesia";"";"";"";"-4.9582679";"104.3527737";"https://maps.google.com/?cid=0x0:0x48ae4908c8c3b235";""
"perumahan";"Komplek perumahan";"Tungkus tiga";"29XW+M93, Basungan, Kec. Pagar Dewa, Kabupaten Lampung Barat, Lampung";"Kabupaten Lampung Barat, Lampung";"LAMPUNG";"";"Indonesia";"";"";"";"-4.950858";"104.3959188";"https://maps.google.com/?cid=0x0:0x8e3b4dea0937ddb0";""
"perumahan";"Komplek perumahan";"Rumah Mustofa";"296H+6J8, Pahayu Jaya, Kec. Pagar Dewa, Kabupaten Lampung Barat, Lampung";"Kabupaten Lampung Barat, Lampung";"LAMPUNG";"";"Indonesia";"";"";"";"-4.9894645";"104.3790915";"https://maps.google.com/?cid=0x0:0x3b442237cc9e93e";""
"perumahan";"Sekolah Menengah Pertama";"Talang candi";"3C97+8JQ, Basungan, Kec. Pagar Dewa, Kabupaten Lampung Barat, Lampung";"Kabupaten Lampung Barat, Lampung";"LAMPUNG";"";"Indonesia";"";"";"";"-4.9316508";"104.4141114";"https://maps.google.com/?cid=0x0:0xf3d19fb060ab59d5";""
"perumahan";"Komplek perumahan";"Talang sidorame";"386P+RJ, Pahayu Jaya, Kec. Pagar Dewa, Kabupaten Lampung Barat, Lampung";"Kabupaten Lampung Barat, Lampung";"LAMPUNG";"";"Indonesia";"";"";"";"-4.9378956";"104.3366398";"https://maps.google.com/?cid=0x0:0xd39bee83657220be";""
"perumahan";"Komplek perumahan";"Simpang gadis,pagar dewa";"274X+33H, Pampangan, Kec. Sekincau, Kabupaten Lampung Barat, Lampung";"Kabupaten Lampung Barat, Lampung";"LAMPUNG";"";"Indonesia";"";"";"";"-4.9948217";"104.2977433";"https://maps.google.com/?cid=0x0:0x37703db385851b21";""
"perumahan";"perumahan";"Kebon jumali 2";"4944+P99, Hutan, Kec. Pagar Dewa, Kabupaten Lampung Barat, Lampung";"Kabupaten Lampung Barat, Lampung";"LAMPUNG";"";"Indonesia";"";"";"";"-4.8932224";"104.3559833";"https://maps.google.com/?cid=0x0:0xe8aed980b8301739";""
"perumahan";"Komplek perumahan";"Perumahan Dinas PU Tubaba";"Jl. Raya Panaragan Jaya - Pulung Kencana No.16, Pulung Kencana, Kec. Tulang Bawang Tengah, Kab. Tulang Bawang Barat, Lampung 34693";"Pulung Kencana, Kec. Tulang Bawang Tengah, Kab. Tulang Bawang Barat";"LAMPUNG";"34693";"Indonesia";"";"";"";"-4.583483";"105.1063786";"https://maps.google.com/?cid=0x0:0xd01bcd0e02a2a0f9";""
"perumahan";"Komplek perumahan";"Rumah Bang Gogon (tranggono)";"95R3+XM, Candra Kencana, Kec. Tulang Bawang Tengah, Kab. Tulang Bawang Barat, Lampung 34693";"Candra Kencana, Kec. Tulang Bawang Tengah, Kab. Tulang Bawang Barat";"LAMPUNG";"34693";"Indonesia";"";"";"";"-4.6066882";"105.1545351";"https://maps.google.com/?cid=0x0:0x5d96dd43dc389815";""
"perumahan";"Pembangunan Perumahan";"Komplek Perumahan Way Tulung-NI Permai";"C4M4+736, Jalan Raya Panaragan Jaya Panaragan, Pulung Kencana, Tulang Bawang Tengah, West Tulang Bawang Regency, Lampung 34693";"Jalan Raya Panaragan Jaya Panaragan, Pulung Kencana, Tulang Bawang Tengah, West Tulang Bawang Regency";"LAMPUNG";"34693";"Indonesia";"";"";"";"-4.5668408";"105.1051474";"https://maps.google.com/?cid=0x0:0x719b50ef70bcffb8";""
"perumahan";"Komplek perumahan";"Outlet"VARO''";"C5H5+C67, RT.Rw.01/RW.Rt.05, Mulya Kencana, Kec. Tulang Bawang Tengah, Kab. Tulang Bawang Barat, Lampung 34693";"RT.Rw.01/RW.Rt.05, Mulya Kencana, Kec. Tulang Bawang Tengah, Kab. Tulang Bawang Barat";"LAMPUNG";"34693";"Indonesia";"";"";"";"-4.5714676";"105.1580595";"https://maps.google.com/?cid=0x0:0xfc33b3e3ee2ed97c";""
"perumahan";"Komplek perumahan";"Rumah";"C5Q9+7WJ, Mulya Kencana, Kec. Tulang Bawang Tengah, Kab. Tulang Bawang Barat, Lampung 34693";"Mulya Kencana, Kec. Tulang Bawang Tengah, Kab. Tulang Bawang Barat";"LAMPUNG";"34693";"Indonesia";"";"";"";"-4.5617811";"105.1697613";"https://maps.google.com/?cid=0x0:0x7ebe8b750bc4ccbd";""
"perumahan";"Komplek perumahan";"Mulya kencana";"C5P4+4PV, Mulya Kencana, Kec. Tulang Bawang Tengah, Kab. Tulang Bawang Barat, Lampung 34693";"Mulya Kencana, Kec. Tulang Bawang Tengah, Kab. Tulang Bawang Barat";"LAMPUNG";"34693";"Indonesia";"";"";"";"-4.5646444";"105.1567873";"https://maps.google.com/?cid=0x0:0xbbd40315b88eba2a";""
"perumahan";"Komplek perumahan";"Rumah Bagas";"C5M6+R8W, Mulya Kencana, Kec. Tulang Bawang Tengah, Kab. Tulang Bawang Barat, Lampung 34693";"Mulya Kencana, Kec. Tulang Bawang Tengah, Kab. Tulang Bawang Barat";"LAMPUNG";"34693";"Indonesia";"";"";"";"-4.5653928";"105.1608169";"https://maps.google.com/?cid=0x0:0x510fe92eac1f623e";""
"perumahan";"Komplek perumahan";"AGUNG PRATAMA PUTRA";"95J4+58H, Mulya Asri, Kec. Tulang Bawang Tengah, Kab. Tulang Bawang Barat, Lampung 34693";"Mulya Asri, Kec. Tulang Bawang Tengah, Kab. Tulang Bawang Barat";"LAMPUNG";"34693";"Indonesia";"";"";"";"-4.6195501";"105.1558532";"https://maps.google.com/?cid=0x0:0xf802c62833d4e5ab";""
"perumahan";"Komplek perumahan";"ARTA KENCANA";"94QJ+R88, Unnamed Road, Candra Kencana, Kec. Tulang Bawang Tengah, Kab. Tulang Bawang Barat, Lampung 34693";"Unnamed Road, Candra Kencana, Kec. Tulang Bawang Tengah, Kab. Tulang Bawang Barat";"LAMPUNG";"34693";"Indonesia";"";"";"";"-4.6104653";"105.1308138";"https://maps.google.com/?cid=0x0:0xaf40e018aabeb87c";""
"perumahan";"Perancang busana";"𝘵𝘶𝘭𝘢𝘯𝘨 𝘣𝘢𝘸𝘢𝘯𝘨 𝘣𝘢𝘳𝘢𝘵";"C44Q+62P, Candra Kencana, Kec. Tulang Bawang Tengah, Kab. Tulang Bawang Barat, Lampung 34693";"Candra Kencana, Kec. Tulang Bawang Tengah, Kab. Tulang Bawang Barat";"LAMPUNG";"34693";"Indonesia";"";"";"";"-4.5944004";"105.1375908";"https://maps.google.com/?cid=0x0:0xc1134eba40884bfc";""
"perumahan";"Komplek perumahan";"Rumah Jeje";"rk 3 rt 8, Mulya Kencana, Kec. Tulang Bawang Tengah, Kab. Tulang Bawang Barat, Lampung 34693";"Mulya Kencana, Kec. Tulang Bawang Tengah, Kab. Tulang Bawang Barat";"LAMPUNG";"34693";"Indonesia";"";"";"";"-4.5656931";"105.1595138";"https://maps.google.com/?cid=0x0:0x703c1a27b6de0865";""
"perumahan";"Komplek perumahan";"Rumah Rudi Purnomo";"C5HR+F6X, Kagungan Rahayu, Kec. Menggala, Kab. Tulang Bawang, Lampung 34693";"Kagungan Rahayu, Kec. Menggala, Kab. Tulang Bawang";"LAMPUNG";"34693";"Indonesia";"";"";"";"-4.5718835";"105.1910874";"https://maps.google.com/?cid=0x0:0x55e5411ea2d71acc";""
"perumahan";"Komplek perumahan";"Rumah samsul hidayat";"C5J2+4WJ, Mulya Kencana, Kec. Tulang Bawang Tengah, Kab. Tulang Bawang Barat, Lampung 34693";"Mulya Kencana, Kec. Tulang Bawang Tengah, Kab. Tulang Bawang Barat";"LAMPUNG";"34693";"Indonesia";" 082186536110";"";"";"-4.5697018";"105.1514752";"https://maps.google.com/?cid=0x0:0x8a06620fb34e45ea";""
"perumahan";"Komplek perumahan";"Rumah pak rt";"94WM+93M, Candra Kencana, Kec. Tulang Bawang Tengah, Kab. Tulang Bawang Barat, Lampung 34693";"Candra Kencana, Kec. Tulang Bawang Tengah, Kab. Tulang Bawang Barat";"LAMPUNG";"34693";"Indonesia";"";"";"";"-4.6034785";"105.1327913";"https://maps.google.com/?cid=0x0:0xac2f795f29ac4af2";""
"perumahan";"Komplek perumahan";"Rumah ganang";"C5M3+VPH, Jl.A, Mulya Kencana, Kec. Tulang Bawang Tengah, Kab. Tulang Bawang Barat, Lampung 34693";"Jl.A, Mulya Kencana, Kec. Tulang Bawang Tengah, Kab. Tulang Bawang Barat";"LAMPUNG";"34693";"Indonesia";"";"";"";"-4.5651914";"105.1543167";"https://maps.google.com/?cid=0x0:0x1de6a92f0b35412e";""
"perumahan";"Inspektur Tempat Tinggal";"PANWASLU KECAMATAN PAGAR DEWA";"28PV+QXJ, Pahayu Jaya, Kec. Pagar Dewa, Kabupaten Lampung Barat, Lampung 34885";"Pahayu Jaya, Kec. Pagar Dewa, Kabupaten Lampung Barat";"LAMPUNG";"34885";"Indonesia";"";"";"";"-4.9627996";"104.3446429";"https://maps.google.com/?cid=0x0:0x279416df29a77d29";""
"perumahan";"Perumahan";"elhuda_19";"37QW+8X9, Sidomulyo, Kec. Pagar Dewa, Kabupaten Lampung Barat, Lampung 34885";"Sidomulyo, Kec. Pagar Dewa, Kabupaten Lampung Barat";"LAMPUNG";"34885";"Indonesia";"";"";"";"-4.9117224";"104.297492";"https://maps.google.com/?cid=0x0:0xf9d9d1fbab7494f7";""
"perumahan";"perumahan";"Lampung 34885";"Kabupaten Lampung Barat, Lampung";"Kabupaten Lampung Barat, Lampung";"LAMPUNG";"";"Indonesia";"";"";"";"-4.9642479";"104.3093759";"https://maps.google.com/?cid=0x0:0x33d570ca1e861638";""
"perumahan";"Perhimpunan Pengembang Perumahan";"Rumah tiara";"37QW+8X9, Sidomulyo, Kec. Pagar Dewa, Kabupaten Lampung Barat, Lampung 34885";"Sidomulyo, Kec. Pagar Dewa, Kabupaten Lampung Barat";"LAMPUNG";"34885";"Indonesia";"";"";"";"-4.9117165";"104.2974244";"https://maps.google.com/?cid=0x0:0x93024febb475dda6";""
"perumahan";"Komplek perumahan";"RUMAH MANG OHIM";"475X+X8F, Sidomulyo, Kec. Pagar Dewa, Kabupaten Lampung Barat, Lampung 34885";"Sidomulyo, Kec. Pagar Dewa, Kabupaten Lampung Barat";"LAMPUNG";"34885";"Indonesia";"";"";"";"-4.8900646";"104.2982873";"https://maps.google.com/?cid=0x0:0x43b3ba718afe85f5";""
"perumahan";"perumahan";"Rumah Fikri";"2874+886, Pampangan, Kec. Sekincau, Kabupaten Lampung Barat, Lampung 34885";"Pampangan, Kec. Sekincau, Kabupaten Lampung Barat";"LAMPUNG";"34885";"Indonesia";"";"";"";"-4.9876074";"104.3065619";"https://maps.google.com/?cid=0x0:0x57905f7b6427e32a";""
"perumahan";"perumahan";"Rumah Kadus Tegal Rejo B";"2898+45, Pampangan, Kec. Sekincau, Kabupaten Lampung Barat, Lampung";"Kabupaten Lampung Barat, Lampung";"LAMPUNG";"";"Indonesia";"";"";"";"-4.9822031";"104.3154608";"https://maps.google.com/?cid=0x0:0x616e87554c52f9ab";""
"perumahan";"Komplek perumahan";"Rumah intan";"27RV+V7R, Mekar Sari, Kec. Pagar Dewa, Kabupaten Lampung Barat, Lampung 34885";"Mekar Sari, Kec. Pagar Dewa, Kabupaten Lampung Barat";"LAMPUNG";"34885";"Indonesia";"";"";"";"-4.9577834";"104.2932112";"https://maps.google.com/?cid=0x0:0x609d9cab3e91bd85";""
"perumahan";"Komplek perumahan";"Batuan";"385J+2Q8, Pahayu Jaya, Kec. Pagar Dewa, Kabupaten Lampung Barat, Lampung 34885";"Pahayu Jaya, Kec. Pagar Dewa, Kabupaten Lampung Barat";"LAMPUNG";"34885";"Indonesia";"";"";"";"-4.9424568";"104.3319383";"https://maps.google.com/?cid=0x0:0xd186af6e4730e69b";""
"perumahan";"Komplek perumahan";"Naura zairatunnafisa";"377W+879, Sukamulya, Kec. Pagar Dewa, Kabupaten Lampung Barat, Lampung 34885";"Sukamulya, Kec. Pagar Dewa, Kabupaten Lampung Barat";"LAMPUNG";"34885";"Indonesia";"";"";"";"-4.9367177";"104.2957232";"https://maps.google.com/?cid=0x0:0xbf31a64f3f5c3d19";""
"perumahan";"Komplek perumahan";"Queen Family house";"376W+Q8, Mekar Sari, Kec. Pagar Dewa, Kabupaten Lampung Barat, Lampung";"Kabupaten Lampung Barat, Lampung";"LAMPUNG";"";"Indonesia";"";"";"";"-4.9387043";"104.2953892";"https://maps.google.com/?cid=0x0:0xb6c6d907e1ffa9f2";""
"perumahan";"Perumahan";"fadilah umar";"37VX+VMG, Sidomulyo, Kec. Pagar Dewa, Kabupaten Lampung Barat, Lampung 34885";"Sidomulyo, Kec. Pagar Dewa, Kabupaten Lampung Barat";"LAMPUNG";"34885";"Indonesia";"";"";"";"-4.9057907";"104.2991728";"https://maps.google.com/?cid=0x0:0x5fa34d8beeca2c15";""
"perumahan";"Komplek perumahan";"Warung Ulfa";"4834+V66, Sidomulyo, Kec. Pagar Dewa, Kabupaten Lampung Barat, Lampung 34885";"Sidomulyo, Kec. Pagar Dewa, Kabupaten Lampung Barat";"LAMPUNG";"34885";"Indonesia";"";"";"";"-4.8948175";"104.3048932";"https://maps.google.com/?cid=0x0:0xda3b823cfc281f3d";""
"perumahan";"perumahan";"Rumah Uli";"37QX+C6Q, Sidomulyo, Kec. Pagar Dewa, Kabupaten Lampung Barat, Lampung 34885";"Sidomulyo, Kec. Pagar Dewa, Kabupaten Lampung Barat";"LAMPUNG";"34885";"Indonesia";"";"";"";"-4.9113193";"104.29811";"https://maps.google.com/?cid=0x0:0xb725885bf3cffd78";""
"perumahan";"Toko";"Nizam";"379H+C68, Unnamed Road, Mekar Sari, Kec. Pagar Dewa, Kabupaten Lampung Barat, Lampung 34872";"Unnamed Road, Mekar Sari, Kec. Pagar Dewa, Kabupaten Lampung Barat";"LAMPUNG";"34872";"Indonesia";" 085789226004";"";"";"-4.9314634";"104.278085";"https://maps.google.com/?cid=0x0:0xc88c3c792f97b1ae";""
"perumahan";"Komplek perumahan";"Rumah pak Toto";"27VR+H6H, Mekar Sari, Kec. Pagar Dewa, Kabupaten Lampung Barat, Lampung 34885";"Mekar Sari, Kec. Pagar Dewa, Kabupaten Lampung Barat";"LAMPUNG";"34885";"Indonesia";"";"";"";"-4.9557681";"104.2904871";"https://maps.google.com/?cid=0x0:0x1b512d7c6ae5c9e9";""
"perumahan";"Komplek perumahan";"Mekarsari";"27PQ+Q92, Mekar Sari, Kec. Pagar Dewa, Kabupaten Lampung Barat, Lampung 34885";"Mekar Sari, Kec. Pagar Dewa, Kabupaten Lampung Barat";"LAMPUNG";"34885";"Indonesia";"";"";"";"-4.9634844";"104.2887866";"https://maps.google.com/?cid=0x0:0x3292fdbe2105858d";""
