Category;Real Category;Business Name;Address;City;State;Postal Code;Country;Phone;Email;Website;Latitude;Longitude;Map Link;Details Link
"komplek housing";"komplek housing";"Kec. Ampelgading";"Kabupaten Malang, Jawa Timur";"Kabupaten Malang, Jawa Timur";"JAWA TIMUR";"";"Indonesia";"";"";"";"-8.2358234";"112.8765283";"https://maps.google.com/?cid=0x0:0x6e06de6b56fe8eb9";""
"komplek housing";"komplek housing";"Jawa Tengah 52364";"Kec. Ampelgading, Kabupaten Pemalang, Jawa Tengah";"Kabupaten Pemalang, Jawa Tengah";"JAWA TIMUR";"";"Indonesia";"";"";"";"-6.9498767";"109.491356";"https://maps.google.com/?cid=0x0:0x1c00c5eb5b53ae70";""
"komplek housing";"Kantor Perusahaan";"Gofur";"3GQG+X3X, Pesadangan, Ujunggede, Kec. Ampelgading, Kabupaten Pemalang, Jawa Tengah 52364";"Pesadangan, Ujunggede, Kec. Ampelgading, Kabupaten Pemalang";"JAWA TIMUR";"52364";"Indonesia";"";"";"";"-6.9100024";"109.5252317";"https://maps.google.com/?cid=0x0:0x4418edd075099294";""
"komplek housing";"Pembangunan Perumahan";"Saekhudin";"4G39+W7C, RT.03/RW.06, Area Sawah, Jatirejo, Kec. Ampelgading, Kabupaten Pemalang, Jawa Tengah 52364";"RT.03/RW.06, Area Sawah, Jatirejo, Kec. Ampelgading, Kabupaten Pemalang";"JAWA TIMUR";"52364";"Indonesia";"";"";"";"-6.8951925";"109.5181312";"https://maps.google.com/?cid=0x0:0x2f53dcb086d532";""
"komplek housing";"Komplek perumahan";"Rumah DHINI NAAFILAH";"3GG6+XPF, Karangtengah Dua, Karangtengah, Kec. Ampelgading, Kabupaten Pemalang, Jawa Tengah 52364";"Karangtengah Dua, Karangtengah, Kec. Ampelgading, Kabupaten Pemalang";"JAWA TIMUR";"52364";"Indonesia";"";"";"";"-6.9226256";"109.5116829";"https://maps.google.com/?cid=0x0:0xf5be4408d1f62ffc";""
"komplek housing";"Pembangunan Perumahan";"Rumah anno";"3GQF+XGP, Pesadangan, Ujunggede, Kec. Ampelgading, Kabupaten Pemalang, Jawa Tengah 52364";"Pesadangan, Ujunggede, Kec. Ampelgading, Kabupaten Pemalang";"JAWA TIMUR";"52364";"Indonesia";"";"";"";"-6.9100401";"109.5238146";"https://maps.google.com/?cid=0x0:0xcff5a023abcd7424";""
"komplek housing";"Komplek perumahan";"Umh e Panji";"Gg. Sepat No.desa, Karangasem, Karangtalok, Kec. Ampelgading, Kabupaten Pemalang, Jawa Tengah 52364";"Karangasem, Karangtalok, Kec. Ampelgading, Kabupaten Pemalang";"JAWA TIMUR";"52364";"Indonesia";"";"";"";"-6.9438894";"109.5067087";"https://maps.google.com/?cid=0x0:0xc930e4703ee8a4bc";""
"komplek housing";"Pembangunan Perumahan";"Slamet Ali's House";"3GPF+CMV, Gg. Kenanga, Plandongan Dua, Losari, Kec. Ampelgading, Kabupaten Pemalang, Jawa Tengah 52364";"Gg. Kenanga, Plandongan Dua, Losari, Kec. Ampelgading, Kabupaten Pemalang";"JAWA TIMUR";"52364";"Indonesia";"";"";"";"-6.9139082";"109.5241545";"https://maps.google.com/?cid=0x0:0x760d2162a0599410";""
"komplek housing";"Pembangunan Perumahan";"Kang beling";"3GRG+RVQ, Gg. Irawan, Pesadangan, Ujunggede, Kec. Ampelgading, Kabupaten Pemalang, Jawa Tengah 52364";"Gg. Irawan, Pesadangan, Ujunggede, Kec. Ampelgading, Kabupaten Pemalang";"JAWA TIMUR";"52364";"Indonesia";"";"";"";"-6.9079055";"109.527231";"https://maps.google.com/?cid=0x0:0x116b19a510d07d19";""
"komplek housing";"Komplek perumahan";"Rumah Manis Sy";"4G2C+W2C, Jl. Formasi, Jatingarang, Jatirejo, Kec. Ampelgading, Kabupaten Pemalang, Jawa Tengah 52364";"Jl. Formasi, Jatingarang, Jatirejo, Kec. Ampelgading, Kabupaten Pemalang";"JAWA TIMUR";"52364";"Indonesia";"";"";"";"-6.8976322";"109.5200842";"https://maps.google.com/?cid=0x0:0x4bc3e7887ca30940";""
"komplek housing";"Pembangunan Perumahan";"Estifamily home";"3GX8+V75, Jl. Nasional 1, Sewuni, Ujunggede, Kec. Ampelgading, Kabupaten Pemalang, Jawa Tengah 52364";"Jl. Nasional 1, Sewuni, Ujunggede, Kec. Ampelgading, Kabupaten Pemalang";"JAWA TIMUR";"52364";"Indonesia";"";"";"";"-6.9003661";"109.5157455";"https://maps.google.com/?cid=0x0:0xec240367bbff48a2";""
"komplek housing";"Perhimpunan Pengembang Perumahan";"Griya Al Dayat";"3F2R+2GX, 4G3C+G84Jatingarang, Jatirejo, Kec. Ampelgading, Kabupaten Pemalang, Jawa Tengah 52364";"4G3C+G84Jatingarang, Jatirejo, Kec. Ampelgading, Kabupaten Pemalang";"JAWA TIMUR";"52364";"Indonesia";"";"";"";"-6.9498767";"109.491356";"https://maps.google.com/?cid=0x0:0x247f3f6225dba393";""
"komplek housing";"komplek housing";"Rumah Mbah Ayati";"Gg. 2 Timur No.30, Jatingarang, Jatirejo, Kec. Ampelgading, Kabupaten Pemalang, Jawa Tengah 52364";"Jatingarang, Jatirejo, Kec. Ampelgading, Kabupaten Pemalang";"JAWA TIMUR";"52364";"Indonesia";"";"";"";"-6.8975763";"109.5225559";"https://maps.google.com/?cid=0x0:0xcdb494917b711aa2";""
"komplek housing";"komplek housing";"Rumah candra  eri";"2FQM+89J, Gg. Rambutan, Dampit, Tegalsari Tim., Kec. Ampelgading, Kabupaten Pemalang, Jawa Tengah 52364";"Gg. Rambutan, Dampit, Tegalsari Tim., Kec. Ampelgading, Kabupaten Pemalang";"JAWA TIMUR";"52364";"Indonesia";"";"";"";"-6.9616615";"109.4833785";"https://maps.google.com/?cid=0x0:0x74958854cc4bc4de";""
"komplek housing";"Komplek perumahan";"Rumah afan syafa";"2FV3+8W3, Jl. Kp., Tegalsari, Tegalsari Bar., Kec. Ampelgading, Kabupaten Pemalang, Jawa Tengah 52364";"Jl. Kp., Tegalsari, Tegalsari Bar., Kec. Ampelgading, Kabupaten Pemalang";"JAWA TIMUR";"52364";"Indonesia";"";"";"";"-6.9567438";"109.454806";"https://maps.google.com/?cid=0x0:0x4f704789bc487f70";""
"komplek housing";"Komplek perumahan";"Umah e Denis";"3G44+H4P, Karangasem, Karangtalok, Kec. Ampelgading, Kabupaten Pemalang, Jawa Tengah 52364";"Karangasem, Karangtalok, Kec. Ampelgading, Kabupaten Pemalang";"JAWA TIMUR";"52364";"Indonesia";"";"";"";"-6.9438105";"109.5052332";"https://maps.google.com/?cid=0x0:0xcb8d75f72ce3500d";""
"komplek housing";"Pembangunan Perumahan";"Rumah tinggal";"Gg. Gatotkaca No.10, RT.05/RW.01, Pesadangan, Ujunggede, Kec. Ampelgading, Kabupaten Pemalang, Jawa Tengah 52364";"RT.05/RW.01, Pesadangan, Ujunggede, Kec. Ampelgading, Kabupaten Pemalang";"JAWA TIMUR";"52364";"Indonesia";"";"";"";"-6.9084861";"109.5251287";"https://maps.google.com/?cid=0x0:0x479c7ff4b7af6049";""
"komplek housing";"Komplek perumahan";"Rumah Erni setiyawati";"4G3C+9G9, Gg. 3 Timur, Jatingarang, ke barat, Kec. Ampelgading, Kabupaten Pemalang, Jawa Tengah 52364";"Gg. 3 Timur, Jatingarang, ke barat, Kec. Ampelgading, Kabupaten Pemalang";"JAWA TIMUR";"52364";"Indonesia";"";"";"";"-6.8965926";"109.5213486";"https://maps.google.com/?cid=0x0:0x556b315bd61028ca";""
"komplek housing";"Pembangunan Perumahan";"Reymon.jr";"2FF9+4R3, Gg. Jeruk, Kedungyom, Tegalsari Tim., Kec. Ampelgading, Kabupaten Pemalang, Jawa Tengah 52364";"Gg. Jeruk, Kedungyom, Tegalsari Tim., Kec. Ampelgading, Kabupaten Pemalang";"JAWA TIMUR";"52364";"Indonesia";"";"";"";"-6.9772282";"109.4695389";"https://maps.google.com/?cid=0x0:0xa5949076e1e5ae5d";""
"komplek housing";"komplek housing";"glory house";"3GVF+RR8, gang suteha, RT.03/RW.04, Sewuni, Ujunggede, Kec. Ampelgading, Kabupaten Pemalang, Jawa Tengah 52364";"gang suteha, RT.03/RW.04, Sewuni, Ujunggede, Kec. Ampelgading, Kabupaten Pemalang";"JAWA TIMUR";"52364";"Indonesia";"";"";"";"-6.9054738";"109.5245799";"https://maps.google.com/?cid=0x0:0xb60cd1c150c45cf5";""
"komplek housing";"Komplek perumahan";"Home Abil";"3GRH+G9H, Gg. Gatotkaca, Pesadangan, Ujunggede, Kec. Ampelgading, Kabupaten Pemalang, Jawa Tengah 52364";"Gg. Gatotkaca, Pesadangan, Ujunggede, Kec. Ampelgading, Kabupaten Pemalang";"JAWA TIMUR";"52364";"Indonesia";"";"";"";"-6.9086823";"109.5284783";"https://maps.google.com/?cid=0x0:0x54b5699c507e4c5";""
"komplek housing";"Komplek perumahan";"Mebbysandre";"PVQC+HM3, Boncis, Sonowangi, Kec. Ampelgading, Kabupaten Malang, Jawa Timur 65183";"Boncis, Sonowangi, Kec. Ampelgading, Kabupaten Malang";"JAWA TIMUR";"65183";"Indonesia";"";"";"";"-8.2611775";"112.8716376";"https://maps.google.com/?cid=0x0:0xa5e887672616545b";""
"komplek housing";"Komplek perumahan";"Nyun's home";"QVGX+WQV, Jl. Damar wulan, RT./rw:19/RW.05, Bonpat, Tirtomoyo, Kec. Ampelgading, Kabupaten Malang, Jawa Timur";"Kabupaten Malang, Jawa Timur";"JAWA TIMUR";"";"Indonesia";"";"";"";"-8.2226326";"112.8994067";"https://maps.google.com/?cid=0x0:0x6d9405250e2169c7";""
"komplek housing";"komplek housing";"Abah Hosnan";"QW87+G56, timur lapangan njagalan, RT.10/RW.02, Wonokerto, Sidorenggo, Kec. Ampelgading, Kabupaten Malang, Jawa Timur 65183";"timur lapangan njagalan, RT.10/RW.02, Wonokerto, Sidorenggo, Kec. Ampelgading, Kabupaten Malang";"JAWA TIMUR";"65183";"Indonesia";"";"";"";"-8.233702";"112.9128986";"https://maps.google.com/?cid=0x0:0x1232c75772ef3284";""
"komplek housing";"Pembangunan Perumahan";"Isma home";"QRMR+933, Unnamed Road, Area Sawah/Kebun, Simojayan, Kec. Ampelgading, Kabupaten Malang, Jawa Timur 65182";"Unnamed Road, Area Sawah/Kebun, Simojayan, Kec. Ampelgading, Kabupaten Malang";"JAWA TIMUR";"65182";"Indonesia";"";"";"";"-8.2166016";"112.8401812";"https://maps.google.com/?cid=0x0:0xdf8728aac90006";""
"komplek housing";"Pembangunan Perumahan";"omh e piki";"QV75+8V9, Tamanasri, Kec. Ampelgading, Kabupaten Malang, Jawa Timur 65183";"Tamanasri, Kec. Ampelgading, Kabupaten Malang";"JAWA TIMUR";"65183";"Indonesia";"";"";"";"-8.236721";"112.8597293";"https://maps.google.com/?cid=0x0:0xce60b6bd526e177";""
"komplek housing";"Komplek perumahan";"Rumah pk Sukadi";"QVQQ+VHW, Jl. Semeru, Sumbergentong Kulon, Tirtomoyo, Kec. Ampelgading, Kabupaten Malang, Jawa Timur 65183";"Jl. Semeru, Sumbergentong Kulon, Tirtomoyo, Kec. Ampelgading, Kabupaten Malang";"JAWA TIMUR";"65183";"Indonesia";"";"";"";"-8.2105526";"112.8884843";"https://maps.google.com/?cid=0x0:0x66f6fc61a8d759d6";""
"komplek housing";"Pembangunan Perumahan";"Zean Ardyansah C.O";"Purwoharjo, Kec. Ampelgading, Kabupaten Malang, Jawa Timur 65183";"Kec. Ampelgading, Kabupaten Malang";"JAWA TIMUR";"65183";"Indonesia";"";"";"";"-8.2467649";"112.9029122";"https://maps.google.com/?cid=0x0:0x475dc0c7ca787344";""
"komplek housing";"Komplek perumahan";"Rumah FANDILAW";"PVQC+3JM, Boncis, Sonowangi, Kec. Ampelgading, Kabupaten Malang, Jawa Timur 65183";"Boncis, Sonowangi, Kec. Ampelgading, Kabupaten Malang";"JAWA TIMUR";"65183";"Indonesia";"";"";"";"-8.2622816";"112.8715071";"https://maps.google.com/?cid=0x0:0x5d037fa9507b66ac";""
"komplek housing";"Komplek perumahan";"Rumah Uti Ampelgading";"Jl. Sumbersuko Mulyoasri, Sengkaring, Mulyoasri, Kec. Ampelgading, Kabupaten Malang, Jawa Timur 65183";"Sengkaring, Mulyoasri, Kec. Ampelgading, Kabupaten Malang";"JAWA TIMUR";"65183";"Indonesia";"";"";"";"-8.2046933";"112.8777031";"https://maps.google.com/?cid=0x0:0xca23965546d55c0f";""
"komplek housing";"Komplek perumahan";"Rumah dhea";"PVQC+PQ9, Boncis, Sonowangi, Kec. Ampelgading, Kabupaten Malang, Jawa Timur 65183";"Boncis, Sonowangi, Kec. Ampelgading, Kabupaten Malang";"JAWA TIMUR";"65183";"Indonesia";"";"";"";"-8.2607183";"112.8719817";"https://maps.google.com/?cid=0x0:0x614c9d55edb259b6";""
"komplek housing";"Pembangunan Perumahan";"Rmh Windhy";"QVP6+M3V, Jl. Suwidakan, Sumbersari, Simojayan, Kec. Ampelgading, Kabupaten Malang, Jawa Timur 65183";"Jl. Suwidakan, Sumbersari, Simojayan, Kec. Ampelgading, Kabupaten Malang";"JAWA TIMUR";"65183";"Indonesia";"";"";"";"-8.2132617";"112.8601637";"https://maps.google.com/?cid=0x0:0xd77b19dac0b48840";""
"komplek housing";"Komplek perumahan";"Rumah kung kirno";"QRWX+GMQ, Simojayan, Kec. Ampelgading, Kabupaten Malang, Jawa Timur 65183";"Simojayan, Kec. Ampelgading, Kabupaten Malang";"JAWA TIMUR";"65183";"Indonesia";"";"";"";"-8.203543";"112.8491421";"https://maps.google.com/?cid=0x0:0x5efdeb048a2264a3";""
"komplek housing";"komplek housing";"Rumah lami";"PVP9+XW6, Boncis, Sonowangi, Kec. Ampelgading, Kabupaten Malang, Jawa Timur 65183";"Boncis, Sonowangi, Kec. Ampelgading, Kabupaten Malang";"JAWA TIMUR";"65183";"Indonesia";"";"";"";"-8.2624188";"112.8697664";"https://maps.google.com/?cid=0x0:0x967f58cb51150819";""
"komplek housing";"Perhimpunan Pengembang Perumahan";"Intan home";"RV3V+CH, Argosari, Argoyuwono, Kec. Ampelgading, Kabupaten Malang, Jawa Timur 65183";"Argosari, Argoyuwono, Kec. Ampelgading, Kabupaten Malang";"JAWA TIMUR";"65183";"Indonesia";"";"";"";"-8.1958474";"112.8943856";"https://maps.google.com/?cid=0x0:0x8f00920e5aa86b73";""
"komplek housing";"komplek housing";"Rumah Alif  Alfan";"QRPW+QFW, Petungombo, Simojayan, Kec. Ampelgading, Kabupaten Malang, Jawa Timur 65183";"Petungombo, Simojayan, Kec. Ampelgading, Kabupaten Malang";"JAWA TIMUR";"65183";"Indonesia";"";"";"";"-8.21277";"112.846062";"https://maps.google.com/?cid=0x0:0x87f4a72e5aa5f0f4";""
"komplek housing";"Komplek perumahan";"Papang's House";"PVM6+XF5, Gn. Koco, Wirotaman, Kec. Ampelgading, Kabupaten Malang, Jawa Timur 65183";"Gn. Koco, Wirotaman, Kec. Ampelgading, Kabupaten Malang";"JAWA TIMUR";"65183";"Indonesia";"";"";"";"-8.2649369";"112.8615559";"https://maps.google.com/?cid=0x0:0x6aeb931a0cb11716";""
"komplek housing";"Komplek perumahan";"Sumber boncis";"PVRG+PCW, Sujiarno, Sonowangi, Kec. Ampelgading, Kabupaten Malang, Jawa Timur 65183";"Sujiarno, Sonowangi, Kec. Ampelgading, Kabupaten Malang";"JAWA TIMUR";"65183";"Indonesia";"";"";"";"-8.2581452";"112.876091";"https://maps.google.com/?cid=0x0:0x3c7e8044eb4ae7c8";""
"komplek housing";"komplek housing";"Rumah c'dul hakam";"QV84+G87, Unnamed Road, Kampunganyar, Tamanasri, Kec. Ampelgading, Kabupaten Malang, Jawa Timur 65183";"Unnamed Road, Kampunganyar, Tamanasri, Kec. Ampelgading, Kabupaten Malang";"JAWA TIMUR";"65183";"Indonesia";"";"";"";"-8.2337425";"112.8557635";"https://maps.google.com/?cid=0x0:0x32fbe5335b15a91e";""
"komplek housing";"Komplek perumahan";"Jasuli moden";"PWV2+GWQ, Purwoharjo, Kec. Ampelgading, Kabupaten Malang, Jawa Timur 65183";"Purwoharjo, Kec. Ampelgading, Kabupaten Malang";"JAWA TIMUR";"65183";"Indonesia";"";"";"";"-8.2561686";"112.9023558";"https://maps.google.com/?cid=0x0:0x7e0b1cb955e3671b";""
"komplek housing";"komplek housing";"Kec. Ampelgading";"Kabupaten Malang, Jawa Timur";"Kabupaten Malang, Jawa Timur";"JAWA TIMUR";"";"Indonesia";"";"";"";"-8.2358234";"112.8765283";"https://maps.google.com/?cid=0x0:0x6e06de6b56fe8eb9";""
"komplek housing";"Pembangunan Perumahan";"SuryaArdh House";"MVWR+VJ5, RT.26/RW.11, Krajan Ii, Lebakharjo, Kec. Ampelgading, Kabupaten Malang, Jawa Timur 65183";"RT.26/RW.11, Krajan Ii, Lebakharjo, Kec. Ampelgading, Kabupaten Malang";"JAWA TIMUR";"65183";"Indonesia";"";"";"";"-8.3028628";"112.8916241";"https://maps.google.com/?cid=0x0:0xa8dadbb6f559a925";""
"komplek housing";"Komplek perumahan";"Rumah jheden jhevano";"QV5P+JJC, RT./RW/RW.30 ndolo, Tawangsari, Tirtomarto, Kec. Ampelgading, Kabupaten Malang, Jawa Timur 65183";"RT./RW/RW.30 ndolo, Tawangsari, Tirtomarto, Kec. Ampelgading, Kabupaten Malang";"JAWA TIMUR";"65183";"Indonesia";"";"";"";"-8.2409296";"112.8865173";"https://maps.google.com/?cid=0x0:0x7b4f377027bbd453";""
"komplek housing";"Asosiasi Pertanian";"Home sweet home";"MWV3+CWP, Sukomaju A, Lebakharjo, Kec. Ampelgading, Kabupaten Malang, Jawa Timur 65183";"Sukomaju A, Lebakharjo, Kec. Ampelgading, Kabupaten Malang";"JAWA TIMUR";"65183";"Indonesia";"";"";"";"-8.3068861";"112.9053036";"https://maps.google.com/?cid=0x0:0xf7ff87e867893d4a";""
"komplek housing";"komplek housing";"Rumah";"QVP9+22V, Sumbersengkaring, Tawangagung, Kec. Ampelgading, Kabupaten Malang, Jawa Timur 65183";"Sumbersengkaring, Tawangagung, Kec. Ampelgading, Kabupaten Malang";"JAWA TIMUR";"65183";"Indonesia";"";"";"";"-8.214681";"112.86747";"https://maps.google.com/?cid=0x0:0xa2af6739ab3386c3";""
"komplek housing";"Kedai Kopi";"Ivano";"QRRG+QH9, Sanggrahan, Ampelgading, Kec. Tirtoyudo, Kabupaten Malang, Jawa Timur 65183";"Sanggrahan, Ampelgading, Kec. Tirtoyudo, Kabupaten Malang";"JAWA TIMUR";"65183";"Indonesia";"";"";"";"-8.2080918";"112.8264937";"https://maps.google.com/?cid=0x0:0xeb59a4fa6f97e669";""
"komplek housing";"Komplek perumahan";"Udin Home";"QW76+CQ5, RT.10/RW.02, Jagalan, Sidorenggo, Kec. Ampelgading, Kabupaten Malang, Jawa Timur 65183";"RT.10/RW.02, Jagalan, Sidorenggo, Kec. Ampelgading, Kabupaten Malang";"JAWA TIMUR";"65183";"Indonesia";"";"";"";"-8.236485";"112.911998";"https://maps.google.com/?cid=0x0:0xe3eb4d65eaa86bd6";""
"komplek housing";"Pembangunan Perumahan";"Rumah Frisca";"QV6J+HQ, Krajan, Tirtomarto, Kec. Ampelgading, Kabupaten Malang, Jawa Timur 65183";"Krajan, Tirtomarto, Kec. Ampelgading, Kabupaten Malang";"JAWA TIMUR";"65183";"Indonesia";"";"";"";"-8.2385267";"112.8818964";"https://maps.google.com/?cid=0x0:0x5db810a1234dd268";""
"komplek housing";"komplek housing";"Wahyudi home";"QW37+FQF, Sumberpitu, Sidorenggo, Kec. Ampelgading, Kabupaten Malang, Jawa Timur 65183";"Sumberpitu, Sidorenggo, Kec. Ampelgading, Kabupaten Malang";"JAWA TIMUR";"65183";"Indonesia";"";"";"";"-8.2463071";"112.9144363";"https://maps.google.com/?cid=0x0:0xb64475633c7a0d7d";""
"komplek housing";"komplek housing";"Rumah P JEKI/MUDIN";"QWG5+QGX, RT.13/RW.04, Sidomarto, Sidorenggo, Kec. Ampelgading, Kabupaten Malang, Jawa Timur 65183";"RT.13/RW.04, Sidomarto, Sidorenggo, Kec. Ampelgading, Kabupaten Malang";"JAWA TIMUR";"65183";"Indonesia";"";"";"";"-8.2230076";"112.9088591";"https://maps.google.com/?cid=0x0:0x7cd52b2581099fa3";""
"komplek housing";"komplek housing";"Mbah Kebat House";"MHWJ+HF4, Banturkrajan, Bantur, Kec. Bantur, Kabupaten Malang, Jawa Timur 65179";"Banturkrajan, Bantur, Kec. Bantur, Kabupaten Malang";"JAWA TIMUR";"65179";"Indonesia";"";"";"";"-8.3036125";"112.5812031";"https://maps.google.com/?cid=0x0:0x6831ad8bc14cd23c";""
"komplek housing";"Kompleks Kondominium";"HOME LUKMAN HAKIM";"Sumberbening Lor, Bantur, Kec. Bantur, Kabupaten Malang, Jawa Timur 65179";"Bantur, Kec. Bantur, Kabupaten Malang";"JAWA TIMUR";"65179";"Indonesia";" 08563373392";"";"";"-8.3230298";"112.5602686";"https://maps.google.com/?cid=0x0:0xdb36d74ac6f4ae9a";""
"komplek housing";"komplek housing";"Home stay";"MGH9+RCV, Krajan, srigonco, Kec. Bantur, Kabupaten Malang, Jawa Timur";"Kabupaten Malang, Jawa Timur";"JAWA TIMUR";"";"Indonesia";"";"";"";"-8.3203883";"112.5185494";"https://maps.google.com/?cid=0x0:0xc7be1f174a213ee3";""
"komplek housing";"Komplek perumahan";"Rumah Bp. Kutsyanto";"MH98+965, Area Sawah/Kebun, Wonorejo, Kec. Bantur, Kabupaten Malang, Jawa Timur 65179";"Area Sawah/Kebun, Wonorejo, Kec. Bantur, Kabupaten Malang";"JAWA TIMUR";"65179";"Indonesia";"";"";"";"-8.3316196";"112.5656051";"https://maps.google.com/?cid=0x0:0xdcc564662f35adad";""
"komplek housing";"komplek housing";"J.W (Yudi)";"MHHP+H52, Sentong, Bantur, Kec. Bantur, Kabupaten Malang, Jawa Timur 65179";"Sentong, Bantur, Kec. Bantur, Kabupaten Malang";"JAWA TIMUR";"65179";"Indonesia";"";"";"";"-8.3211501";"112.5854576";"https://maps.google.com/?cid=0x0:0x7391e38498e70532";""
"komplek housing";"Pembangunan Perumahan";"Didik nasgor";"MHVJ+RW9, Banturkrajan, Bantur, Kec. Bantur, Kabupaten Malang, Jawa Timur 65179";"Banturkrajan, Bantur, Kec. Bantur, Kabupaten Malang";"JAWA TIMUR";"65179";"Indonesia";" 085880564387";"";"";"-8.306036";"112.582227";"https://maps.google.com/?cid=0x0:0x1477779533f44722";""
"komplek housing";"Pembangunan Perumahan";"BASCAM DEGAN IJO";"MG28+WQH, Krajan, Bandungrejo, Kec. Bantur, Kabupaten Malang, Jawa Timur 65179";"Krajan, Bandungrejo, Kec. Bantur, Kabupaten Malang";"JAWA TIMUR";"65179";"Indonesia";"";"";"";"-8.3477291";"112.5168627";"https://maps.google.com/?cid=0x0:0x7862ba764670702f";""
"komplek housing";"Komplek perumahan";"Rumah Sam sugha";"MGMW+PF, Purboyo, Sumberbening, Kec. Bantur, Kabupaten Malang, Jawa Timur 65179";"Purboyo, Sumberbening, Kec. Bantur, Kabupaten Malang";"JAWA TIMUR";"65179";"Indonesia";"";"";"";"-8.3162021";"112.5463945";"https://maps.google.com/?cid=0x0:0xcb268ed15158cffa";""
"komplek housing";"Vila";"Griyo Wahyu SH TERATE";"MHV2+XCV bok anyar, Jl.kesatria, Purboyo, Sumberbening, Kec. Bantur, Kabupaten Malang, Jawa Timur";"Kabupaten Malang, Jawa Timur";"JAWA TIMUR";"";"Indonesia";"";"";"";"-8.3050155";"112.551055";"https://maps.google.com/?cid=0x0:0x4724eeeacf9ab3e3";""
"komplek housing";"Masjid";"Rumah Miftahul Jannah";"MGR9+FJX, Jln. Banjar, RT.24/RW.06, Krajan, Bandungrejo, Kec. Bantur, Kabupaten Malang, Jawa Timur 65179";"Jln. Banjar, RT.24/RW.06, Krajan, Bandungrejo, Kec. Bantur, Kabupaten Malang";"JAWA TIMUR";"65179";"Indonesia";" 085549064120";"";"";"-8.3113104";"112.5181855";"https://maps.google.com/?cid=0x0:0xe95141f305776dec";""
"komplek housing";"komplek housing";"Omah e ido";"MHPJ+W8F, Banturkrajan, Bantur, Kec. Bantur, Kabupaten Malang, Jawa Timur";"Kabupaten Malang, Jawa Timur";"JAWA TIMUR";"";"Indonesia";"";"";"";"-8.3126918";"112.5808005";"https://maps.google.com/?cid=0x0:0x926b2308f7eead63";""
"komplek housing";"Komplek perumahan";"Rumah RMR";"JHX2+M7F, Sumberjambe, Srigonco, Kec. Bantur, Kabupaten Malang, Jawa Timur 65179";"Sumberjambe, Srigonco, Kec. Bantur, Kabupaten Malang";"JAWA TIMUR";"65179";"Indonesia";"";"";"";"-8.3508157";"112.5506584";"https://maps.google.com/?cid=0x0:0x5ed8167685271b1d";""
"komplek housing";"Komplek perumahan";"Omah e tebe";"MHPJ+MGF, Jl. Raya Bantur, Banturkrajan, Bantur, Kec. Bantur, Kabupaten Malang, Jawa Timur 65179";"Jl. Raya Bantur, Banturkrajan, Bantur, Kec. Bantur, Kabupaten Malang";"JAWA TIMUR";"65179";"Indonesia";"";"";"";"-8.3136096";"112.5814674";"https://maps.google.com/?cid=0x0:0x2a5b2e35b7fbefb7";""
"komplek housing";"Rumah wisata";"Holaiyah Home";"PH3C+Q7P, RT.26/RW.04, Sumberwaluh, Pringgodani, Kec. Bantur, Kabupaten Malang, Jawa Timur 65179";"RT.26/RW.04, Sumberwaluh, Pringgodani, Kec. Bantur, Kabupaten Malang";"JAWA TIMUR";"65179";"Indonesia";"";"";"";"-8.2955341";"112.5706982";"https://maps.google.com/?cid=0x0:0x31fe4db66f316289";""
"komplek housing";"Komplek perumahan";"rumah meilani";"MG8M+JG9, Sumberrejo, Sumberbening, Kec. Bantur, Kabupaten Malang, Jawa Timur 65179";"Sumberrejo, Sumberbening, Kec. Bantur, Kabupaten Malang";"JAWA TIMUR";"65179";"Indonesia";"";"";"";"-8.3334617";"112.5338699";"https://maps.google.com/?cid=0x0:0xf406d61905b126a6";""
"komplek housing";"Komplek perumahan";"Omah e ardi";"MHHF+Q8P, Area Sawah/Kebun, Wonorejo, Kec. Bantur, Kabupaten Malang, Jawa Timur 65179";"Area Sawah/Kebun, Wonorejo, Kec. Bantur, Kabupaten Malang";"JAWA TIMUR";"65179";"Indonesia";"";"";"";"-8.3205496";"112.5733338";"https://maps.google.com/?cid=0x0:0x44b56b3e480de6a5";""
"komplek housing";"Pembangunan Perumahan";"dea home";"MG6V+V26, Sumberbening, Kec. Bantur, Kabupaten Malang, Jawa Timur 65179";"Sumberbening, Kec. Bantur, Kabupaten Malang";"JAWA TIMUR";"65179";"Indonesia";"";"";"";"-8.3378409";"112.5425073";"https://maps.google.com/?cid=0x0:0x9df3a315b0eeba80";""
"komplek housing";"Komplek perumahan";"Fimaruth house";"PHCV+CJX, Jl. Raya Rejosari, Balewarti, Rejosari, Kec. Bantur, Kabupaten Malang, Jawa Timur 65179";"Jl. Raya Rejosari, Balewarti, Rejosari, Kec. Bantur, Kabupaten Malang";"JAWA TIMUR";"65179";"Indonesia";"";"";"";"-8.278894";"112.5940965";"https://maps.google.com/?cid=0x0:0xc41e1abbd22dd7b8";""
"komplek housing";"Pembangunan Perumahan";"Home endelwis";"PH88+73, Sumberbendo, Pringgodani, Kec. Bantur, Kabupaten Malang, Jawa Timur";"Kabupaten Malang, Jawa Timur";"JAWA TIMUR";"";"Indonesia";"";"";"";"-8.284282";"112.565167";"https://maps.google.com/?cid=0x0:0x13eb71010eb2e679";""
"komplek housing";"komplek housing";"Jawa Timur 65179";"Kec. Bantur, Kabupaten Malang, Jawa Timur";"Kabupaten Malang, Jawa Timur";"JAWA TIMUR";"";"Indonesia";"";"";"";"-8.3230298";"112.5602686";"https://maps.google.com/?cid=0x0:0x1c00c5eb5b541420";""
"komplek housing";"Toko";"Latanza sound 35";"MHHM+QHV Latanza sound 35, Sentong, Bantur, Kec. Bantur, Kabupaten Malang, Jawa Timur 65179";"Sentong, Bantur, Kec. Bantur, Kabupaten Malang";"JAWA TIMUR";"65179";"Indonesia";"";"";"";"-8.3205204";"112.5839139";"https://maps.google.com/?cid=0x0:0x9a16953e05c26b03";""
"komplek housing";"Komplek perumahan";"Wet soo City";"MG26+RG4, Krajan, Bandungrejo, Kec. Bantur, Kabupaten Malang, Jawa Timur 65179";"Krajan, Bandungrejo, Kec. Bantur, Kabupaten Malang";"JAWA TIMUR";"65179";"Indonesia";"";"";"";"-8.3486148";"112.5118192";"https://maps.google.com/?cid=0x0:0x1659c6b2c50f24ce";""
"komplek housing";"komplek housing";"Pura Srimanganti";"PH2M+V6X, Tanjungsari, Tunjungsari, Kec. Bantur, Kabupaten Malang, Jawa Timur 65179";"Tanjungsari, Tunjungsari, Kec. Bantur, Kabupaten Malang";"JAWA TIMUR";"65179";"Indonesia";"";"";"";"-8.2978413";"112.5832155";"https://maps.google.com/?cid=0x0:0x1f0eb4d4268ad52a";""
"komplek housing";"Perhimpunan Pengembang Perumahan";"RUMAH AMIL 54";"Gumukmas, Karangsari, Kec. Bantur, Kabupaten Malang, Jawa Timur 65179";"Karangsari, Kec. Bantur, Kabupaten Malang";"JAWA TIMUR";"65179";"Indonesia";" 082192025723";"";"/url?q>>u003dhttps://www.youtube.com/%40amiliaputri3679>>u0026opi>>u003d79508299>>u0026sa>>u003dU>>u0026ved>>u003d0ahUKEwiLj6XG2-OLAxW6hGMGHdeMArIQ61gIFigS>>u0026usg>>u003dAOvVaw0lEr7e5hFS0PJdOQBZK0Y8";"-8.2516059";"112.5490821";"https://maps.google.com/?cid=0x0:0x21462577eab9dc19";""
"komplek housing";"Komplek perumahan";"Rumah nya farid";"MG65+MV7, Krajan, Bandungrejo, Kec. Bantur, Kabupaten Malang, Jawa Timur 65179";"Krajan, Bandungrejo, Kec. Bantur, Kabupaten Malang";"JAWA TIMUR";"65179";"Indonesia";"";"";"";"-8.3384878";"112.5090843";"https://maps.google.com/?cid=0x0:0xeae7e29be28a5402";""
"komplek housing";"Komplek perumahan";"MUDI BPK IBNU";"QH62+786, Jl. Krajan, Gumukmas, Karangsari, Kec. Bantur, Kabupaten Malang, Jawa Timur 65179";"Jl. Krajan, Gumukmas, Karangsari, Kec. Bantur, Kabupaten Malang";"JAWA TIMUR";"65179";"Indonesia";"";"";"";"-8.2393459";"112.5507588";"https://maps.google.com/?cid=0x0:0x3bbe797ad9e689ae";""
"komplek housing";"Perumahan";"Bemby andree house";"PHHV+267, Jl Balewarti, RT.04/RW.02, Balewarti, Rejosari, Kec. Bantur, Kabupaten Malang, Jawa Timur 65179";"Jl Balewarti, RT.04/RW.02, Balewarti, Rejosari, Kec. Bantur, Kabupaten Malang";"JAWA TIMUR";"65179";"Indonesia";" 082132292020";"";"";"-8.2724625";"112.593047";"https://maps.google.com/?cid=0x0:0x22f9e4c7d628953a";""
"komplek housing";"Komplek perumahan";"Ahmad Roziqin";"PH9F+FP, Sumberwinong Lor, Pringgodani, Kec. Bantur, Kabupaten Malang, Jawa Timur 65179";"Sumberwinong Lor, Pringgodani, Kec. Bantur, Kabupaten Malang";"JAWA TIMUR";"65179";"Indonesia";" 085855536601";"";"";"-8.2809149";"112.5742405";"https://maps.google.com/?cid=0x0:0xecc185aab011ee9";""
"komplek housing";"Binatu";"Indah jaya laundry";"QHFX+55V, Wonokerto Krajan, Wonokerto, Kec. Bantur, Kabupaten Malang, Jawa Timur 65179";"Wonokerto Krajan, Wonokerto, Kec. Bantur, Kabupaten Malang";"JAWA TIMUR";"65179";"Indonesia";" 081232597610";"";"";"-8.2270114";"112.5979221";"https://maps.google.com/?cid=0x0:0x4160720fe32d7f82";""
"komplek housing";"Pembangunan Perumahan";"Posko 91 MMD Bululawang";"Jl. Suropati Raya No.222, Bululawang, Kec. Bululawang, Kabupaten Malang, Jawa Timur 65171";"Bululawang, Kec. Bululawang, Kabupaten Malang";"JAWA TIMUR";"65171";"Indonesia";"";"";"";"-8.0791537";"112.6468536";"https://maps.google.com/?cid=0x0:0xf3afd7cbfb8c242f";""
"komplek housing";"Pembangunan Perumahan";"HG House";"Dusun Bakalan 02, Bakalan, Kec. Bululawang, Kabupaten Malang, Jawa Timur 65171";"Bakalan, Kec. Bululawang, Kabupaten Malang";"JAWA TIMUR";"65171";"Indonesia";"";"";"";"-8.111895";"112.6612389";"https://maps.google.com/?cid=0x0:0xb8ccc1f55e1a6705";""
"komplek housing";"Komplek perumahan";"Perumahan Graha Pratama";"WJHR+WCJ, Jalan Raya, Bululawang, Malang Regency, East Java 65171";"Jalan Raya, Bululawang, Malang Regency";"JAWA TIMUR";"65171";"Indonesia";" 082131908052";"";"";"-8.0701516";"112.6410024";"https://maps.google.com/?cid=0x0:0xd7bc78a6f41b6335";""
"komplek housing";"Pembangunan Perumahan";"Perumahan Griya Bululawang";"WJ3X+R8F, Unnamed Road, Jl. Krapyak Jaya, Krapyak Jaya, Krebet Senggrong, Kec. Bululawang, Kabupaten Malang, Jawa Timur 65171";"Unnamed Road, Jl. Krapyak Jaya, Krapyak Jaya, Krebet Senggrong, Kec. Bululawang, Kabupaten Malang";"JAWA TIMUR";"65171";"Indonesia";"";"";"";"-8.0954298";"112.6483111";"https://maps.google.com/?cid=0x0:0xcc8dba704200ee04";""
"komplek housing";"Komplek perumahan";"Home Base Bululawang";"Gg. Makmur ka, RT.018/RW.05, Bululawang, Kec. Bululawang, Kabupaten Malang, Jawa Timur 65171";"RT.018/RW.05, Bululawang, Kec. Bululawang, Kabupaten Malang";"JAWA TIMUR";"65171";"Indonesia";" 081238457800";"";"";"-8.0760868";"112.6424065";"https://maps.google.com/?cid=0x0:0xa1e007a152e39cdb";""
"komplek housing";"Pembangunan Perumahan";"YDH Garage";"VMR5+5G8, Dusun Bakalan 01, Bakalan, Kec. Bululawang, Kabupaten Malang, Jawa Timur 65171";"Dusun Bakalan 01, Bakalan, Kec. Bululawang, Kabupaten Malang";"JAWA TIMUR";"65171";"Indonesia";"";"";"";"-8.109576";"112.6588291";"https://maps.google.com/?cid=0x0:0xd40b6ac887dc6a96";""
"komplek housing";"komplek housing";"Home";"Jl. Sidodadi II, Sidodadi, Wandanpuro, Kec. Bululawang, Kabupaten Malang, Jawa Timur 65171";"Sidodadi, Wandanpuro, Kec. Bululawang, Kabupaten Malang";"JAWA TIMUR";"65171";"Indonesia";"";"";"";"-8.0721246";"112.6409722";"https://maps.google.com/?cid=0x0:0x19133cd3b63769a3";""
"komplek housing";"Komplek perumahan";"My Home";"Jl. Krapyak Jaya, RT.16/RW.4, Krapyak Jaya, Krebet Senggrong, Kec. Bululawang, Kabupaten Malang, Jawa Timur 65171";"RT.16/RW.4, Krapyak Jaya, Krebet Senggrong, Kec. Bululawang, Kabupaten Malang";"JAWA TIMUR";"65171";"Indonesia";"";"";"";"-8.0907246";"112.6472362";"https://maps.google.com/?cid=0x0:0x9c5bb47902b7bef1";""
"komplek housing";"Komplek perumahan";"AISYAH FIRST HOUSE";"VMRJ+VH5, Krajan, Kasri, Kec. Bululawang, Kabupaten Malang, Jawa Timur 65171";"Krajan, Kasri, Kec. Bululawang, Kabupaten Malang";"JAWA TIMUR";"65171";"Indonesia";" 081335836330";"";"";"-8.1078542";"112.6814887";"https://maps.google.com/?cid=0x0:0x39531fcfd24b7280";""
"komplek housing";"Developer Rumah Hunian Khusus";"Perum. Bumi Bululawang Permai";"perum bumi Bululawang permai blok H no, RT.1/RW.2, Bululawang, Malang Regency, East Java 65171";"RT.1/RW.2, Bululawang, Malang Regency";"JAWA TIMUR";"65171";"Indonesia";"";"";"";"-8.0781791";"112.6476858";"https://maps.google.com/?cid=0x0:0x503ffc733182b06b";""
"komplek housing";"Komplek perumahan";"Honey Houses";"WM32+MQ9, Tanjungsari, Kuwolu, Kec. Bululawang, Kabupaten Malang, Jawa Timur 65171";"Tanjungsari, Kuwolu, Kec. Bululawang, Kabupaten Malang";"JAWA TIMUR";"65171";"Indonesia";"";"";"";"-8.0958284";"112.6519998";"https://maps.google.com/?cid=0x0:0x4bad6176de675dc9";""
"komplek housing";"Komplek perumahan";"AHA Project";"WJ3M+FC8, Dusun Sidomakmur, Lumbangsari, Kec. Bululawang, Kabupaten Malang, Jawa Timur 65171";"Dusun Sidomakmur, Lumbangsari, Kec. Bululawang, Kabupaten Malang";"JAWA TIMUR";"65171";"Indonesia";"";"";"";"-8.096436";"112.633556";"https://maps.google.com/?cid=0x0:0x485d9dbb883030e4";""
"komplek housing";"Pembangunan Perumahan";"Rumah";"Jl. KH Wahid Hasyim No.28, Dusun Gading Krajan, Gading, Kec. Bululawang, Kabupaten Malang, Jawa Timur 65171";"Dusun Gading Krajan, Gading, Kec. Bululawang, Kabupaten Malang";"JAWA TIMUR";"65171";"Indonesia";"";"";"";"-8.103498";"112.6295836";"https://maps.google.com/?cid=0x0:0x4f15d9b3fc2372bf";""
"komplek housing";"Pembangunan Perumahan";"Puri Bululawang";"WJ3X+V5F, Krebet, Kec. Bululawang, Kabupaten Malang, Jawa Timur";"Kabupaten Malang, Jawa Timur";"JAWA TIMUR";"";"Indonesia";"";"";"";"-8.0953073";"112.6479362";"https://maps.google.com/?cid=0x0:0xa5a925de49ee5564";""
"komplek housing";"Pembangunan Perumahan";"Omah e Karnoo 1";"WM34+GCC, Jl. Raya Tanjungsari, Tanjungsari, Kuwolu, Kec. Bululawang, Kabupaten Malang, Jawa Timur 65171";"Jl. Raya Tanjungsari, Tanjungsari, Kuwolu, Kec. Bululawang, Kabupaten Malang";"JAWA TIMUR";"65171";"Indonesia";"";"";"";"-8.0961926";"112.6560191";"https://maps.google.com/?cid=0x0:0x1ac1f5b6276a9798";""
"komplek housing";"komplek housing";"Perumahan de green krebet blok M1";"VJXW+57H, Blambangan, Krebet, Kec. Bululawang, Kabupaten Malang, Jawa Timur";"Kabupaten Malang, Jawa Timur";"JAWA TIMUR";"";"Indonesia";"";"";"";"-8.10207";"112.6457298";"https://maps.google.com/?cid=0x0:0x9b3d8929fb0d3745";""
"komplek housing";"komplek housing";"Homes";"WJJR+59F, Jl. Raya Bululawang, Bululawang, Kec. Bululawang, Kabupaten Malang, Jawa Timur 65171";"Jl. Raya Bululawang, Bululawang, Kec. Bululawang, Kabupaten Malang";"JAWA TIMUR";"65171";"Indonesia";"";"";"";"-8.0695547";"112.640915";"https://maps.google.com/?cid=0x0:0x4b7091a0ab3bcdc2";""
"komplek housing";"komplek housing";"Rumah Ulinn";"WJ2X+82W, Jl. Raya Krebet Tim., RT./rw:/RW.23/05, Krebet, Kec. Bululawang, Kabupaten Malang, Jawa Timur 65171";"Jl. Raya Krebet Tim., RT./rw:/RW.23/05, Krebet, Kec. Bululawang, Kabupaten Malang";"JAWA TIMUR";"65171";"Indonesia";"";"";"";"-8.0991494";"112.6475829";"https://maps.google.com/?cid=0x0:0x58e302027d17a2b4";""
"komplek housing";"Komplek perumahan";"Perumahan Graha Pratama Block C2 Bululawang";"WJJR+7GM Smpn 1, Bululawang, Kec. Bululawang, Kabupaten Malang, Jawa Timur 65171";"Bululawang, Kec. Bululawang, Kabupaten Malang";"JAWA TIMUR";"65171";"Indonesia";"";"";"";"-8.0694127";"112.6410904";"https://maps.google.com/?cid=0x0:0xcaf4b4d2f8bfd7b2";""
"komplek housing";"komplek housing";"Jawa Timur 65171";"Kec. Bululawang, Kabupaten Malang, Jawa Timur";"Kabupaten Malang, Jawa Timur";"JAWA TIMUR";"";"Indonesia";"";"";"";"-8.1129703";"112.6556213";"https://maps.google.com/?cid=0x0:0x1c00c5eb5b5413b0";""
"komplek housing";"Komplek perumahan";"dhs";"WJMR+9M2, Sidomukti, Wandanpuro, Kec. Bululawang, Kabupaten Malang, Jawa Timur 65171";"Sidomukti, Wandanpuro, Kec. Bululawang, Kabupaten Malang";"JAWA TIMUR";"65171";"Indonesia";"";"";"";"-8.0666177";"112.6416299";"https://maps.google.com/?cid=0x0:0x1d9afd7a32e98097";""
"komplek housing";"komplek housing";"adibah home";"VJPR+C74, jl.alhidayah, RT.32/RW.007, Bulupayung, Krebet, Kec. Bululawang, Kabupaten Malang, Jawa Timur 65171";"jl.alhidayah, RT.32/RW.007, Bulupayung, Krebet, Kec. Bululawang, Kabupaten Malang";"JAWA TIMUR";"65171";"Indonesia";"";"";"";"-8.1139812";"112.6407003";"https://maps.google.com/?cid=0x0:0x9b503c2df5cb0107";""
"komplek housing";"Pembangunan Perumahan";"Home";"Perum de green, Blok K15, Blambangan, Krebet, Bululawang, Malang Regency, East Java 65171";"Blok K15, Blambangan, Krebet, Bululawang, Malang Regency";"JAWA TIMUR";"65171";"Indonesia";"";"";"";"-8.1017723";"112.6452047";"https://maps.google.com/?cid=0x0:0xe773c0268d70ca5b";""
"komplek housing";"Komplek perumahan";"Rumah Melia";"Jl. Sidorejo I No.72, RT.37/RW.11, Sidorejo, Wandanpuro, Kec. Bululawang, Kabupaten Malang, Jawa Timur 65171";"RT.37/RW.11, Sidorejo, Wandanpuro, Kec. Bululawang, Kabupaten Malang";"JAWA TIMUR";"65171";"Indonesia";"";"";"";"-8.0736646";"112.6303137";"https://maps.google.com/?cid=0x0:0x6b590c598ebac3ff";""
"komplek housing";"Komplek perumahan";"Omah ee bagas";"Jl. Raya P.Diponegoro No.14, Sumbersari, Pringu, Kec. Bululawang, Kabupaten Malang, Jawa Timur 65171";"Sumbersari, Pringu, Kec. Bululawang, Kabupaten Malang";"JAWA TIMUR";"65171";"Indonesia";"";"";"";"-8.0984026";"112.6788749";"https://maps.google.com/?cid=0x0:0x32e0f7d0f8dee9a5";""
"komplek housing";"";"PERUMAHAN PINANG GARDEN";"WJFR+Q7H, Jl. Raya, Bululawang, Kec. Bululawang, Kabupaten Malang, Jawa Timur 65171";"Jl. Raya, Bululawang, Kec. Bululawang, Kabupaten Malang";"JAWA TIMUR";"65171";"Indonesia";" 082245540969";"";"";"-8.0755738";"112.6407363";"https://maps.google.com/?cid=0x0:0xe121db8bd0c0cc88";""
"komplek housing";"Komplek perumahan";"Mujadi";"Jl. Sidomukti No.51, Sidomukti, Wandanpuro, Kec. Bululawang, Kabupaten Malang, Jawa Timur 65171";"Sidomukti, Wandanpuro, Kec. Bululawang, Kabupaten Malang";"JAWA TIMUR";"65171";"Indonesia";"";"";"";"-8.0672435";"112.6351961";"https://maps.google.com/?cid=0x0:0x8d34cb728e8326f";""
"komplek housing";"komplek housing";"Dampit";"Dampit Wetan, Dampit, Kec. Dampit, Kabupaten Malang, Jawa Timur";"Kabupaten Malang, Jawa Timur";"JAWA TIMUR";"";"Indonesia";"";"";"";"-8.208461";"112.7556";"https://maps.google.com/?cid=0x0:0xb4520ec491191bb";""
"komplek housing";"komplek housing";"Jawa Timur 65181";"Kec. Dampit, Kabupaten Malang, Jawa Timur";"Kabupaten Malang, Jawa Timur";"JAWA TIMUR";"";"Indonesia";"";"";"";"-8.248881";"112.7748002";"https://maps.google.com/?cid=0x0:0x1c00c5eb5b541430";""
"komplek housing";"komplek housing";"Cikashop";"Jl. Ubalan, RT.etan Rt03/RW.15, Ubalan, Pamotan, Kec. Dampit, Kabupaten Malang, Jawa Timur 65181";"RT.etan Rt03/RW.15, Ubalan, Pamotan, Kec. Dampit, Kabupaten Malang";"JAWA TIMUR";"65181";"Indonesia";"";"";"";"-8.2000654";"112.758414";"https://maps.google.com/?cid=0x0:0x79a97207572dccf7";""
"komplek housing";"Komplek perumahan";"Rumah Mbah";"QQRM+C2G, RT.005/RW.002, Amadanom Tengah, Amadanom, Kec. Dampit, Kabupaten Malang, Jawa Timur 65181";"RT.005/RW.002, Amadanom Tengah, Amadanom, Kec. Dampit, Kabupaten Malang";"JAWA TIMUR";"65181";"Indonesia";"";"";"";"-8.2089411";"112.7825757";"https://maps.google.com/?cid=0x0:0x6f44e86dd52028cc";""
"komplek housing";"komplek housing";"Rumah Yudha (YUNANI CELL)";"Jl. Ngurawan No.130, Ubalan, Pamotan, Kec. Dampit, Kabupaten Malang, Jawa Timur 65181";"Ubalan, Pamotan, Kec. Dampit, Kabupaten Malang";"JAWA TIMUR";"65181";"Indonesia";"";"";"";"-8.1964322";"112.7633517";"https://maps.google.com/?cid=0x0:0xf385834fa089a72c";""
"komplek housing";"Komplek perumahan";"Yadi House";"RP7P+FHV, Gn. Pecel Pitik, Pamotan, Kec. Dampit, Kabupaten Malang, Jawa Timur 65181";"Gn. Pecel Pitik, Pamotan, Kec. Dampit, Kabupaten Malang";"JAWA TIMUR";"65181";"Indonesia";"";"";"";"-8.1862519";"112.7364322";"https://maps.google.com/?cid=0x0:0xcb3e840fef316c7";""
"komplek housing";"Komplek perumahan";"home vivi";"QPM9+7RR, Lambang Kuning, Majangtengah, Kec. Dampit, Kabupaten Malang, Jawa Timur 65181";"Lambang Kuning, Majangtengah, Kec. Dampit, Kabupaten Malang";"JAWA TIMUR";"65181";"Indonesia";"";"";"";"-8.2155129";"112.7197889";"https://maps.google.com/?cid=0x0:0x9f3911a0ddafb77d";""
"komplek housing";"komplek housing";"Irfan efendi";"QPPR+2XQ, Kavlingan, kandangan belakang pasar hewan, Sumberayu, Dampit, Kec. Dampit, Kabupaten Malang, Jawa Timur 65181";"Kavlingan, kandangan belakang pasar hewan, Sumberayu, Dampit, Kec. Dampit, Kabupaten Malang";"JAWA TIMUR";"65181";"Indonesia";"";"";"";"-8.214911";"112.7424932";"https://maps.google.com/?cid=0x0:0xf1ded0710e93f090";""
"komplek housing";"Rumah wisata";"Kristiono homestay";"Jl. Semeru Sel. No.176, Dampit, Kec. Dampit, Kabupaten Malang, Jawa Timur 65181";"Dampit, Kec. Dampit, Kabupaten Malang";"JAWA TIMUR";"65181";"Indonesia";"";"";"";"-8.2122791";"112.7498991";"https://maps.google.com/?cid=0x0:0x70444e9e4930cd38";""
"komplek housing";"Komplek perumahan";"Omhe dimas prayoga";"Jalan Ngurawan RT.05 RW.01 Bendolawang, Bendolawang, Pamotan, Kec. Dampit, Kabupaten Malang, Jawa Timur 65181";"Bendolawang, Pamotan, Kec. Dampit, Kabupaten Malang";"JAWA TIMUR";"65181";"Indonesia";"";"";"";"-8.2039575";"112.7576885";"https://maps.google.com/?cid=0x0:0xa90a5a38b24ec55e";""
"komplek housing";"Komplek perumahan";"ILHAM HOME";"QPR9+QXV, Lambang Kuning, Majangtengah, Kec. Dampit, Kabupaten Malang, Jawa Timur 65181";"Lambang Kuning, Majangtengah, Kec. Dampit, Kabupaten Malang";"JAWA TIMUR";"65181";"Indonesia";"";"";"";"-8.2080717";"112.7200997";"https://maps.google.com/?cid=0x0:0x411f468c477f9a71";""
"komplek housing";"Komplek perumahan";"Khojin's house";"RPFP+W85, Jegong, Jambangan, Kec. Dampit, Kabupaten Malang, Jawa Timur 65181";"Jegong, Jambangan, Kec. Dampit, Kabupaten Malang";"JAWA TIMUR";"65181";"Indonesia";"";"";"";"-8.1753992";"112.7356089";"https://maps.google.com/?cid=0x0:0xa617140fcc886d17";""
"komplek housing";"komplek housing";"OkjAZ-HINO6e4-EP8pSK-Q0"-,null,null,null,null,null,1,null,null,null,null,null,null,null,null,null,null,null,null,null,-null," (Pemilik)";"";"";"JAWA TIMUR";"";"Indonesia";"";"";"";"";"";"https://maps.google.com/?cid=0x0:0x3c9fbba0965d3b8f";""
"komplek housing";"Perumahan";"Dila white house";"RQJ6+4R6, Indonesiaho, Jl. Matahari, Sumbersari, Jambangan, Kec. Dampit, Kabupaten Malang, Jawa Timur 65181";"Indonesiaho, Jl. Matahari, Sumbersari, Jambangan, Kec. Dampit, Kabupaten Malang";"JAWA TIMUR";"65181";"Indonesia";"";"";"";"-8.169467";"112.7621423";"https://maps.google.com/?cid=0x0:0xf35efc31a565f40d";""
"komplek housing";"komplek housing";"Jaya Family";"RP6V+XWR, Jl. Sulawesi, RT.01/RW.10, Dawuhan, Pamotan, Kec. Dampit, Kabupaten Malang, Jawa Timur 65181";"Jl. Sulawesi, RT.01/RW.10, Dawuhan, Pamotan, Kec. Dampit, Kabupaten Malang";"JAWA TIMUR";"65181";"Indonesia";"";"";"";"-8.1875063";"112.7447683";"https://maps.google.com/?cid=0x0:0x5356c830069ecf10";""
"komplek housing";"Pembangunan Perumahan";"Omah ku";"RP6J+7R2, Pamotan, Kec. Dampit, Kabupaten Malang, Jawa Timur 65181";"Pamotan, Kec. Dampit, Kabupaten Malang";"JAWA TIMUR";"65181";"Indonesia";"";"";"";"-8.1893744";"112.7320086";"https://maps.google.com/?cid=0x0:0xee1cfa84d1baf9e9";""
"komplek housing";"Perhimpunan Pengembang Perumahan";"Azkha's House";"QQP5+Q45, Jl. Gunung Jati, Gn. Kelop, Dampit, Kec. Dampit, Kabupaten Malang, Jawa Timur 65181";"Jl. Gunung Jati, Gn. Kelop, Dampit, Kec. Dampit, Kabupaten Malang";"JAWA TIMUR";"65181";"Indonesia";"";"";"";"-8.2131019";"112.7578522";"https://maps.google.com/?cid=0x0:0x816212ca8c5d6f50";""
"komplek housing";"Komplek perumahan";"Shania";"RQ34+VH4, Ubalan, Pamotan, Kec. Dampit, Kabupaten Malang, Jawa Timur 65181";"Ubalan, Pamotan, Kec. Dampit, Kabupaten Malang";"JAWA TIMUR";"65181";"Indonesia";"";"";"";"-8.1953552";"112.7564676";"https://maps.google.com/?cid=0x0:0x4808090db7f1cd1";""
"komplek housing";"Komplek perumahan";"Rumah dicka / joko RW";"RP3R+J9G, Jl. Darmo, RT.02/RW.05, Dawuhan, Pamotan, Kec. Dampit, Kabupaten Malang, Jawa Timur 65181";"Jl. Darmo, RT.02/RW.05, Dawuhan, Pamotan, Kec. Dampit, Kabupaten Malang";"JAWA TIMUR";"65181";"Indonesia";"";"";"";"-8.1959339";"112.7409546";"https://maps.google.com/?cid=0x0:0x2b41bd0a1c686221";""
"komplek housing";"komplek housing";"Kavling dpr dampit";"QQQ9+9GW, Sumberkembar, Dampit, Kec. Dampit, Kabupaten Malang, Jawa Timur 65181";"Sumberkembar, Dampit, Kec. Dampit, Kabupaten Malang";"JAWA TIMUR";"65181";"Indonesia";"";"";"";"-8.2112477";"112.7688562";"https://maps.google.com/?cid=0x0:0x84006f211f3a83f8";""
"komplek housing";"Komplek perumahan";"Konteng";"QQM4+6V3, Jl. Tunggorono, Dampit Wetan, Dampit, Kec. Dampit, Kabupaten Malang, Jawa Timur 65181";"Jl. Tunggorono, Dampit Wetan, Dampit, Kec. Dampit, Kabupaten Malang";"JAWA TIMUR";"65181";"Indonesia";"";"";"";"-8.2170512";"112.7570713";"https://maps.google.com/?cid=0x0:0x56d324723ff55703";""
"komplek housing";"komplek housing";"CHOKY";"QQR4+J69, Gn. Kelop, Dampit, Kec. Dampit, Kabupaten Malang, Jawa Timur 65181";"Gn. Kelop, Dampit, Kec. Dampit, Kabupaten Malang";"JAWA TIMUR";"65181";"Indonesia";"";"";"";"-8.208461";"112.7556";"https://maps.google.com/?cid=0x0:0xfb06fd8b5e9151b8";""
"komplek housing";"Perumahan";"Perumahan Dau Sakinah Residence";"3HM8+FF2, Jl. Diponegoro, Banjartengah, Sumbersekar, Kec. Dau, Kabupaten Malang, Jawa Timur 65151";"Jl. Diponegoro, Banjartengah, Sumbersekar, Kec. Dau, Kabupaten Malang";"JAWA TIMUR";"65151";"Indonesia";"";"";"";"-7.9163697";"112.5661255";"https://maps.google.com/?cid=0x0:0x1eb5a6dbf9ad9abd";""
"komplek housing";"Kantor Perusahaan";"Cluster Haqiqi Residence";"3HH8+M37, Jl. Locari, Krajan, Sumbersekar, Kec. Dau, Kabupaten Malang, Jawa Timur 65151";"Jl. Locari, Krajan, Sumbersekar, Kec. Dau, Kabupaten Malang";"JAWA TIMUR";"65151";"Indonesia";" 085785250009";"";"";"-7.9208274";"112.5651786";"https://maps.google.com/?cid=0x0:0x3baeb45db5eaf024";""
"komplek housing";"Komplek perumahan";"Perumahan Bumi Podo Rukun Blok A1-09";"Blk. A, Krajan, Sumbersekar, Kec. Dau, Kabupaten Malang, Jawa Timur 65151";"Krajan, Sumbersekar, Kec. Dau, Kabupaten Malang";"JAWA TIMUR";"65151";"Indonesia";"";"";"";"-7.9247627";"112.5621289";"https://maps.google.com/?cid=0x0:0x8497d6b5cd865f5d";""
"komplek housing";"Pembangunan Perumahan";"Perumahan Dau Residence Blok B-9";"Perumahan Jl. Dau Residence blok B9, Krajan, Sumbersekar, Kec. Dau, Kabupaten Malang, Jawa Timur 65151";"Krajan, Sumbersekar, Kec. Dau, Kabupaten Malang";"JAWA TIMUR";"65151";"Indonesia";"";"";"";"-7.922377";"112.5647529";"https://maps.google.com/?cid=0x0:0xcdf20a15a3eda33f";""
"komplek housing";"Rumah Kaca";"Le Banna Residence";"Jl. Jambu, Semanding, Sumbersekar, Kec. Dau, Kabupaten Malang, Jawa Timur 65151";"Semanding, Sumbersekar, Kec. Dau, Kabupaten Malang";"JAWA TIMUR";"65151";"Indonesia";" 085204805858";"";"/url?q>>u003dhttp://lebannaresidence.blogspot.co.id/%3Fm%3D1>>u0026opi>>u003d79508299>>u0026sa>>u003dU>>u0026ved>>u003d0ahUKEwik1cmA3OOLAxXiUGwGHRIVIrwQ61gIFigS>>u0026usg>>u003dAOvVaw1VNqpds9HYBz-R_nnzTBsV";"-7.9276267";"112.5728948";"https://maps.google.com/?cid=0x0:0x7d97601255ed7090";""
"komplek housing";"Komplek perumahan";"Nadhifa house";"3H8F+562, Dusun Klandungan, Landungsari, Kec. Dau, Kabupaten Malang, Jawa Timur 65151";"Dusun Klandungan, Landungsari, Kec. Dau, Kabupaten Malang";"JAWA TIMUR";"65151";"Indonesia";"";"";"";"-7.9346006";"112.5730174";"https://maps.google.com/?cid=0x0:0xd24e1f5824893168";""
"komplek housing";"Pembangunan Perumahan";"Dau Hills Residence";"2HPG+5J5, Lokanden Kidul, Kalisongo, Kec. Dau, Kabupaten Malang, Jawa Timur 65151";"Lokanden Kidul, Kalisongo, Kec. Dau, Kabupaten Malang";"JAWA TIMUR";"65151";"Indonesia";"";"";"";"-7.9646232";"112.5766243";"https://maps.google.com/?cid=0x0:0x3fd495f3f24cf46c";""
"komplek housing";"Komplek perumahan";"Kediaman H. Saipul Imam, M.H";"3H76+223, Krajan, Tegalweru, Kec. Dau, Kabupaten Malang, Jawa Timur 65151";"Krajan, Tegalweru, Kec. Dau, Kabupaten Malang";"JAWA TIMUR";"65151";"Indonesia";"";"";"";"-7.9374885";"112.5600473";"https://maps.google.com/?cid=0x0:0x2be2b65b525246b5";""
"komplek housing";"Komplek perumahan";"Oemah mburi";"3H62+352, Jl. Raya Torejo, Selorejo, Kec. Dau, Kabupaten Malang, Jawa Timur 65151";"Jl. Raya Torejo, Selorejo, Kec. Dau, Kabupaten Malang";"JAWA TIMUR";"65151";"Indonesia";"";"";"";"-7.9400504";"112.5508664";"https://maps.google.com/?cid=0x0:0xf0c20fa637dc1e70";""
"komplek housing";"Komplek perumahan";"Griya Dau Inside";"3HM6+4G3, Jl. Sedap Malam, RT.07/RW.004, Banjartengah, Sumbersekar, Kec. Dau, Kabupaten Malang, Jawa Timur 65151";"Jl. Sedap Malam, RT.07/RW.004, Banjartengah, Sumbersekar, Kec. Dau, Kabupaten Malang";"JAWA TIMUR";"65151";"Indonesia";"";"";"";"-7.9167214";"112.5619335";"https://maps.google.com/?cid=0x0:0x9bdfdd9f4db3f389";""
"komplek housing";"Pembangunan Perumahan";"TANAH MILIK KOL. BAMBANG";"3HH4+C6Q, Jl. Locari, Krajan, Sumbersekar, Kec. Dau, Kabupaten Malang, Jawa Timur 65151";"Jl. Locari, Krajan, Sumbersekar, Kec. Dau, Kabupaten Malang";"JAWA TIMUR";"65151";"Indonesia";" 081649488801";"";"";"-7.9214578";"112.5551419";"https://maps.google.com/?cid=0x0:0x6f4a62f4235cae74";""
"komplek housing";"komplek housing";"Perum Royal Orchid E30";"3H9C+XV7, Jetak Ngasri, Mulyoagung, Kec. Dau, Kabupaten Malang, Jawa Timur 65151";"Jetak Ngasri, Mulyoagung, Kec. Dau, Kabupaten Malang";"JAWA TIMUR";"65151";"Indonesia";"";"";"";"-7.9300755";"112.5721786";"https://maps.google.com/?cid=0x0:0x91ef2b4f06eede5f";""
"komplek housing";"Komplek perumahan";"The sultan regency komplek C1 KH DARA";"3HG8+7CJ, Jl. Sumber Tugu, Krajan, Sumbersekar, Kec. Dau, Kabupaten Malang, Jawa Timur 65151";"Jl. Sumber Tugu, Krajan, Sumbersekar, Kec. Dau, Kabupaten Malang";"JAWA TIMUR";"65151";"Indonesia";"";"";"";"-7.9238364";"112.5662485";"https://maps.google.com/?cid=0x0:0xdd1415a787024041";""
"komplek housing";"komplek housing";"Perumahan Bumi Podo Rukun Blok B1-10";"Perumahan Bumi Podo Rukun Blok B1/10, Sumbersekar, Kec. Dau, Kabupaten Malang";"Kabupaten Malang, Jawa Timur";"JAWA TIMUR";"";"Indonesia";"";"";"";"-7.9249104";"112.5605619";"https://maps.google.com/?cid=0x0:0xe4923f64b4507144";""
"komplek housing";"Komplek perumahan";"Stefani House";"3HGH+6P5, Jl. Gotong Royong I, Jetak Ngasri, Mulyoagung, Kec. Dau, Kabupaten Malang, Jawa Timur 65151";"Jl. Gotong Royong I, Jetak Ngasri, Mulyoagung, Kec. Dau, Kabupaten Malang";"JAWA TIMUR";"65151";"Indonesia";"";"";"";"-7.9244798";"112.5793644";"https://maps.google.com/?cid=0x0:0x3167d15d54e5c18e";""
"komplek housing";"komplek housing";"Shanti ismail";"3HGC+43X, Semanding, Sumbersekar, Kec. Dau, Kabupaten Malang, Jawa Timur 65151";"Semanding, Sumbersekar, Kec. Dau, Kabupaten Malang";"JAWA TIMUR";"65151";"Indonesia";"";"";"";"-7.9246248";"112.5702464";"https://maps.google.com/?cid=0x0:0xc3fea4c2d3f4f5bd";""
"komplek housing";"Komplek perumahan";"TALITHA HOUSE";"Jl. Locari No.29C RT03, RW.03, Krajan, Sumbersekar, Kec. Dau, Kabupaten Malang, Jawa Timur 65151";"RW.03, Krajan, Sumbersekar, Kec. Dau, Kabupaten Malang";"JAWA TIMUR";"65151";"Indonesia";"";"";"";"-7.9210152";"112.5635653";"https://maps.google.com/?cid=0x0:0xf5cff292106a2f10";""
"komplek housing";"komplek housing";"House of Fahruddin Family";"3H8C+57F, Jetak Ngasri, Tegalweru, Kec. Dau, Kabupaten Malang, Jawa Timur 65151";"Jetak Ngasri, Tegalweru, Kec. Dau, Kabupaten Malang";"JAWA TIMUR";"65151";"Indonesia";"";"";"";"-7.934161";"112.571239";"https://maps.google.com/?cid=0x0:0xc8dd636978e0e235";""
"komplek housing";"komplek housing";"Omah";"3G7P+R8R, Selorejo, Kec. Dau, Kabupaten Malang, Jawa Timur 65151";"Selorejo, Kec. Dau, Kabupaten Malang";"JAWA TIMUR";"65151";"Indonesia";"";"";"";"-7.9353922";"112.5357713";"https://maps.google.com/?cid=0x0:0x56d1f54bad8933e9";""
"komplek housing";"komplek housing";"Jawa Timur 65151";"Kec. Dau, Kabupaten Malang, Jawa Timur";"Kabupaten Malang, Jawa Timur";"JAWA TIMUR";"";"Indonesia";"";"";"";"-7.9363411";"112.5364292";"https://maps.google.com/?cid=0x0:0x1c00c5eb5b5412c0";""
"komplek housing";"Komplek perumahan";"Eduhill Residence 1";"3H9M+458, Dusun Klandungan, Landungsari, Kec. Dau, Kabupaten Malang, Jawa Timur 65151";"Dusun Klandungan, Landungsari, Kec. Dau, Kabupaten Malang";"JAWA TIMUR";"65151";"Indonesia";"";"";"";"-7.932213";"112.5829634";"https://maps.google.com/?cid=0x0:0x7814e1636dbbb379";""
"komplek housing";"komplek housing";"Kos Embong Anyar (kos putra)";"Jl. Perumahan Taman Embrong Anyar II Blok 2 C10, Jetis, Mulyoagung, Kec. Dau, Kabupaten Malang, Jawa Timur 65151";"Jetis, Mulyoagung, Kec. Dau, Kabupaten Malang";"JAWA TIMUR";"65151";"Indonesia";"";"";"";"-7.9218939";"112.5901824";"https://maps.google.com/?cid=0x0:0xe5eb989c3a2df7c1";""
"komplek housing";"Perhimpunan Pengembang Perumahan";"My Future House";"Perum Jl. Oma Campus No.A3-01, Dusun Klandungan, Landungsari, Dau, Malang Regency, East Java 65151";"Dusun Klandungan, Landungsari, Dau, Malang Regency";"JAWA TIMUR";"65151";"Indonesia";"";"";"";"-7.9281375";"112.5831894";"https://maps.google.com/?cid=0x0:0xecf39adc66bc7d6c";""
"komplek housing";"Komplek perumahan";"omah zoel";"3HGR+JM7, Jetis, Mulyoagung, Kec. Dau, Kabupaten Malang, Jawa Timur 65151";"Jetis, Mulyoagung, Kec. Dau, Kabupaten Malang";"JAWA TIMUR";"65151";"Indonesia";" 081359290175";"";"";"-7.9232826";"112.5917151";"https://maps.google.com/?cid=0x0:0x72bc91dc7a750a0a";""
"komplek housing";"Komplek perumahan";"Home Sweet Home 4";"3HJR+363, Jl. Margojoyo Gg. II, Jetis, Mulyoagung, Kec. Dau, Kabupaten Malang, Jawa Timur 65151";"Jl. Margojoyo Gg. II, Jetis, Mulyoagung, Kec. Dau, Kabupaten Malang";"JAWA TIMUR";"65151";"Indonesia";"";"";"";"-7.9198741";"112.5905321";"https://maps.google.com/?cid=0x0:0x9552201dc8fa071a";""
"komplek housing";"Komplek perumahan";"Flav Hill Residence";"3H7M+MJJ, Dusun Klandungan, Landungsari, Kec. Dau, Kabupaten Malang, Jawa Timur 65151";"Dusun Klandungan, Landungsari, Kec. Dau, Kabupaten Malang";"JAWA TIMUR";"65151";"Indonesia";"";"";"";"-7.9357814";"112.5840009";"https://maps.google.com/?cid=0x0:0x54d4f711dcf23342";""
"komplek housing";"Komplek perumahan";"KONSKUY";"Jl. Perumahan Taman Embrong Anyar II No.1 Blok. P, Jetis, Mulyoagung, Kec. Dau, Kabupaten Malang, Jawa Timur 65151";"Jetis, Mulyoagung, Kec. Dau, Kabupaten Malang";"JAWA TIMUR";"65151";"Indonesia";"";"";"";"-7.9235828";"112.5898456";"https://maps.google.com/?cid=0x0:0xbdeaec21fee76d90";""
"komplek housing";"komplek housing";"Rumah Sahal";"3HCW+GG3, Jl. Tirtomoyo, Dusun Rambaan, Landungsari, Kec. Dau, Kabupaten Malang, Jawa Timur 65151";"Jl. Tirtomoyo, Dusun Rambaan, Landungsari, Kec. Dau, Kabupaten Malang";"JAWA TIMUR";"65151";"Indonesia";"";"";"";"-7.9287196";"112.5962916";"https://maps.google.com/?cid=0x0:0x20ebfc58bb108124";""
"komplek housing";"Komplek perumahan";"Garasi";"Jl. Anggur No.17 No.8 Kav, Dermo, Mulyoagung, Dau, Malang Regency, East Java 65151";"Dermo, Mulyoagung, Dau, Malang Regency";"JAWA TIMUR";"65151";"Indonesia";"";"";"";"-7.927584";"112.592";"https://maps.google.com/?cid=0x0:0x46a1f3a2167021e1";""
"komplek housing";"komplek housing";"Kepala dusun";"MCG8+52V, Gondang Rejo, Mentaraman, Kec. Donomulyo, Kabupaten Malang, Jawa Timur 65167";"Gondang Rejo, Mentaraman, Kec. Donomulyo, Kabupaten Malang";"JAWA TIMUR";"65167";"Indonesia";" 082337036300";"";"";"-8.324248";"112.415324";"https://maps.google.com/?cid=0x0:0xe7d3ce91c076678c";""
"komplek housing";"Komplek perumahan";"Rumah Mbah soikem";"Tempursari Utara, Tempursari, Kec. Donomulyo, Kabupaten Malang, Jawa Timur 65167";"Tempursari, Kec. Donomulyo, Kabupaten Malang";"JAWA TIMUR";"65167";"Indonesia";"";"";"";"-8.2926022";"112.446028";"https://maps.google.com/?cid=0x0:0xcab94bd10095a596";""
"komplek housing";"Pembangunan Perumahan";"MULYONO home";"PCCM+892, Mulyosari, Dono Mulyo, Kec. Donomulyo, Kabupaten Malang, Jawa Timur 65167";"Mulyosari, Dono Mulyo, Kec. Donomulyo, Kabupaten Malang";"JAWA TIMUR";"65167";"Indonesia";" 085791313577";"";"";"-8.2795572";"112.4323802";"https://maps.google.com/?cid=0x0:0xeb92b846f0351982";""
"komplek housing";"Pembangunan Perumahan";"Sakinah Kos";"PC4G+H39, Donomulyo, Dono Mulyo, Kec. Donomulyo, Kabupaten Malang, Jawa Timur 65167";"Donomulyo, Dono Mulyo, Kec. Donomulyo, Kabupaten Malang";"JAWA TIMUR";"65167";"Indonesia";" 081230082008";"";"";"-8.2934692";"112.425339";"https://maps.google.com/?cid=0x0:0xbe8522d1ce5bacb1";""
"komplek housing";"komplek housing";"Rumah Kentong";"PC4P+6WR, Donomulyo, Dono Mulyo, Kec. Donomulyo, Kabupaten Malang, Jawa Timur";"Kabupaten Malang, Jawa Timur";"JAWA TIMUR";"";"Indonesia";"";"";"";"-8.2942608";"112.4373413";"https://maps.google.com/?cid=0x0:0x753c8219b84d4b8d";""
"komplek housing";"komplek housing";"ARUM";"MFF2+F58, Jl. Pakis Gede, Krajan Kedungsalam, Kedungsalam, Kec. Donomulyo, Kabupaten Malang, Jawa Timur 65167";"Jl. Pakis Gede, Krajan Kedungsalam, Kedungsalam, Kec. Donomulyo, Kabupaten Malang";"JAWA TIMUR";"65167";"Indonesia";"";"";"";"-8.3263283";"112.4504626";"https://maps.google.com/?cid=0x0:0x71df38283a39b6e8";""
"komplek housing";"Komplek perumahan";"Muhendo asri Residence";"MCWR+H9Q, RT.14, Tempursari Utara, Tempursari, Kec. Donomulyo, Kabupaten Malang, Jawa Timur 65167";"RT.14, Tempursari Utara, Tempursari, Kec. Donomulyo, Kabupaten Malang";"JAWA TIMUR";"65167";"Indonesia";"";"";"";"-8.3035492";"112.4409877";"https://maps.google.com/?cid=0x0:0x7ee6ee064ba5c943";""
"komplek housing";"Hotel";"Rumah Erick";"PC8F+483, Donomulyo, Dono Mulyo, Kec. Donomulyo, Kabupaten Malang, Jawa Timur";"Kabupaten Malang, Jawa Timur";"JAWA TIMUR";"";"Indonesia";"";"";"";"-8.2847462";"112.4233049";"https://maps.google.com/?cid=0x0:0xa44375e5c84ffc1b";""
"komplek housing";"komplek housing";"Rumah mbok e";"MCMC+593, Gondang Towo, Mentaraman, Kec. Donomulyo, Kabupaten Malang, Jawa Timur 65167";"Gondang Towo, Mentaraman, Kec. Donomulyo, Kabupaten Malang";"JAWA TIMUR";"65167";"Indonesia";"";"";"";"-8.3171579";"112.4208651";"https://maps.google.com/?cid=0x0:0x6edf4c1cfb5c1803";""
"komplek housing";"Komplek perumahan";"SUWANDI";"MCFC+WXV, Muntaran, Mentaraman, Kec. Donomulyo, Kabupaten Malang, Jawa Timur 65167";"Muntaran, Mentaraman, Kec. Donomulyo, Kabupaten Malang";"JAWA TIMUR";"65167";"Indonesia";"";"";"";"-8.3241375";"112.4219826";"https://maps.google.com/?cid=0x0:0xf8a049ccea9ec09f";""
"komplek housing";"Komplek perumahan";"Rumah B.Dami";"MFGQ+W6, Putukrejo, Banjarejo, Kec. Donomulyo, Kabupaten Malang, Jawa Timur 65167";"Putukrejo, Banjarejo, Kec. Donomulyo, Kabupaten Malang";"JAWA TIMUR";"65167";"Indonesia";"";"";"";"-8.3227066";"112.488113";"https://maps.google.com/?cid=0x0:0xe50575e29bea2a7f";""
"komplek housing";"Pembangunan Perumahan";"Mbendho,banjarejo,donomulyo,malang,jawa timur,indonesia";"MF5G+H8W, Njero, Banjarejo, Kec. Donomulyo, Kabupaten Malang, Jawa Timur 65167";"Njero, Banjarejo, Kec. Donomulyo, Kabupaten Malang";"JAWA TIMUR";"65167";"Indonesia";"";"";"";"-8.3410062";"112.4758154";"https://maps.google.com/?cid=0x0:0x9fc8a1da5b45aba7";""
"komplek housing";"komplek housing";"House of kafcreator";"PCFH+5JJ, Donomulyo, Dono Mulyo, Kec. Donomulyo, Kabupaten Malang, Jawa Timur 65167";"Donomulyo, Dono Mulyo, Kec. Donomulyo, Kabupaten Malang";"JAWA TIMUR";"65167";"Indonesia";"";"";"";"-8.2770274";"112.4290026";"https://maps.google.com/?cid=0x0:0xe3538699e05ac665";""
"komplek housing";"Komplek perumahan";"Ibu Mudah";"PF43+PJW, Sumbergentong Utara, Tempursari, Kec. Donomulyo, Kabupaten Malang, Jawa Timur";"Kabupaten Malang, Jawa Timur";"JAWA TIMUR";"";"Indonesia";"";"";"";"-8.2926358";"112.4543223";"https://maps.google.com/?cid=0x0:0x41022421cfaaaa4f";""
"komplek housing";"Komplek perumahan";"Rumah DEDIT";"MFQG+V37, Banjarejo, Kec. Donomulyo, Kabupaten Malang, Jawa Timur 65167";"Banjarejo, Kec. Donomulyo, Kabupaten Malang";"JAWA TIMUR";"65167";"Indonesia";"";"";"";"-8.3103856";"112.4751896";"https://maps.google.com/?cid=0x0:0x1c8911fdcfc3a54c";""
"komplek housing";"Komplek perumahan";"Ardianzyah,samin barokah";"MCHH+G5X, Muntaran, Mentaraman, Kec. Donomulyo, Kabupaten Malang, Jawa Timur 65167";"Muntaran, Mentaraman, Kec. Donomulyo, Kabupaten Malang";"JAWA TIMUR";"65167";"Indonesia";"";"";"";"-8.320712";"112.427619";"https://maps.google.com/?cid=0x0:0xeca9fe46aa466f25";""
"komplek housing";"Rumah wisata";"RUMAH SINGGAH KASMINI";"Jl. Hasanudin No.1, Mulyosari, Dono Mulyo, Kec. Donomulyo, Kabupaten Malang, Jawa Timur 65167";"Mulyosari, Dono Mulyo, Kec. Donomulyo, Kabupaten Malang";"JAWA TIMUR";"65167";"Indonesia";"";"";"";"-8.2881065";"112.4327543";"https://maps.google.com/?cid=0x0:0x2e0ef4aaea56158e";""
"komplek housing";"Komplek perumahan";"rumah nurul inayah";"MFJH+QJ7, Pasarpon, Banjarejo, Kec. Donomulyo, Kabupaten Malang, Jawa Timur 65167";"Pasarpon, Banjarejo, Kec. Donomulyo, Kabupaten Malang";"JAWA TIMUR";"65167";"Indonesia";" 0858559221237";"";"";"-8.3180987";"112.479061";"https://maps.google.com/?cid=0x0:0x97100dd3384b2e8a";""
"komplek housing";"komplek housing";"Rumah ERMIADI";"MC6W+VR5, Jl. Pakis Gede, Kedungrejo, Kedungsalam, Kec. Donomulyo, Kabupaten Malang, Jawa Timur 65167";"Jl. Pakis Gede, Kedungrejo, Kedungsalam, Kec. Donomulyo, Kabupaten Malang";"JAWA TIMUR";"65167";"Indonesia";"";"";"";"-8.3375866";"112.4474451";"https://maps.google.com/?cid=0x0:0xded4da83be6617ed";""
"komplek housing";"Perhimpunan Pengembang Perumahan";"Rumah Efendi Pangestu";"Mulyosari, Dono Mulyo, Kec. Donomulyo, Kabupaten Malang, Jawa Timur 65167";"Dono Mulyo, Kec. Donomulyo, Kabupaten Malang";"JAWA TIMUR";"65167";"Indonesia";"";"";"";"-8.2802403";"112.4330672";"https://maps.google.com/?cid=0x0:0x87ba65fa88922c3b";""
"komplek housing";"komplek housing";"Jawa Timur 65167";"Kabupaten Malang, Jawa Timur";"Kabupaten Malang, Jawa Timur";"JAWA TIMUR";"";"Indonesia";"";"";"";"-8.3191513";"112.4529878";"https://maps.google.com/?cid=0x0:0x1c00c5eb5b541390";""
"komplek housing";"komplek housing";"Lento home";"PCR3+675, Jl. Raya Karangrejo, Karangrejo Selatan, Purworejo, Kec. Donomulyo, Kabupaten Malang, Jawa Timur 65167";"Jl. Raya Karangrejo, Karangrejo Selatan, Purworejo, Kec. Donomulyo, Kabupaten Malang";"JAWA TIMUR";"65167";"Indonesia";"";"";"";"-8.2597334";"112.4031853";"https://maps.google.com/?cid=0x0:0xc4c13db6e0212cf";""
"komplek housing";"komplek housing";"Bu Sri";"MCQ6+MJM, Gondang Towo, Mentaraman, Kec. Donomulyo, Kabupaten Malang, Jawa Timur 65167";"Gondang Towo, Mentaraman, Kec. Donomulyo, Kabupaten Malang";"JAWA TIMUR";"65167";"Indonesia";"";"";"";"-8.3107932";"112.4115448";"https://maps.google.com/?cid=0x0:0xd1387cd0a1ef3685";""
"komplek housing";"Komplek perumahan";"Iswahyudi";"MFPG+W3Q, RT.04/RW.02, Banjarejo, Kec. Donomulyo, Kabupaten Malang, Jawa Timur 65167";"RT.04/RW.02, Banjarejo, Kec. Donomulyo, Kabupaten Malang";"JAWA TIMUR";"65167";"Indonesia";"";"";"";"-8.312661";"112.4752342";"https://maps.google.com/?cid=0x0:0xaf6f93973034db7c";""
"komplek housing";"Perumahan";"home suci";"PCR7+3MG, Karangrejo Utara, Purworejo, Kec. Donomulyo, Kabupaten Malang, Jawa Timur 65167";"Karangrejo Utara, Purworejo, Kec. Donomulyo, Kabupaten Malang";"JAWA TIMUR";"65167";"Indonesia";"";"";"";"-8.259484";"112.414169";"https://maps.google.com/?cid=0x0:0xec83ed8fa81fd8c8";""
"komplek housing";"Komplek perumahan";"Home aripsuhendri";"MFJ3+959, RT.06/RW.02, Libruk, banjarejo, Kec. Donomulyo, Kabupaten Malang, Jawa Timur 65167";"RT.06/RW.02, Libruk, banjarejo, Kec. Donomulyo, Kabupaten Malang";"JAWA TIMUR";"65167";"Indonesia";"";"";"";"-8.3190997";"112.4529814";"https://maps.google.com/?cid=0x0:0xef8abf5887b9b70f";""
"komplek housing";"Komplek perumahan";"Dwionohome";"PCMC+33G Bandung, RT.08/RW.02, Bandung, Dono Mulyo, Kec. Donomulyo, Kabupaten Malang, Jawa Timur 65167";"RT.08/RW.02, Bandung, Dono Mulyo, Kec. Donomulyo, Kabupaten Malang";"JAWA TIMUR";"65167";"Indonesia";"";"";"";"-8.2673021";"112.4202058";"https://maps.google.com/?cid=0x0:0xc8a5d3372a58cbc";""
"komplek housing";"komplek housing";"omah e chipaww";"MCQ8+JV4, Gondang Towo, Mentaraman, Kec. Donomulyo, Kabupaten Malang, Jawa Timur 65167";"Gondang Towo, Mentaraman, Kec. Donomulyo, Kabupaten Malang";"JAWA TIMUR";"65167";"Indonesia";"";"";"";"-8.3148389";"112.4178537";"https://maps.google.com/?cid=0x0:0x57a1a7814df8e878";""
"komplek housing";"komplek housing";"rumah kenzoo";"MCJ9+4RM, Gondang Towo, Mentaraman, Kec. Donomulyo, Kabupaten Malang, Jawa Timur 65167";"Gondang Towo, Mentaraman, Kec. Donomulyo, Kabupaten Malang";"JAWA TIMUR";"65167";"Indonesia";"";"";"";"-8.3196652";"112.4195404";"https://maps.google.com/?cid=0x0:0x917138eee404c8c0";""
"komplek housing";"Komplek perumahan";"Ohe";"Jl. Raden Kanjeng Jimat Barat No.9, RT.01/RW.07, tengahan, Gedangan, Kec. Gedangan, Kabupaten Sidoarjo, Jawa Timur 61254";"RT.01/RW.07, tengahan, Gedangan, Kec. Gedangan, Kabupaten Sidoarjo";"JAWA TIMUR";"61254";"Indonesia";"";"";"";"-7.38564";"112.729825";"https://maps.google.com/?cid=0x0:0xa25d0c66ef6b435d";""
"komplek housing";"Komplek perumahan";"NuAmHi HomSwitHom";"Taman Nagoya No.E4 No.77, Ketajen, Kec. Gedangan, Kabupaten Sidoarjo, Jawa Timur 61254";"Ketajen, Kec. Gedangan, Kabupaten Sidoarjo";"JAWA TIMUR";"61254";"Indonesia";"";"";"";"-7.3904635";"112.736721";"https://maps.google.com/?cid=0x0:0x1108e49c94973748";""
"komplek housing";"Komplek perumahan";"Perumahan Gedangan Indah Asri";"Jl. Raya Ketajen, Ketajen, Kec. Gedangan, Kabupaten Sidoarjo, Jawa Timur 61254";"Ketajen, Kec. Gedangan, Kabupaten Sidoarjo";"JAWA TIMUR";"61254";"Indonesia";" 082229000721";"";"";"-7.3869773";"112.7398083";"https://maps.google.com/?cid=0x0:0x7b4cc5580fbfe773";""
"komplek housing";"Komplek perumahan";"Utami Gedangan";"Jl. Pahlawan I No.54, RT.03/RW.09, Lemahasin, Gedangan, Kec. Gedangan, Kabupaten Sidoarjo, Jawa Timur 61254";"RT.03/RW.09, Lemahasin, Gedangan, Kec. Gedangan, Kabupaten Sidoarjo";"JAWA TIMUR";"61254";"Indonesia";" 0318916678";"";"";"-7.3832734";"112.729262";"https://maps.google.com/?cid=0x0:0xfb8c0fe55230c71a";""
"komplek housing";"Komplek perumahan";"Rumah Joko Suryanto";"Blk. J4 No.1, Ketajen, Kec. Gedangan, Kabupaten Sidoarjo, Jawa Timur 61254";"Ketajen, Kec. Gedangan, Kabupaten Sidoarjo";"JAWA TIMUR";"61254";"Indonesia";"";"";"";"-7.3941382";"112.734813";"https://maps.google.com/?cid=0x0:0xb00e195ca32ca066";""
"komplek housing";"Komplek perumahan";"Taman Nagoya F1 No. 65";"Taman Nagoya No.F1 No 65, Ketajen, Gedangan, Sidoarjo Regency, East Java 61254";"Ketajen, Gedangan, Sidoarjo Regency";"JAWA TIMUR";"61254";"Indonesia";"";"";"";"-7.3884477";"112.7370055";"https://maps.google.com/?cid=0x0:0x10ba4e7ff855f6bc";""
"komplek housing";"komplek housing";"Dhofan House";"JP6P+3CP, Ketajen, Kec. Gedangan, Kabupaten Sidoarjo, Jawa Timur 61254";"Ketajen, Kec. Gedangan, Kabupaten Sidoarjo";"JAWA TIMUR";"61254";"Indonesia";"";"";"";"-7.3897872";"112.7360743";"https://maps.google.com/?cid=0x0:0xcf80ec1519eae61f";""
"komplek housing";"komplek housing";"Rumah athaa";"Taman Paris, Jl. Puri Surya Jaya No.34 Blok-B, B3, Demeling, Gedangan, Kec. Gedangan, Kabupaten Sidoarjo, Jawa Timur 61254";"Jl. Puri Surya Jaya No.34 Blok-B, B3, Demeling, Gedangan, Kec. Gedangan, Kabupaten Sidoarjo";"JAWA TIMUR";"61254";"Indonesia";"";"";"";"-7.3901662";"112.7331309";"https://maps.google.com/?cid=0x0:0xb9b45f068d6cf32b";""
"komplek housing";"Komplek perumahan";"Suryati Gedangan";"Jl. Pahlawan I No.54, RT.03/RW.09, Lemahasin, Gedangan, Kec. Gedangan, Kabupaten Sidoarjo, Jawa Timur 61254";"RT.03/RW.09, Lemahasin, Gedangan, Kec. Gedangan, Kabupaten Sidoarjo";"JAWA TIMUR";"61254";"Indonesia";"";"";"";"-7.3832733";"112.7292616";"https://maps.google.com/?cid=0x0:0xec72158b962a2dcc";""
"komplek housing";"Komplek perumahan";"Home sweet home";"Puri surya jaya taman boston k8/23, Punggul, Gedangan, Sidoarjo Regency, East Java 61254";"Punggul, Gedangan, Sidoarjo Regency";"JAWA TIMUR";"61254";"Indonesia";"";"";"";"-7.3984627";"112.7353354";"https://maps.google.com/?cid=0x0:0xa57d6df3e26222c1";""
"komplek housing";"komplek housing";"Puri Surya Jaya Cluster Taman Boston blok K4/39";"JP3P+6J7, Jl. Puri Surya Jaya, Demeling, Gedangan, Kec. Gedangan, Kabupaten Sidoarjo, Jawa Timur 61254";"Jl. Puri Surya Jaya, Demeling, Gedangan, Kec. Gedangan, Kabupaten Sidoarjo";"JAWA TIMUR";"61254";"Indonesia";"";"";"";"-7.3969673";"112.7365497";"https://maps.google.com/?cid=0x0:0x12d2be344f8de73";""
"komplek housing";"Komplek perumahan";"Osaka Garden OG4-29";"JP4V+JQ2, Jl. Puri Surya Jaya, Demeling, Punggul, Kec. Gedangan, Kabupaten Sidoarjo, Jawa Timur 61254";"Jl. Puri Surya Jaya, Demeling, Punggul, Kec. Gedangan, Kabupaten Sidoarjo";"JAWA TIMUR";"61254";"Indonesia";"";"";"";"-7.3934805";"112.7443982";"https://maps.google.com/?cid=0x0:0xfeaa93eed712cc3d";""
"komplek housing";"Perumahan";"Lintang_Honi";"JP2P+R5, Area Sawah, Punggul, Kec. Gedangan, Kabupaten Sidoarjo, Jawa Timur 61254";"Area Sawah, Punggul, Kec. Gedangan, Kabupaten Sidoarjo";"JAWA TIMUR";"61254";"Indonesia";"";"";"";"-7.3979375";"112.7354375";"https://maps.google.com/?cid=0x0:0x4e78aa0ad8f2c40a";""
"komplek housing";"Pemasok Pakaian";"City olshop";"Jl. Kenanga No.6, RT.02/RW.01, Congkop, Keboansikep, Kec. Gedangan, Kabupaten Sidoarjo, Jawa Timur 61254";"RT.02/RW.01, Congkop, Keboansikep, Kec. Gedangan, Kabupaten Sidoarjo";"JAWA TIMUR";"61254";"Indonesia";"";"";"";"-7.3890773";"112.7259171";"https://maps.google.com/?cid=0x0:0x2e080ba9a6de635f";""
"komplek housing";"Komplek perumahan";"Bumi Gedangan Indah E/19";"HPQC+FJ7, Rw. 9, Karangbong, Kec. Gedangan, Kabupaten Sidoarjo, Jawa Timur 61254";"Rw. 9, Karangbong, Kec. Gedangan, Kabupaten Sidoarjo";"JAWA TIMUR";"61254";"Indonesia";"";"";"";"-7.4113282";"112.7215525";"https://maps.google.com/?cid=0x0:0x935c242ff5196b00";""
"komplek housing";"Komplek perumahan";"Gedangan Indah Asri, Jl Palm Putri Indah E-7";"JP6Q+MR4, Jl. Palem Putri Indah, Ketajen, Kec. Gedangan, Kabupaten Sidoarjo, Jawa Timur 61254";"Jl. Palem Putri Indah, Ketajen, Kec. Gedangan, Kabupaten Sidoarjo";"JAWA TIMUR";"61254";"Indonesia";"";"";"";"-7.3883589";"112.7395657";"https://maps.google.com/?cid=0x0:0x6c82b30550fdb93f";""
"komplek housing";"komplek housing";"RUMAH GNTHONK";"Jl. Wirabumi Gg. Nusa Indah No.08, RT.03/RW.06, Demeling, Gedangan, Kec. Gedangan, Kabupaten Sidoarjo, Jawa Timur 61254";"RT.03/RW.06, Demeling, Gedangan, Kec. Gedangan, Kabupaten Sidoarjo";"JAWA TIMUR";"61254";"Indonesia";"";"";"";"-7.3862694";"112.7290382";"https://maps.google.com/?cid=0x0:0x931da537229066f8";""
"komplek housing";"Komplek perumahan";"H. Sodiq Tjahjono";"Jl. Pahlawan No.29, Tengakan, Gedangan, Kec. Gedangan, Kabupaten Sidoarjo, Jawa Timur 61254";"Tengakan, Gedangan, Kec. Gedangan, Kabupaten Sidoarjo";"JAWA TIMUR";"61254";"Indonesia";"";"";"";"-7.3843117";"112.7297503";"https://maps.google.com/?cid=0x0:0xae8a2d4e1d258198";""
"komplek housing";"Komplek perumahan";"House of Jags";"Griya Pernata Gedangan D3 no 1, Sikep, Keboansikep, Sidoarjo, Kabupaten Sidoarjo, Jawa Timur 61254";"Sikep, Keboansikep, Sidoarjo, Kabupaten Sidoarjo";"JAWA TIMUR";"61254";"Indonesia";" 081331876223";"";"";"-7.3835078";"112.7202632";"https://maps.google.com/?cid=0x0:0xb93c1dfda2c8ca67";""
"komplek housing";"komplek housing";"Jawa Timur 61254";"Kec. Gedangan, Kabupaten Sidoarjo, Jawa Timur";"Kabupaten Sidoarjo, Jawa Timur";"JAWA TIMUR";"";"Indonesia";"";"";"";"-7.3933814";"112.7330892";"https://maps.google.com/?cid=0x0:0x1c00c5eb5b53f0a0";""
"komplek housing";"Komplek perumahan";"BEDUA HOUSE";"JP2C+3M7, Dusun Sruni, Sruni, Kec. Gedangan, Kabupaten Sidoarjo, Jawa Timur 61254";"Dusun Sruni, Sruni, Kec. Gedangan, Kabupaten Sidoarjo";"JAWA TIMUR";"61254";"Indonesia";"";"";"";"-7.3998408";"112.721679";"https://maps.google.com/?cid=0x0:0x74eb68700dcb9e33";""
"komplek housing";"Komplek perumahan";"Surya Breeze Residence";"RT.5/RW.2, Rw. 6, Karangbong, Kec. Gedangan, Kabupaten Sidoarjo, Jawa Timur 61254";"Rw. 6, Karangbong, Kec. Gedangan, Kabupaten Sidoarjo";"JAWA TIMUR";"61254";"Indonesia";"";"";"";"-7.4056365";"112.7155448";"https://maps.google.com/?cid=0x0:0x3d5e3c633cf2e9c2";""
"komplek housing";"Komplek perumahan";"NDDNKJ's house";"Jl. Intan Ⅰ No.C2 no 2, Dusun Gemurung Lor, Gemurung, Kec. Gedangan, Kabupaten Sidoarjo, Jawa Timur 61254";"Dusun Gemurung Lor, Gemurung, Kec. Gedangan, Kabupaten Sidoarjo";"JAWA TIMUR";"61254";"Indonesia";"";"";"";"-7.4021351";"112.7461923";"https://maps.google.com/?cid=0x0:0xea7e105c556c6b3c";""
"komplek housing";"Komplek perumahan";"Rayhan's House";"Jl. Griya Permata Gedangan No.14 Blok P1, Dusun Keboan, Keboananom, Gedangan, Sidoarjo Regency, East Java 61254";"Dusun Keboan, Keboananom, Gedangan, Sidoarjo Regency";"JAWA TIMUR";"61254";"Indonesia";"";"";"";"-7.385434";"112.715066";"https://maps.google.com/?cid=0x0:0xb45357f5dd4ad744";""
"komplek housing";"Komplek perumahan";"Kos Bu Ismaunah Gemurung Gedangan";"Jl. Raden Rahmat, RT.04/RW.01, Dusun Gemurung Kidul, Gemurung, Kec. Gedangan, Kabupaten Sidoarjo, Jawa Timur 61254";"RT.04/RW.01, Dusun Gemurung Kidul, Gemurung, Kec. Gedangan, Kabupaten Sidoarjo";"JAWA TIMUR";"61254";"Indonesia";" 0811325776";"";"";"-7.403716";"112.7487155";"https://maps.google.com/?cid=0x0:0x8a097e03bed23da6";""
"komplek housing";"Komplek perumahan";"Oemah Gedangan M 2/30";"JP78+99R, Jl. Griya Permata Gedangan II, Sikep, Keboansikep, Kec. Gedangan, Kabupaten Sidoarjo, Jawa Timur 61254";"Jl. Griya Permata Gedangan II, Sikep, Keboansikep, Kec. Gedangan, Kabupaten Sidoarjo";"JAWA TIMUR";"61254";"Indonesia";"";"";"";"-7.3865183";"112.7158977";"https://maps.google.com/?cid=0x0:0x1dae79bd499f79ed";""
"komplek housing";"Komplek perumahan";"budi house";"Jl. Durian No.4, Sikep, Keboansikep, Kec. Gedangan, Kabupaten Sidoarjo, Jawa Timur 61254";"Sikep, Keboansikep, Kec. Gedangan, Kabupaten Sidoarjo";"JAWA TIMUR";"61254";"Indonesia";"";"";"";"-7.3834931";"112.720126";"https://maps.google.com/?cid=0x0:0xc02459cbeb2fa19e";""
"komplek housing";"Gedung Apartemen";"Komplek TNI AL Tebel";"Tebel Tengah, Tebel, Kec. Gedangan, Kabupaten Sidoarjo, Jawa Timur 61254";"Tebel, Kec. Gedangan, Kabupaten Sidoarjo";"JAWA TIMUR";"61254";"Indonesia";"";"";"";"-7.4030298";"112.7263955";"https://maps.google.com/?cid=0x0:0xc687071d9c30dcec";""
"komplek housing";"komplek housing";"Kec. Gedangan";"Kabupaten Sidoarjo, Jawa Timur";"Kabupaten Sidoarjo, Jawa Timur";"JAWA TIMUR";"";"Indonesia";"";"";"";"-7.3896762";"112.7279598";"https://maps.google.com/?cid=0x0:0x4027a76e3531d50";""
"komplek housing";"Komplek perumahan";"Rumah bendhel";"PJ2R+FJ8, kulon, RT.02/RW.011, Sumbergesing Kulon, Gedangan, Kabupaten Malang, Jawa Timur 65178";"kulon, RT.02/RW.011, Sumbergesing Kulon, Gedangan, Kabupaten Malang";"JAWA TIMUR";"65178";"Indonesia";" 081327501794";"";"";"-8.2988458";"112.6415878";"https://maps.google.com/?cid=0x0:0x5a3752ee84ea8782";""
"komplek housing";"Komplek perumahan";"Rumah tata cantik";"JMM5+GC4, Kedungrampal Lor, RT.03/RW.01, Krajan, Sidodadi, Gedangan, Kabupaten Malang, Jawa Timur 65178";"Kedungrampal Lor, RT.03/RW.01, Krajan, Sidodadi, Gedangan, Kabupaten Malang";"JAWA TIMUR";"65178";"Indonesia";"";"";"";"-8.3662472";"112.6585799";"https://maps.google.com/?cid=0x0:0x3f09d17a78af0d5d";""
"komplek housing";"Komplek perumahan";"Made House";"Kedungrampal, RT.04/RW.01, Krajan Sidodadi, Sidodadi, Gedangan, Malang Regency, East Java 65178";"RT.04/RW.01, Krajan Sidodadi, Sidodadi, Gedangan, Malang Regency";"JAWA TIMUR";"65178";"Indonesia";"";"";"";"-8.3679806";"112.6535965";"https://maps.google.com/?cid=0x0:0x531b0ea07020a833";""
"komplek housing";"Komplek perumahan";"Rumah Jayadi";"MJWH+JGW, Sumberpucung, Gedangan, Kabupaten Malang, Jawa Timur 65178";"Sumberpucung, Gedangan, Kabupaten Malang";"JAWA TIMUR";"65178";"Indonesia";"";"";"";"-8.304357";"112.628472";"https://maps.google.com/?cid=0x0:0x1e96326473591cb5";""
"komplek housing";"komplek housing";"Rumah SAIFUDIN";"JJHR+9J3, kidul masjid, Tumpakawung, Gajahrejo, Gedangan, Kabupaten Malang, Jawa Timur 65178";"kidul masjid, Tumpakawung, Gajahrejo, Gedangan, Kabupaten Malang";"JAWA TIMUR";"65178";"Indonesia";"";"";"";"-8.3718725";"112.6413698";"https://maps.google.com/?cid=0x0:0x335160a6cb70fe6a";""
"komplek housing";"Komplek perumahan";"JWLcorp";"Jl. Raya Kartini No.252-254, Krajan Kidul Gedangan, Gedangan, Kabupaten Malang, Jawa Timur 65178";"Krajan Kidul Gedangan, Gedangan, Kabupaten Malang";"JAWA TIMUR";"65178";"Indonesia";"";"";"";"-8.3173102";"112.6557666";"https://maps.google.com/?cid=0x0:0x8d08dedff9bf5736";""
"komplek housing";"Pembangunan Perumahan";"Rumah mbah joko";"MJJR+JHG, Unnamed Road, Pagutan, Girimulyo, Gedangan, Kabupaten Malang, Jawa Timur 65178";"Unnamed Road, Pagutan, Girimulyo, Gedangan, Kabupaten Malang";"JAWA TIMUR";"65178";"Indonesia";"";"";"";"-8.318444";"112.641449";"https://maps.google.com/?cid=0x0:0x5f28c4699a6e4dc9";""
"komplek housing";"Komplek perumahan";"Ismiati / Rubai House";"PM43+4R, Gedangan, Kabupaten Malang, Jawa Timur 65178";"Gedangan, Kabupaten Malang";"JAWA TIMUR";"65178";"Indonesia";"";"";"";"-8.2947103";"112.6545384";"https://maps.google.com/?cid=0x0:0x74beef38c980820b";""
"komplek housing";"Gedung Apartemen";"rumah ijo ya bang";"JM84+J9F, Kedungrampai, Sidodadi, Gedangan, Kabupaten Malang, Jawa Timur 65178";"Kedungrampai, Sidodadi, Gedangan, Kabupaten Malang";"JAWA TIMUR";"65178";"Indonesia";"";"";"";"-8.3835909";"112.6559132";"https://maps.google.com/?cid=0x0:0x5ed7b4d89f9cf094";""
"komplek housing";"komplek housing";"tenpat tinggal";"JJWW+VGP, Sumberlele, Gajahrejo, Gedangan, Kabupaten Malang, Jawa Timur 65178";"Sumberlele, Gajahrejo, Gedangan, Kabupaten Malang";"JAWA TIMUR";"65178";"Indonesia";"";"";"";"-8.3530943";"112.64584";"https://maps.google.com/?cid=0x0:0x44624b0beac7534";""
"komplek housing";"Pembangunan Perumahan";"Rumah amelia";"MJW3+GV, Sumberperkul, Gedangan, Kabupaten Malang, Jawa Timur 65178";"Sumberperkul, Gedangan, Kabupaten Malang";"JAWA TIMUR";"65178";"Indonesia";"";"";"";"-8.303608";"112.605099";"https://maps.google.com/?cid=0x0:0x91ef5d206a93d2b0";""
"komplek housing";"Pembangunan Perumahan";"BANGFATHUR28";"JJPV+5JC, Sumberlele, Gajahrejo, Gedangan, Kabupaten Malang, Jawa Timur 65178";"Sumberlele, Gajahrejo, Gedangan, Kabupaten Malang";"JAWA TIMUR";"65178";"Indonesia";"";"";"";"-8.3645784";"112.6440402";"https://maps.google.com/?cid=0x0:0x7c939c419bc64103";""
"komplek housing";"Perhimpunan Pengembang Perumahan";"Rumah P. Legimin";"MMW5+Q47, Jl. Sidogiri Barat, Sumbergesing Kulon, Gedangan, Kabupaten Malang, Jawa Timur 65178";"Jl. Sidogiri Barat, Sumbergesing Kulon, Gedangan, Kabupaten Malang";"JAWA TIMUR";"65178";"Indonesia";"";"";"";"-8.3030906";"112.6577999";"https://maps.google.com/?cid=0x0:0xa9134d36c43a9d6";""
"komplek housing";"Komplek perumahan";"Rumah Dwi kotek";"JJQW+J8C, RT.29/RW.03, Sumberlele, Gajahrejo, Gedangan, Kabupaten Malang, Jawa Timur 65178";"RT.29/RW.03, Sumberlele, Gajahrejo, Gedangan, Kabupaten Malang";"JAWA TIMUR";"65178";"Indonesia";"";"";"";"-8.3609348";"112.645765";"https://maps.google.com/?cid=0x0:0x1a11116cd1675b98";""
"komplek housing";"Komplek perumahan";"Rumah Pak Wakidi";"MJ78+733, RT.25/RW.4, Sumberwinong, Sidurejo, Gedangan, Kabupaten Malang, Jawa Timur 65178";"RT.25/RW.4, Sumberwinong, Sidurejo, Gedangan, Kabupaten Malang";"JAWA TIMUR";"65178";"Indonesia";"";"";"";"-8.3368712";"112.6151585";"https://maps.google.com/?cid=0x0:0x24533a2c7d1b1705";""
"komplek housing";"Komplek perumahan";"Rumah Duwi (buketDu)";"MJ4J+2H9, Punden, Sidurejo, Gedangan, Kabupaten Malang, Jawa Timur 65178";"Punden, Sidurejo, Gedangan, Kabupaten Malang";"JAWA TIMUR";"65178";"Indonesia";"";"";"";"-8.3449692";"112.6314818";"https://maps.google.com/?cid=0x0:0xfc0995d1911ae6d6";""
"komplek housing";"komplek housing";"Ihsan home";"MJ88+6M8, Karangkletek, Sidurejo, Gedangan, Kabupaten Malang, Jawa Timur 65178";"Karangkletek, Sidurejo, Gedangan, Kabupaten Malang";"JAWA TIMUR";"65178";"Indonesia";"";"";"";"-8.3342821";"112.6165473";"https://maps.google.com/?cid=0x0:0xbd18359a5e3163e";""
"komplek housing";"Perhimpunan Pengembang Perumahan";"Nur Hasanah Mukminah (Bu Anna MAPKHA)";"RT.10/RW.03, Pagutan, Girimulyo, Gedangan, Kabupaten Malang, Jawa Timur 65178";"Pagutan, Girimulyo, Gedangan, Kabupaten Malang";"JAWA TIMUR";"65178";"Indonesia";" 085755209799";"";"";"-8.3153198";"112.6466823";"https://maps.google.com/?cid=0x0:0xb13ad19f6fba7ec3";""
"komplek housing";"Komplek perumahan";"Mbah yah";"JHXX+5C8, Sumberanom, Tumpakrejo, Gedangan, Kabupaten Malang, Jawa Timur 65178";"Sumberanom, Tumpakrejo, Gedangan, Kabupaten Malang";"JAWA TIMUR";"65178";"Indonesia";"";"";"";"-8.3509455";"112.5989401";"https://maps.google.com/?cid=0x0:0x2e7f59876e905522";""
"komplek housing";"komplek housing";"Jawa Timur 65178";"Gedangan, Kabupaten Malang, Jawa Timur";"Kabupaten Malang, Jawa Timur";"JAWA TIMUR";"";"Indonesia";"";"";"";"-8.3392423";"112.6317838";"https://maps.google.com/?cid=0x0:0x1c00c5eb5b541410";""
"komplek housing";"Komplek perumahan";"Hamdan House";"PJ9F+JF4, Mulyosari, Sumberejo, Gedangan, Kabupaten Malang, Jawa Timur 65178";"Mulyosari, Sumberejo, Gedangan, Kabupaten Malang";"JAWA TIMUR";"65178";"Indonesia";" 083836858612";"";"";"-8.2809948";"112.6237115";"https://maps.google.com/?cid=0x0:0xd43dc31fc982a020";""
"komplek housing";"Komplek perumahan";"Rumah tinggal";"PJ4P+Q36, RT.002/RW.015, Sumberbakul, gunung sari, Gedangan, Kabupaten Malang, Jawa Timur 65178";"RT.002/RW.015, Sumberbakul, gunung sari, Gedangan, Kabupaten Malang";"JAWA TIMUR";"65178";"Indonesia";"";"";"";"-8.2930834";"112.6351334";"https://maps.google.com/?cid=0x0:0x10fd30a109ba695d";""
"komplek housing";"Komplek perumahan";"Wahono House";"PJQ4+7QG, Jalan Raya Ndokosari, RT.24/RW.08, Sumberdoko, Sumberejo, Gedangan, Kabupaten Malang, Jawa Timur 65178";"Jalan Raya Ndokosari, RT.24/RW.08, Sumberdoko, Sumberejo, Gedangan, Kabupaten Malang";"JAWA TIMUR";"65178";"Indonesia";"";"";"";"-8.2618155";"112.6069581";"https://maps.google.com/?cid=0x0:0xb4c833fa2a9823e8";""
"komplek housing";"Komplek perumahan";"Chinulatto";"PJRQ+GQJ, Unnamed Road, Sumberbanteng Wetan, Segaran, Gedangan, Kabupaten Malang, Jawa Timur 65178";"Unnamed Road, Sumberbanteng Wetan, Segaran, Gedangan, Kabupaten Malang";"JAWA TIMUR";"65178";"Indonesia";"";"";"";"-8.258668";"112.639389";"https://maps.google.com/?cid=0x0:0xefba134b0eda1f25";""
"komplek housing";"Komplek perumahan";"Aisyah_Hiro";"QJ6R+498, Ngampuran, Segaran, Gedangan, Kabupaten Malang, Jawa Timur 65178";"Ngampuran, Segaran, Gedangan, Kabupaten Malang";"JAWA TIMUR";"65178";"Indonesia";"";"";"";"-8.2397217";"112.6409686";"https://maps.google.com/?cid=0x0:0x603051b6bb3684c5";""
"komplek housing";"komplek housing";"Gedangan";"Kabupaten Malang, Jawa Timur";"Kabupaten Malang, Jawa Timur";"JAWA TIMUR";"";"Indonesia";"";"";"";"-8.3392423";"112.6317838";"https://maps.google.com/?cid=0x0:0x4027a76e3531780";""
"komplek housing";"Komplek perumahan";"Rumah nurhasan";"Jl. Raya Sumberperkul No.RT 03/13, Sumberperkul, Gedangan, Kabupaten Malang, Jawa Timur 65178";"Sumberperkul, Gedangan, Kabupaten Malang";"JAWA TIMUR";"65178";"Indonesia";" 081554455228";"";"";"-8.3038024";"112.6047792";"https://maps.google.com/?cid=0x0:0xd4e3e0f51e949edd";""
"komplek housing";"Pembangunan Perumahan";"Hamure P Ba'i";"Sindurejo, RT/RW : 15/03 Dusun sumber pelus, Krajan Satu Sindurejo, Sidurejo, Gedangan, Kabupaten Malang, Jawa Timur 65178";"RT/RW : 15/03 Dusun sumber pelus, Krajan Satu Sindurejo, Sidurejo, Gedangan, Kabupaten Malang";"JAWA TIMUR";"65178";"Indonesia";"";"";"";"-8.3413336";"112.6247349";"https://maps.google.com/?cid=0x0:0x30d2f8b79d85c1b2";""
"komplek housing";"Komplek perumahan";"RUMAH KELUARGA PAK SUPARI";"MJMV+96C, Pagutan, Girimulyo, Gedangan, Kabupaten Malang, Jawa Timur 65178";"Pagutan, Girimulyo, Gedangan, Kabupaten Malang";"JAWA TIMUR";"65178";"Indonesia";"";"";"";"-8.3165597";"112.643003";"https://maps.google.com/?cid=0x0:0xdb21fb9694ca600e";""
"komplek housing";"Komplek perumahan";"Bella house";"Jl.pidek rt.01 rw.04 sonokembang, Dusun Sano Kembang, Sepanjang, Kec. Gondanglegi, Kabupaten Malang, Jawa Timur 65174";"Dusun Sano Kembang, Sepanjang, Kec. Gondanglegi, Kabupaten Malang";"JAWA TIMUR";"65174";"Indonesia";"";"";"";"-8.1874844";"112.6665132";"https://maps.google.com/?cid=0x0:0xf884b3cc42bd6e36";""
"komplek housing";"Perhimpunan Pengembang Perumahan";"Jl. Banyu anyar gang 4 RT.08 RW.01 Desa ketawang Kec.Gondanglegi";"VJ5Q+3RJ, Krajan, Ketawang, Kec. Gondanglegi, Kabupaten Malang, Jawa Timur 65174";"Krajan, Ketawang, Kec. Gondanglegi, Kabupaten Malang";"JAWA TIMUR";"65174";"Indonesia";"";"";"";"-8.1422793";"112.6395307";"https://maps.google.com/?cid=0x0:0x30e8d7aaa344b952";""
"komplek housing";"Pembangunan Perumahan";"TriAS";"RJFW+H7R, Jl. Lumpang, Dusun Krajan, Putat Kidul, Kec. Gondanglegi, Kabupaten Malang, Jawa Timur 65174";"Jl. Lumpang, Dusun Krajan, Putat Kidul, Kec. Gondanglegi, Kabupaten Malang";"JAWA TIMUR";"65174";"Indonesia";" 0895345778863";"";"";"-8.176012";"112.645832";"https://maps.google.com/?cid=0x0:0x379938ac0fd7851";""
"komplek housing";"komplek housing";"IBNUU";"QJXV+RVF, Dusun Kasin, Sepanjang, Kec. Gondanglegi, Kabupaten Malang, Jawa Timur 65174";"Dusun Kasin, Sepanjang, Kec. Gondanglegi, Kabupaten Malang";"JAWA TIMUR";"65174";"Indonesia";"";"";"";"-8.2004535";"112.6447354";"https://maps.google.com/?cid=0x0:0x89e1cb9cf59cb078";""
"komplek housing";"Vila";"My house";"RJHV+26Q, Jl. KH. Ahmad Dahlan, RT.18/rw02, Dusun Krajan, Putat Kidul, Kec. Gondanglegi, Kabupaten Malang, Jawa Timur 65174";"Jl. KH. Ahmad Dahlan, RT.18/rw02, Dusun Krajan, Putat Kidul, Kec. Gondanglegi, Kabupaten Malang";"JAWA TIMUR";"65174";"Indonesia";"";"";"";"-8.172417";"112.6431029";"https://maps.google.com/?cid=0x0:0x62160508b7a6dae4";""
"komplek housing";"Komplek perumahan";"Rumah Kom Alfin";"VJ47+GC4, Unnamed Road, Ganjaran Selatan, Ganjaran, Kec. Gondanglegi, Kabupaten Malang, Jawa Timur 65174";"Unnamed Road, Ganjaran Selatan, Ganjaran, Kec. Gondanglegi, Kabupaten Malang";"JAWA TIMUR";"65174";"Indonesia";"";"";"";"-8.1437252";"112.6135787";"https://maps.google.com/?cid=0x0:0xa8d424bbb1fa72e2";""
"komplek housing";"Perumahan";"Kavling KETAWANG MAKMUR Gondanglegi";"VM44+8PV, Jl. Banyulegi II, Baran, Ketawang, Kec. Gondanglegi, Kabupaten Malang, Jawa Timur 65174";"Jl. Banyulegi II, Baran, Ketawang, Kec. Gondanglegi, Kabupaten Malang";"JAWA TIMUR";"65174";"Indonesia";"";"";"";"-8.1436288";"112.6577729";"https://maps.google.com/?cid=0x0:0x270e3e94feb09de3";""
"komplek housing";"Pembangunan Perumahan";"Tikno";"Jalan Panglima Sudirman RT 31 RW 08, Karangasem, Karangasem, Gondanglegi Wetan, Kec. Gondanglegi, Kabupaten Malang, Jawa Timur 65174";"Karangasem, Karangasem, Gondanglegi Wetan, Kec. Gondanglegi, Kabupaten Malang";"JAWA TIMUR";"65174";"Indonesia";"";"";"";"-8.1929905";"112.6396677";"https://maps.google.com/?cid=0x0:0x221f9b86353c2cee";""
"komplek housing";"Rumah Kayu";"Gantangan burung Sakerah BC";"RJ7Q+FG5, Krajan, Gondanglegi Wetan, Kec. Gondanglegi, Kabupaten Malang, Jawa Timur 65174";"Krajan, Gondanglegi Wetan, Kec. Gondanglegi, Kabupaten Malang";"JAWA TIMUR";"65174";"Indonesia";"";"";"";"-8.1863553";"112.6388525";"https://maps.google.com/?cid=0x0:0x359f9be809dacc7";""
"komplek housing";"Komplek perumahan";"Saifuddin Family";"RJVV+78, Dusun Baron, Putat Lor, Kec. Gondanglegi, Kabupaten Malang, Jawa Timur 65174";"Dusun Baron, Putat Lor, Kec. Gondanglegi, Kabupaten Malang";"JAWA TIMUR";"65174";"Indonesia";"";"";"";"-8.1568487";"112.6436729";"https://maps.google.com/?cid=0x0:0x3181843ca99f9811";""
"komplek housing";"Komplek perumahan";"Rumah dhikri";"Jl. Letjend. S. Parman No.20, Dusun Krajan, Sepanjang, Kec. Gondanglegi, Kabupaten Malang, Jawa Timur 65174";"Dusun Krajan, Sepanjang, Kec. Gondanglegi, Kabupaten Malang";"JAWA TIMUR";"65174";"Indonesia";"";"";"";"-8.1689734";"112.6672412";"https://maps.google.com/?cid=0x0:0x4c88bf32c77440d";""
"komplek housing";"Pembangunan Perumahan";"Markas Vtron";"jl Diponegoro 1 Rt. 01 Rw. 01 ngaglik banjarejo pagelaran, Suko Arum, Gondanglegi Kulon, Kec. Gondanglegi, Kabupaten Malang, Jawa Timur 65174";"Suko Arum, Gondanglegi Kulon, Kec. Gondanglegi, Kabupaten Malang";"JAWA TIMUR";"65174";"Indonesia";"";"";"";"-8.1840835";"112.632249";"https://maps.google.com/?cid=0x0:0x6ad6e61c8c0a955f";""
"komplek housing";"Perhimpunan Pengembang Perumahan";"Oma e apip";"RJ2H+GW3, Wates, Gondanglegi Wetan, Kec. Gondanglegi, Kabupaten Malang, Jawa Timur 65174";"Wates, Gondanglegi Wetan, Kec. Gondanglegi, Kabupaten Malang";"JAWA TIMUR";"65174";"Indonesia";"";"";"";"-8.1987412";"112.629784";"https://maps.google.com/?cid=0x0:0x65f0c0edab75b4fa";""
"komplek housing";"Perumahan";"Agung";"VJ3W+C3C, Krajan, Ketawang, Kec. Gondanglegi, Kabupaten Malang, Jawa Timur 65174";"Krajan, Ketawang, Kec. Gondanglegi, Kabupaten Malang";"JAWA TIMUR";"65174";"Indonesia";"";"";"";"-8.1464444";"112.6451396";"https://maps.google.com/?cid=0x0:0x5290120ece68b91c";""
"komplek housing";"Pembangunan Perumahan";"Rumah Abah Madjid";"RJCR+633, Krajan, Gondanglegi Wetan, Kec. Gondanglegi, Kabupaten Malang, Jawa Timur 65174";"Krajan, Gondanglegi Wetan, Kec. Gondanglegi, Kabupaten Malang";"JAWA TIMUR";"65174";"Indonesia";"";"";"";"-8.1794746";"112.6401411";"https://maps.google.com/?cid=0x0:0xcfd9f8cb7baca21";""
"komplek housing";"Komplek perumahan";"Bibin house";"RJ5P+59V, Unnamed Road, Wates, Gondanglegi Wetan, Gondanglegi, Malang Regency, East Java 65174";"Unnamed Road, Wates, Gondanglegi Wetan, Gondanglegi, Malang Regency";"JAWA TIMUR";"65174";"Indonesia";"";"";"";"-8.192017";"112.635916";"https://maps.google.com/?cid=0x0:0xc74ac54d29ff403b";""
"komplek housing";"Perhimpunan Pengembang Perumahan";"Tambaksari";"VJ6F+QMW, Jl. Tambaksari, Ganjaran Utara, Ganjaran, Kec. Gondanglegi, Kabupaten Malang, Jawa Timur 65174";"Jl. Tambaksari, Ganjaran Utara, Ganjaran, Kec. Gondanglegi, Kabupaten Malang";"JAWA TIMUR";"65174";"Indonesia";"";"";"";"-8.1380031";"112.6241973";"https://maps.google.com/?cid=0x0:0x2af07a13ea8f922";""
"komplek housing";"Komplek perumahan";"Perumahan Adz-Dzikro Adzikro";"RJJQ+8CR, Krajan Satu, Gondanglegi Kulon, Kec. Gondanglegi, Kabupaten Malang, Jawa Timur 65174";"Krajan Satu, Gondanglegi Kulon, Kec. Gondanglegi, Kabupaten Malang";"JAWA TIMUR";"65174";"Indonesia";"";"";"";"-8.1691352";"112.6385119";"https://maps.google.com/?cid=0x0:0x5102cbab5391206d";""
"komplek housing";"komplek housing";"My Home";"Jl. Hayam Wuruk 3 No.12, Krajan, Gondanglegi Wetan, Kec. Gondanglegi, Kabupaten Malang, Jawa Timur 65174";"Krajan, Gondanglegi Wetan, Kec. Gondanglegi, Kabupaten Malang";"JAWA TIMUR";"65174";"Indonesia";"";"";"";"-8.1747854";"112.6394226";"https://maps.google.com/?cid=0x0:0x571f39ca23c74f6";""
"komplek housing";"komplek housing";"Jawa Timur 65174";"Kec. Gondanglegi, Kabupaten Malang, Jawa Timur";"Kabupaten Malang, Jawa Timur";"JAWA TIMUR";"";"Indonesia";"";"";"";"-8.1756177";"112.6317838";"https://maps.google.com/?cid=0x0:0x1c00c5eb5b5413e0";""
"komplek housing";"komplek housing";"Rumah achmad";"rt42, RW.o4, Penjalinan, Gondanglegi Kulon, Kec. Gondanglegi, Kabupaten Malang, Jawa Timur 65174";"RW.o4, Penjalinan, Gondanglegi Kulon, Kec. Gondanglegi, Kabupaten Malang";"JAWA TIMUR";"65174";"Indonesia";"";"";"";"-8.1674126";"112.6184032";"https://maps.google.com/?cid=0x0:0xcc55cfcdbf82583c";""
"komplek housing";"Komplek perumahan";"Ketawang green park housing gondanglegi";"VJ2W+46V, Dusun Baron, Putat Lor, Kec. Gondanglegi, Kabupaten Malang, Jawa Timur 65174";"Dusun Baron, Putat Lor, Kec. Gondanglegi, Kabupaten Malang";"JAWA TIMUR";"65174";"Indonesia";"";"";"";"-8.1496348";"112.6455464";"https://maps.google.com/?cid=0x0:0xf4ac89934efa5d9";""
"komplek housing";"Perhimpunan Pengembang Perumahan";"Rumah yatimin";"VJ48+MQJ gang talang, Ganjaran Tengah, Ganjaran, Kec. Gondanglegi, Kabupaten Malang, Jawa Timur 65174";"Ganjaran Tengah, Ganjaran, Kec. Gondanglegi, Kabupaten Malang";"JAWA TIMUR";"65174";"Indonesia";"";"";"";"-8.1433";"112.6168852";"https://maps.google.com/?cid=0x0:0x245cb8c5be4cb079";""
"komplek housing";"komplek housing";"Rumah saya";"RJGR+9GW, Jl. Suropati, Krajan, Gondanglegi Wetan, Kec. Gondanglegi, Kabupaten Malang, Jawa Timur 65174";"Jl. Suropati, Krajan, Gondanglegi Wetan, Kec. Gondanglegi, Kabupaten Malang";"JAWA TIMUR";"65174";"Indonesia";"";"";"";"-8.174006";"112.6413437";"https://maps.google.com/?cid=0x0:0xffda35fe4f008b8";""
"komplek housing";"komplek housing";"omah e angga";"Jl. Kauman No.39, Krajan Satu, Gondanglegi Kulon, Kec. Gondanglegi, Kabupaten Malang, Jawa Timur 65174";"Krajan Satu, Gondanglegi Kulon, Kec. Gondanglegi, Kabupaten Malang";"JAWA TIMUR";"65174";"Indonesia";"";"";"";"-8.1754427";"112.6349131";"https://maps.google.com/?cid=0x0:0xfc76b5e98b1452a8";""
"komplek housing";"Komplek perumahan";"Rumah Anis";"VJ47+M6F, Jalan Raya, Ganjaran Selatan, Ganjaran, Gondanglegi, Malang Regency, East Java 65174";"Jalan Raya, Ganjaran Selatan, Ganjaran, Gondanglegi, Malang Regency";"JAWA TIMUR";"65174";"Indonesia";"";"";"";"-8.1433098";"112.6130355";"https://maps.google.com/?cid=0x0:0xa093f44714d624e2";""
"komplek housing";"Komplek perumahan";"Pondok Gede Housing II";"Housing II, Jl. Raya Hankam, RT.001/RW.004, Jatirahayu, Pondok Gede, Bekasi, West Java";"Kota Bks, Jawa Barat";"JAWA TIMUR";"";"Indonesia";"";"";"";"-6.2876701";"106.9147674";"https://maps.google.com/?cid=0x0:0x2a52e601c20d18f2";""
"komplek housing";"komplek housing";"ahmad faiz";"VJ99+H7Q, Ganjaran Utara, Ganjaran, Kec. Gondanglegi, Kabupaten Malang, Jawa Timur 65174";"Ganjaran Utara, Ganjaran, Kec. Gondanglegi, Kabupaten Malang";"JAWA TIMUR";"65174";"Indonesia";"";"";"";"-8.1310255";"112.6182402";"https://maps.google.com/?cid=0x0:0x55b722d48efa2fb4";""
"komplek housing";"Komplek perumahan";"Rumah inarman";"Jl. Purwo, Dusun Medali, Sukorejo, Kec. Gondanglegi, Kabupaten Malang, Jawa Timur 65174";"Dusun Medali, Sukorejo, Kec. Gondanglegi, Kabupaten Malang";"JAWA TIMUR";"65174";"Indonesia";"";"";"";"-8.149813";"112.5879825";"https://maps.google.com/?cid=0x0:0x25f98cc05b5bc414";""
"komplek housing";"komplek housing";"Kec. Jabung";"Kabupaten Malang, Jawa Timur";"Kabupaten Malang, Jawa Timur";"JAWA TIMUR";"";"Indonesia";"";"";"";"-7.9460661";"112.7477429";"https://maps.google.com/?cid=0x0:0x4027a76e3531790";""
"komplek housing";"komplek housing";"tny House";"JP97+WC5, Itik Rendai, Kec. Melinting, Kabupaten Lampung Timur, Lampung 34384";"Itik Rendai, Kec. Melinting, Kabupaten Lampung Timur";"JAWA TIMUR";"34384";"Indonesia";"";"";"";"-5.3801898";"105.7126768";"https://maps.google.com/?cid=0x0:0x37b39e4ee8a445b3";""
"komplek housing";"Komplek perumahan";"Perumahan";"FPJC+54W, Adi Luhur, Kec. Jabung, Kabupaten Lampung Timur, Lampung 34384";"Adi Luhur, Kec. Jabung, Kabupaten Lampung Timur";"JAWA TIMUR";"34384";"Indonesia";"";"";"";"-5.5195166";"105.7203331";"https://maps.google.com/?cid=0x0:0xb986548ced627520";""
"komplek housing";"Inspektur Tempat Tinggal";"Ijo SALEH";"GPQG+G3C, Jabung, Kec. Jabung, Kabupaten Lampung Timur, Lampung 34384";"Jabung, Kec. Jabung, Kabupaten Lampung Timur";"JAWA TIMUR";"34384";"Indonesia";" 085789953243";"";"";"-5.4608236";"105.7251152";"https://maps.google.com/?cid=0x0:0xa75d4676e02edad";""
"komplek housing";"komplek housing";"Rumah Dimas";"FPR6+V77, Mumbang Jaya, Kec. Jabung, Kabupaten Lampung Timur, Lampung 34384";"Mumbang Jaya, Kec. Jabung, Kabupaten Lampung Timur";"JAWA TIMUR";"34384";"Indonesia";"";"";"";"-5.508333";"105.70894";"https://maps.google.com/?cid=0x0:0x1a2035678c550383";""
"komplek housing";"Pembangunan Perumahan";"Uden cell";"GPCM+332, Jl. Raya Gn. Mekar, Gn. Mekar, Kec. Jabung, Kabupaten Lampung Timur, Lampung 34384";"Jl. Raya Gn. Mekar, Gn. Mekar, Kec. Jabung, Kabupaten Lampung Timur";"JAWA TIMUR";"34384";"Indonesia";" 082377606990";"";"";"-5.479853";"105.7326499";"https://maps.google.com/?cid=0x0:0xdb323c948884fdce";""
"komplek housing";"komplek housing";"Bungsu Sarah";"JMQ5+9G9, Giri Mulyo, Kec. Marga Sekapung, Kabupaten Lampung Timur, Lampung 34384";"Giri Mulyo, Kec. Marga Sekapung, Kabupaten Lampung Timur";"JAWA TIMUR";"34384";"Indonesia";"";"";"";"-5.361592";"105.6588485";"https://maps.google.com/?cid=0x0:0x234887ae7e82c71f";""
"komplek housing";"Komplek perumahan";"rumah mertua Raden tulin Ali";"GMQ9+JHF, Negara Batin, Kec. Jabung, Kabupaten Lampung Timur, Lampung 34384";"Negara Batin, Kec. Jabung, Kabupaten Lampung Timur";"JAWA TIMUR";"34384";"Indonesia";"";"";"";"-5.461533";"105.669479";"https://maps.google.com/?cid=0x0:0xffc32c0458516cea";""
"komplek housing";"komplek housing";"Rumah Sifa_ayu";"GPRC+QP5, Jabung, Kec. Jabung, Kabupaten Lampung Timur, Lampung 34384";"Jabung, Kec. Jabung, Kabupaten Lampung Timur";"JAWA TIMUR";"34384";"Indonesia";"";"";"";"-5.4575417";"105.7228017";"https://maps.google.com/?cid=0x0:0x1706b9a84c2c4752";""
"komplek housing";"komplek housing";"Rumah panggeh";"GP5J+J2H, Adirejo, Kec. Jabung, Kabupaten Lampung Timur, Lampung 34384";"Adirejo, Kec. Jabung, Kabupaten Lampung Timur";"JAWA TIMUR";"34384";"Indonesia";"";"";"";"-5.4909331";"105.7301239";"https://maps.google.com/?cid=0x0:0x561fb3918bff0ef8";""
"komplek housing";"Perhimpunan Pengembang Perumahan";"Balqis Home";"GMXG+V4, Negara Batin, Kec. Jabung, Kabupaten Lampung Timur, Lampung 34384";"Negara Batin, Kec. Jabung, Kabupaten Lampung Timur";"JAWA TIMUR";"34384";"Indonesia";"";"";"";"-5.4503103";"105.6752955";"https://maps.google.com/?cid=0x0:0xf3439ba8cdc58587";""
"komplek housing";"Komplek perumahan";"Rega D,S";"GPCG+GVQ, Jl. Raya Gn. Mekar, Gn. Mekar, Kec. Jabung, Kabupaten Lampung Timur, Lampung 34384";"Jl. Raya Gn. Mekar, Gn. Mekar, Kec. Jabung, Kabupaten Lampung Timur";"JAWA TIMUR";"34384";"Indonesia";"";"";"";"-5.4779717";"105.7264308";"https://maps.google.com/?cid=0x0:0xa27c1bc44a14027f";""
"komplek housing";"Komplek perumahan";"Pak mutolih";"FPM9+8M, Pasiran, Mumbang Jaya, Kec. Jabung, Kabupaten Lampung Timur, Lampung 34384";"Pasiran, Mumbang Jaya, Kec. Jabung, Kabupaten Lampung Timur";"JAWA TIMUR";"34384";"Indonesia";"";"";"";"-5.5178163";"105.7187653";"https://maps.google.com/?cid=0x0:0xa7634cb1e183992b";""
"komplek housing";"Komplek perumahan";"RUMAH ali";"GP5H+HXQ, Adirejo, Kec. Jabung, Kabupaten Lampung Timur, Lampung 34384";"Adirejo, Kec. Jabung, Kabupaten Lampung Timur";"JAWA TIMUR";"34384";"Indonesia";"";"";"";"-5.491037";"105.7293464";"https://maps.google.com/?cid=0x0:0x393d14f85e23067";""
"komplek housing";"Komplek perumahan";"Dian Effendi's house";"GPPP+P6H, Gn. Sugih Kecil, Kec. Jabung, Kabupaten Lampung Timur, Lampung 34384";"Gn. Sugih Kecil, Kec. Jabung, Kabupaten Lampung Timur";"JAWA TIMUR";"34384";"Indonesia";"";"";"";"-5.4633663";"105.7359665";"https://maps.google.com/?cid=0x0:0x12108b8c3e1c7544";""
"komplek housing";"Komplek perumahan";"elsa’s home";"GMJC+W8R, Jabung, Kec. Jabung, Kabupaten Lampung Timur, Lampung 34384";"Jabung, Kec. Jabung, Kabupaten Lampung Timur";"JAWA TIMUR";"34384";"Indonesia";"";"";"";"-5.4688467";"105.6713527";"https://maps.google.com/?cid=0x0:0xa3eb5d94b51223d2";""
"komplek housing";"Komplek perumahan";"Rumah HarryNuny";"FPPH+372, Adirejo, Kec. Jabung, Kabupaten Lampung Timur, Lampung 34384";"Adirejo, Kec. Jabung, Kabupaten Lampung Timur";"JAWA TIMUR";"34384";"Indonesia";"";"";"";"-5.514873";"105.7281253";"https://maps.google.com/?cid=0x0:0xcfc87028a5df259f";""
"komplek housing";"Komplek perumahan";"Rumah Yudha";"HPFG+VR3, Jabung, Kec. Jabung, Kabupaten Lampung Timur, Lampung 34384";"Jabung, Kec. Jabung, Kabupaten Lampung Timur";"JAWA TIMUR";"34384";"Indonesia";"";"";"";"-5.4252707";"105.7267966";"https://maps.google.com/?cid=0x0:0x587e84c84fa3d4f4";""
"komplek housing";"Komplek perumahan";"frisca falencia shop";"FM53+4Q8 tugu tani, Jalan Rawa Sragi, Adi Luhur, Jabung, East Lampung Regency, Lampung 34384";"Jalan Rawa Sragi, Adi Luhur, Jabung, East Lampung Regency";"JAWA TIMUR";"34384";"Indonesia";"";"";"";"-5.5422222";"105.6544444";"https://maps.google.com/?cid=0x0:0x521f59a53ba29c80";""
"komplek housing";"Pembangunan Perumahan";"Rumah Nia";"HPX4+Q6R, Pematang Tahalo, Kec. Jabung, Kabupaten Lampung Timur, Lampung 34384";"Pematang Tahalo, Kec. Jabung, Kabupaten Lampung Timur";"JAWA TIMUR";"34384";"Indonesia";"";"";"";"-5.4005175";"105.7055277";"https://maps.google.com/?cid=0x0:0xdb617f1fb6def590";""
"komplek housing";"komplek housing";"Kec. Jabung";"Kabupaten Lampung Timur, Lampung";"Kabupaten Lampung Timur, Lampung";"JAWA TIMUR";"";"Indonesia";"";"";"";"-5.4907175";"105.7379293";"https://maps.google.com/?cid=0x0:0x3039f23b6d9810b8";""
"komplek housing";"Pembangunan Perumahan";"Shofiyullah";"Jl. Raden Fatah No.10, Putuk Rejo, Kemantren, Kec. Jabung, Kabupaten Malang, Jawa Timur 65155";"Putuk Rejo, Kemantren, Kec. Jabung, Kabupaten Malang";"JAWA TIMUR";"65155";"Indonesia";" 085105012988";"";"";"-7.9483869";"112.7456761";"https://maps.google.com/?cid=0x0:0x23879cb435fa762b";""
"komplek housing";"Komplek perumahan";"Perumaha";"3PCW+436, Krajan, Kemantren, Kec. Jabung, Kabupaten Malang, Jawa Timur 65155";"Krajan, Kemantren, Kec. Jabung, Kabupaten Malang";"JAWA TIMUR";"65155";"Indonesia";"";"";"";"-7.9297081";"112.7451414";"https://maps.google.com/?cid=0x0:0x2be081c64f4f7bd5";""
"komplek housing";"Komplek perumahan";"Ellensha Home";"2Q78+RFM, Precet, Kenongo, Kec. Jabung, Kabupaten Malang, Jawa Timur 65155";"Precet, Kenongo, Kec. Jabung, Kabupaten Malang";"JAWA TIMUR";"65155";"Indonesia";" 082244552502";"";"";"-7.985541";"112.7663534";"https://maps.google.com/?cid=0x0:0xecf545af6078f254";""
"komplek housing";"Komplek perumahan";"Rmh (Purn) Adi Mulyono";"Jl. Raya Kemantren No.35, Putuk Rejo, Kemantren, Kec. Jabung, Kabupaten Malang, Jawa Timur 65155";"Putuk Rejo, Kemantren, Kec. Jabung, Kabupaten Malang";"JAWA TIMUR";"65155";"Indonesia";"";"";"";"-7.9447799";"112.7479987";"https://maps.google.com/?cid=0x0:0xae5a6df1a80546";""
"komplek housing";"Komplek perumahan";"Melisa home";"2QV9+4RV, Dusun Sumber Kreco, Sidomulyo, Kec. Jabung, Kabupaten Malang, Jawa Timur 65155";"Dusun Sumber Kreco, Sidomulyo, Kec. Jabung, Kabupaten Malang";"JAWA TIMUR";"65155";"Indonesia";" 081252663068";"";"";"-7.9571486";"112.769553";"https://maps.google.com/?cid=0x0:0x6de4799a1a87a344";""
"komplek housing";"Pembangunan Perumahan";"piuppihome";"3Q29+RJ4, Dusun Gentong, Argosari, Kec. Jabung, Kabupaten Malang, Jawa Timur 65155";"Dusun Gentong, Argosari, Kec. Jabung, Kabupaten Malang";"JAWA TIMUR";"65155";"Indonesia";" 081517692671";"";"";"-7.9477884";"112.7691691";"https://maps.google.com/?cid=0x0:0x9cd737c6879e28ac";""
