Category;Real Category;Business Name;Address;City;State;Postal Code;Country;Phone;Email;Website;Latitude;Longitude;Map Link;Details Link
"building materials";"building materials";"Sumatera Selatan 30151";"Karya Baru, Kec. Alang-Alang Lebar, Kota Palembang, Sumatera Selatan";"Kota Palembang, Sumatera Selatan";"SUMATERA SELATAN";"";"Indonesia";"";"";"";"-2.9277729";"104.7139378";"https://maps.google.com/?cid=0x0:0x28fb1fb44e104b41";""
"building materials";"Toko Bahan Bangunan";"Toko Bangunan WF2";"Blok BB Komplek Maskarebet, Jl. KH. Ahmad Dahlan No.1, Karya Baru, Kec. Alang-Alang Lebar, Kota Palembang, Sumatera Selatan 30152";"Jl. KH. Ahmad Dahlan No.1, Karya Baru, Kec. Alang-Alang Lebar, Kota Palembang";"SUMATERA SELATAN";"30152";"Indonesia";" 081369418887";"";"";"-2.9284886";"104.7050232";"https://maps.google.com/?cid=0x0:0x3e551367b3535af1";""
"building materials";"Toko Perlengkapan Rumah";"PT. Mitra Bangunan Indonesia - Shunda Plafon PVC Palembang";"Jl. Sultan Mahmud Badaruddin II No.7, Alang Alang Lebar, Kec. Alang-Alang Lebar, Kota Palembang, Sumatera Selatan 30154";"Alang Alang Lebar, Kec. Alang-Alang Lebar, Kota Palembang";"SUMATERA SELATAN";"30154";"Indonesia";" 085283839899";"";"";"-2.9178065";"104.7039466";"https://maps.google.com/?cid=0x0:0x5a27d685ac2b731a";""
"building materials";"Pusat Perbelanjaan";"CV BANGUN SEJAHTERA";"3MJJ+JM7, Jl. Bypass Alang-Alang Lebar, Talang Klp., Kec. Alang-Alang Lebar, Kota Palembang, Sumatera Selatan 30961";"Jl. Bypass Alang-Alang Lebar, Talang Klp., Kec. Alang-Alang Lebar, Kota Palembang";"SUMATERA SELATAN";"30961";"Indonesia";" 07117433277";"";"";"-2.9184594";"104.6816684";"https://maps.google.com/?cid=0x0:0xdc7d6d2958e173d6";""
"building materials";"Toko Bahan Bangunan";"Depot Kayu  Material Kari-3";"Jl. Mandi Api II No.10, RT.31/RW.10, Srijaya, Kec. Alang-Alang Lebar, Kota Palembang, Sumatera Selatan 30153";"RT.31/RW.10, Srijaya, Kec. Alang-Alang Lebar, Kota Palembang";"SUMATERA SELATAN";"30153";"Indonesia";" 081278022212";"";"";"-2.954579";"104.7245179";"https://maps.google.com/?cid=0x0:0x5dccb5eed51fd900";""
"building materials";"Toko Kayu";"Depot Bangunan Dan Kayu Sulung Jaya";"Jl. Letnan Murod No.264, Srijaya, Kec. Alang-Alang Lebar, Kota Palembang, Sumatera Selatan 30128";"Srijaya, Kec. Alang-Alang Lebar, Kota Palembang";"SUMATERA SELATAN";"30128";"Indonesia";" 0711414931";"";"";"-2.9558813";"104.7277351";"https://maps.google.com/?cid=0x0:0xf342e09e5f57dfce";""
"building materials";"Toko Bahan Bangunan";"TB. Depot Kenanga";"2PVG+C95, Jl. Letnan Murod Jl. Mandi Api, RT.04, Srijaya, Kec. Alang-Alang Lebar, Kota Palembang, Sumatera Selatan 30153";"Jl. Letnan Murod Jl. Mandi Api, RT.04, Srijaya, Kec. Alang-Alang Lebar, Kota Palembang";"SUMATERA SELATAN";"30153";"Indonesia";" 0711417835";"";"";"-2.9564772";"104.7259998";"https://maps.google.com/?cid=0x0:0x29f3c3201f811011";""
"building materials";"Toko Cat";"Jotun";"Jl. Klp. Gading No.199, Karya Baru, Kec. Alang-Alang Lebar, Kota Palembang, Sumatera Selatan 30961";"Karya Baru, Kec. Alang-Alang Lebar, Kota Palembang";"SUMATERA SELATAN";"30961";"Indonesia";" 085960359885";"";"";"-2.9264769";"104.712577";"https://maps.google.com/?cid=0x0:0x9986f5e50c7b1a46";""
"building materials";"Toko Bahan Bangunan";"Semen Padang";"Jl. Bypass Alang-Alang Lebar KM.12 No.99, Alang Alang Lebar, Kec. Alang-Alang Lebar, Kota Palembang, Sumatera Selatan 30961";"Alang Alang Lebar, Kec. Alang-Alang Lebar, Kota Palembang";"SUMATERA SELATAN";"30961";"Indonesia";"";"";"";"-2.9178059";"104.6817108";"https://maps.google.com/?cid=0x0:0xb2446ef4205f1c29";""
"building materials";"building materials";"Building Material Palembang";"Jl. Bypass Alang-Alang Lebar No..92, Alang Alang Lebar, Kec. Alang-Alang Lebar, Kota Palembang, Sumatera Selatan 30114";"Alang Alang Lebar, Kec. Alang-Alang Lebar, Kota Palembang";"SUMATERA SELATAN";"30114";"Indonesia";"";"";"";"-2.91772";"104.6819437";"https://maps.google.com/?cid=0x0:0x68a46d10ff0b7f0d";""
"building materials";"Toko Bahan Bangunan";"TB SUMBER ACUAN JAYA";"3P33+993, Jl. Kolonel Sulaiman Amin, Talang Klp., Kec. Alang-Alang Lebar, Kota Palembang, Sumatera Selatan 30151";"Jl. Kolonel Sulaiman Amin, Talang Klp., Kec. Alang-Alang Lebar, Kota Palembang";"SUMATERA SELATAN";"30151";"Indonesia";" 081271567707";"";"";"-2.9466084";"104.7034107";"https://maps.google.com/?cid=0x0:0xb73868b77cc6ffc4";""
"building materials";"Toko Bahan Bangunan";"Atap Indah";"2735, Jl. Kolonel H. Barlian No.35, Karya Baru, Alang-Alang Lebar, Palembang City, South Sumatra 30152";"Jl. Kolonel H. Barlian No.35, Karya Baru, Alang-Alang Lebar, Palembang City";"SUMATERA SELATAN";"30152";"Indonesia";" 0711421500";"";"";"-2.9271855";"104.7149493";"https://maps.google.com/?cid=0x0:0xe8671c1ae64e8148";""
"building materials";"Toko Bahan Bangunan";"Depot Nayyaka";"3PG6+423, Jl. Soekarno Hatta, Karya Baru, Kec. Alang-Alang Lebar, Kota Palembang, Sumatera Selatan 30153";"Jl. Soekarno Hatta, Karya Baru, Kec. Alang-Alang Lebar, Kota Palembang";"SUMATERA SELATAN";"30153";"Indonesia";" 081373317743";"";"";"-2.9247361";"104.7100427";"https://maps.google.com/?cid=0x0:0xac0fcd169193ce81";""
"building materials";"Perusahaan Konstruksi";"PT. Duta Mulia Palembang";"Jl. Bypass Alang-alang Lebar Pergudangan Graha Mitra Sukarame Block B03/09, Talang Klp., Kec. Alang-Alang Lebar, Kota Palembang, Sumatera Selatan 30151";"Talang Klp., Kec. Alang-Alang Lebar, Kota Palembang";"SUMATERA SELATAN";"30151";"Indonesia";" 07115645154";"";"";"-2.929511";"104.686019";"https://maps.google.com/?cid=0x0:0x9911ab5972b3104b";""
"building materials";"Toko";"Setia Baru";"Jl. Kolonel H. Barlian No.205, Srijaya, Kec. Alang-Alang Lebar, Kota Palembang, Sumatera Selatan 30151";"Srijaya, Kec. Alang-Alang Lebar, Kota Palembang";"SUMATERA SELATAN";"30151";"Indonesia";" 0711411063";"";"";"-2.9517689";"104.7333437";"https://maps.google.com/?cid=0x0:0x7e20a74989ae8812";""
"building materials";"Toko Bahan Bangunan";"Toko Terus Jaya";"Jl. Rama Raya Jl. Klp. Gading No.40, Talang Klp., Kec. Alang-Alang Lebar, Kota Palembang, Sumatera Selatan 30151";"Talang Klp., Kec. Alang-Alang Lebar, Kota Palembang";"SUMATERA SELATAN";"30151";"Indonesia";" 07115612051";"";"";"-2.9434665";"104.687622";"https://maps.google.com/?cid=0x0:0x6fcf0ad6baa7b49e";""
"building materials";"Toko";"Naga Mas";"3PG5+F4W, Jl. Drs. H. Dahlan HY, Karya Baru, Kec. Alang-Alang Lebar, Kota Palembang, Sumatera Selatan 30961";"Jl. Drs. H. Dahlan HY, Karya Baru, Kec. Alang-Alang Lebar, Kota Palembang";"SUMATERA SELATAN";"30961";"Indonesia";"";"";"";"-2.9237566";"104.707837";"https://maps.google.com/?cid=0x0:0xd7a83deda9b7fd63";""
"building materials";"Toko Bahan Bangunan";"TB. Adi Guna";"Jl. Kolonel H. Barlian KM.9 No.55, Karya Baru, Kec. Alang-Alang Lebar, Kota Palembang, Sumatera Selatan 30153";"Karya Baru, Kec. Alang-Alang Lebar, Kota Palembang";"SUMATERA SELATAN";"30153";"Indonesia";" 0711412123";"";"";"-2.9249239";"104.7126113";"https://maps.google.com/?cid=0x0:0xb566c4131d63de63";""
"building materials";"Toko Bahan Bangunan";"Mitra Bangun Bersama";"3P59+RF3, Jl. Kolonel Sulaiman Amin, Karya Baru, Kec. Alang-Alang Lebar, Kota Palembang, Sumatera Selatan 30961";"Jl. Kolonel Sulaiman Amin, Karya Baru, Kec. Alang-Alang Lebar, Kota Palembang";"SUMATERA SELATAN";"30961";"Indonesia";" 085101833038";"";"";"-2.9404814";"104.718677";"https://maps.google.com/?cid=0x0:0xc05d89d14fb8cbf9";""
"building materials";"Toko Bahan Bangunan";"TB. Bina Utama";"Jl. Kolonel H. Barlian No.207 - 208, Srijaya, Kec. Alang-Alang Lebar, Kota Palembang, Sumatera Selatan 30151";"Srijaya, Kec. Alang-Alang Lebar, Kota Palembang";"SUMATERA SELATAN";"30151";"Indonesia";" 0711410617";"";"";"-2.9519618";"104.7338986";"https://maps.google.com/?cid=0x0:0xfcda22b0a164f37b";""
"building materials";"Toko Bahan Bangunan";"TB Maju Bersama 1";"Jl. Soekarno Hatta No.2542, Karya Baru, Kec. Alang-Alang Lebar, Kota Palembang, Sumatera Selatan 30153";"Karya Baru, Kec. Alang-Alang Lebar, Kota Palembang";"SUMATERA SELATAN";"30153";"Indonesia";" 0711411200";"";"";"-2.9309378";"104.7046828";"https://maps.google.com/?cid=0x0:0xba0dedf0b48d4691";""
"building materials";"Toko Bahan Bangunan";"CV. Surya Cipta";"3M9P+VG4, Jl. Bypass Alang-Alang Lebar, Talang Klp., Kec. Alang-Alang Lebar, Kota Palembang, Sumatera Selatan 30961";"Jl. Bypass Alang-Alang Lebar, Talang Klp., Kec. Alang-Alang Lebar, Kota Palembang";"SUMATERA SELATAN";"30961";"Indonesia";" 07115645207";"";"";"-2.9303713";"104.6863204";"https://maps.google.com/?cid=0x0:0x9c4e652c042a4147";""
"building materials";"Toko Bahan Bangunan";"Karya Baru Jaya";"2PR5+J3J, Jl. Karya Baru, Karya Baru, Kec. Alang-Alang Lebar, Kota Palembang, Sumatera Selatan 30151";"Jl. Karya Baru, Karya Baru, Kec. Alang-Alang Lebar, Kota Palembang";"SUMATERA SELATAN";"30151";"Indonesia";" 085100347717";"";"";"-2.9584116";"104.7076405";"https://maps.google.com/?cid=0x0:0x6d4f46d140a20abf";""
"building materials";"Toko Bahan Bangunan";"TB Maju Jaya";"3PC3+P29, Jl. Hasanudin, Talang Klp., Kec. Alang-Alang Lebar, Kota Palembang, Sumatera Selatan 30124";"Jl. Hasanudin, Talang Klp., Kec. Alang-Alang Lebar, Kota Palembang";"SUMATERA SELATAN";"30124";"Indonesia";" 07117423562";"";"";"-2.9282109";"104.702608";"https://maps.google.com/?cid=0x0:0xdd98ffd19028c180";""
"building materials";"Toko Bahan Bangunan";"Depot T.S";"Sukarami, Lorong Langgar No.213, Sukodadi, Kec. Alang-Alang Lebar, Kota Palembang, Sumatera Selatan 30153";"Lorong Langgar No.213, Sukodadi, Kec. Alang-Alang Lebar, Kota Palembang";"SUMATERA SELATAN";"30153";"Indonesia";" 082280094178";"";"";"-2.9134372";"104.6933884";"https://maps.google.com/?cid=0x0:0x58c74d1122f69cf9";""
"building materials";"Toko Bahan Bangunan";"Mitra Bangunan Supermarket";"Jalan KOL. Haji Burlian No. 88, Sukarami, Karya Baru, Kec. Alang-Alang Lebar, Kota Palembang, Sumatera Selatan 30961";"Sukarami, Karya Baru, Kec. Alang-Alang Lebar, Kota Palembang";"SUMATERA SELATAN";"30961";"Indonesia";" 081246027168";"";"";"-2.9354069";"104.718484";"https://maps.google.com/?cid=0x0:0x4dbeeccf8787bd0a";""
"building materials";"Toko Bahan Bangunan";"Intan Truss / Ira";"Komplek Pergudangan Sukarame, Jl. Bypass Alang-Alang Lebar Blok AB No.11, Talang Klp., Kec. Alang-Alang Lebar, Kota Palembang, Sumatera Selatan 30961";"Jl. Bypass Alang-Alang Lebar Blok AB No.11, Talang Klp., Kec. Alang-Alang Lebar, Kota Palembang";"SUMATERA SELATAN";"30961";"Indonesia";" 082269006666";"";"";"-2.9300128";"104.6853392";"https://maps.google.com/?cid=0x0:0xa3c77f0158e34ff1";""
"building materials";"building materials";"Sumatera Selatan 30153";"Kota Palembang, Sumatera Selatan";"Kota Palembang, Sumatera Selatan";"SUMATERA SELATAN";"";"Indonesia";"";"";"";"-2.9627265";"104.687936";"https://maps.google.com/?cid=0x0:0x4a25af6ede051e7b";""
"building materials";"Toko Bahan Bangunan";"TB SUMBER ACUAN JAYA";"3P33+993, Jl. Kolonel Sulaiman Amin, Talang Klp., Kec. Alang-Alang Lebar, Kota Palembang, Sumatera Selatan 30151";"Jl. Kolonel Sulaiman Amin, Talang Klp., Kec. Alang-Alang Lebar, Kota Palembang";"SUMATERA SELATAN";"30151";"Indonesia";" 081271567707";"";"";"-2.9466084";"104.7034107";"https://maps.google.com/?cid=0x0:0xb73868b77cc6ffc4";""
"building materials";"Toko Bahan Bangunan";"Depot Lubuk Bakung";"Jl. Soekarno Hatta No.4A, RT.6/RW.9, Siring Agung, Kec. Ilir Bar. I, Kota Palembang, Sumatera Selatan 30138";"RT.6/RW.9, Siring Agung, Kec. Ilir Bar. I, Kota Palembang";"SUMATERA SELATAN";"30138";"Indonesia";" 081377855572";"";"";"-2.9694016";"104.7095224";"https://maps.google.com/?cid=0x0:0xe240db7b878b8daf";""
"building materials";"Toko Bahan Bangunan";"TOKO BANGUNAN INTI SEJAHTERA";"2MPX+2P9, Lorong Harapan I, Talang Klp., Kec. Alang-Alang Lebar, Kota Palembang, Sumatera Selatan 30153";"Lorong Harapan I, Talang Klp., Kec. Alang-Alang Lebar, Kota Palembang";"SUMATERA SELATAN";"30153";"Indonesia";" 082179772977";"";"";"-2.9649549";"104.6993583";"https://maps.google.com/?cid=0x0:0x30be8376c0c8d94c";""
"building materials";"Toko Bahan Bangunan";"Depot Nayyaka";"3PG6+423, Jl. Soekarno Hatta, Karya Baru, Kec. Alang-Alang Lebar, Kota Palembang, Sumatera Selatan 30153";"Jl. Soekarno Hatta, Karya Baru, Kec. Alang-Alang Lebar, Kota Palembang";"SUMATERA SELATAN";"30153";"Indonesia";" 081373317743";"";"";"-2.9247361";"104.7100427";"https://maps.google.com/?cid=0x0:0xac0fcd169193ce81";""
"building materials";"Toko Bahan Bangunan";"Toko Terus Jaya";"Jl. Rama Raya Jl. Klp. Gading No.40, Talang Klp., Kec. Alang-Alang Lebar, Kota Palembang, Sumatera Selatan 30151";"Talang Klp., Kec. Alang-Alang Lebar, Kota Palembang";"SUMATERA SELATAN";"30151";"Indonesia";" 07115612051";"";"";"-2.9434665";"104.687622";"https://maps.google.com/?cid=0x0:0x6fcf0ad6baa7b49e";""
"building materials";"Toko Bahan Bangunan";"Sukasari no 234";"Jl. Sukasari No.234, Talang Klp., Kec. Alang-Alang Lebar, Kota Palembang, Sumatera Selatan 30158";"Talang Klp., Kec. Alang-Alang Lebar, Kota Palembang";"SUMATERA SELATAN";"30158";"Indonesia";"";"";"";"-2.9659733";"104.6976986";"https://maps.google.com/?cid=0x0:0x66c18593d99f3d2e";""
"building materials";"Toko Bahan Bangunan";"TB ModeOn";"2MMV+7FJ, Talang Klp., Kec. Alang-Alang Lebar, Kota Palembang, Sumatera Selatan 30153";"Talang Klp., Kec. Alang-Alang Lebar, Kota Palembang";"SUMATERA SELATAN";"30153";"Indonesia";" 081331313122";"";"";"-2.9667982";"104.6936441";"https://maps.google.com/?cid=0x0:0x1e8d6bdb6acbddcb";""
"building materials";"Toko Kayu";"Depot Kayu Sinar Baru 2";"Jl. Soekarno Hatta No.518, Talang Klp., Kec. Alang-Alang Lebar, Kota Palembang, Sumatera Selatan 30153";"Talang Klp., Kec. Alang-Alang Lebar, Kota Palembang";"SUMATERA SELATAN";"30153";"Indonesia";"";"";"";"-2.9581656";"104.7046599";"https://maps.google.com/?cid=0x0:0x94e35840a60e5788";""
"building materials";"Toko Bahan Bangunan";"Sinar Kembala";"Jl. Soekarno Hatta No.115, Talang Klp., Kec. Alang-Alang Lebar, Kota Palembang, Sumatera Selatan 30153";"Talang Klp., Kec. Alang-Alang Lebar, Kota Palembang";"SUMATERA SELATAN";"30153";"Indonesia";" 0711445986";"";"";"-2.9592796";"104.7053944";"https://maps.google.com/?cid=0x0:0x72fd71719689eb3e";""
"building materials";"Toko Bahan Bangunan";"Toko Bangunan WF2";"Blok BB Komplek Maskarebet, Jl. KH. Ahmad Dahlan No.1, Karya Baru, Kec. Alang-Alang Lebar, Kota Palembang, Sumatera Selatan 30152";"Jl. KH. Ahmad Dahlan No.1, Karya Baru, Kec. Alang-Alang Lebar, Kota Palembang";"SUMATERA SELATAN";"30152";"Indonesia";" 081369418887";"";"";"-2.9284886";"104.7050232";"https://maps.google.com/?cid=0x0:0x3e551367b3535af1";""
"building materials";"Toko Bahan Bangunan";"TB. FIO ( eman )";"Jln.boulevard grand city No.8, RT.15/RW.05, Talang Klp., Kec. Alang-Alang Lebar, Kota Palembang, Sumatera Selatan";"Kota Palembang, Sumatera Selatan";"SUMATERA SELATAN";"";"Indonesia";" 082282891257";"";"";"-2.9519616";"104.6801143";"https://maps.google.com/?cid=0x0:0x609e87920f72bbd2";""
"building materials";"Toko Bahan Bangunan";"Toko Nicko";"Jl. Kana Raya Jl. Klp. Raya No.Blok 4, Talang Klp., Kec. Alang-Alang Lebar, Kota Palembang, Sumatera Selatan 30961";"Talang Klp., Kec. Alang-Alang Lebar, Kota Palembang";"SUMATERA SELATAN";"30961";"Indonesia";" 082352842522";"";"";"-2.9392854";"104.6884184";"https://maps.google.com/?cid=0x0:0x5a9bbae3a7bb61f0";""
"building materials";"Toko Bahan Bangunan";"Toko Bangunan Jaya Akbar";"2MRP+F3M, Jl. Lebung Permai, Talang Klp., Kec. Alang-Alang Lebar, Kota Palembang, Sumatera Selatan 30153";"Jl. Lebung Permai, Talang Klp., Kec. Alang-Alang Lebar, Kota Palembang";"SUMATERA SELATAN";"30153";"Indonesia";"";"";"";"-2.9587874";"104.6851872";"https://maps.google.com/?cid=0x0:0xe3eb0a27b78fed3a";""
"building materials";"Toko Bahan Bangunan";"Depot Ar Rozzaaq";"JL Kelapa Gading, Talang Kelapa, Alang Alang Lebar, Perumnas Talang Kelapa RT 27 RW 08 No. 96 Blok 3, Talang Klp., Kec. Alang-Alang Lebar, Kota Palembang, Sumatera Selatan 30961";"Talang Kelapa, Alang Alang Lebar, Perumnas Talang Kelapa RT 27 RW 08 No. 96 Blok 3, Talang Klp., Kec. Alang-Alang Lebar, Kota Palembang";"SUMATERA SELATAN";"30961";"Indonesia";" 081272172897";"";"";"-2.9355031";"104.6875108";"https://maps.google.com/?cid=0x0:0xa356411a4aede323";""
"building materials";"Perusahaan Konstruksi";"PT. Duta Mulia Palembang";"Jl. Bypass Alang-alang Lebar Pergudangan Graha Mitra Sukarame Block B03/09, Talang Klp., Kec. Alang-Alang Lebar, Kota Palembang, Sumatera Selatan 30151";"Talang Klp., Kec. Alang-Alang Lebar, Kota Palembang";"SUMATERA SELATAN";"30151";"Indonesia";" 07115645154";"";"";"-2.929511";"104.686019";"https://maps.google.com/?cid=0x0:0x9911ab5972b3104b";""
"building materials";"Toko Bahan Bangunan";"CV. Surya Cipta";"3M9P+VG4, Jl. Bypass Alang-Alang Lebar, Talang Klp., Kec. Alang-Alang Lebar, Kota Palembang, Sumatera Selatan 30961";"Jl. Bypass Alang-Alang Lebar, Talang Klp., Kec. Alang-Alang Lebar, Kota Palembang";"SUMATERA SELATAN";"30961";"Indonesia";" 07115645207";"";"";"-2.9303713";"104.6863204";"https://maps.google.com/?cid=0x0:0x9c4e652c042a4147";""
"building materials";"Toko Bahan Bangunan";"DepoQu";"Jl. Soekarno Hatta Jl. Macan Kumbang Raya, Ujung, Kec. Ilir Bar. I, Kota Palembang, Sumatera Selatan 30138";"Ujung, Kec. Ilir Bar. I, Kota Palembang";"SUMATERA SELATAN";"30138";"Indonesia";" 082176063200";"";"";"-2.9763612";"104.7151586";"https://maps.google.com/?cid=0x0:0x64dd5809d1be4705";""
"building materials";"Toko Bahan Bangunan";"PT Aditya Sarana Graha Palembang";"Jl. Talang Klp. Jl. Blk. C No.03, RT.039/RW.11, Bukit Baru, Kec. Alang-Alang Lebar, Kota Palembang, Sumatera Selatan 30961";"RT.039/RW.11, Bukit Baru, Kec. Alang-Alang Lebar, Kota Palembang";"SUMATERA SELATAN";"30961";"Indonesia";" 07115731046";"";"";"-2.9637334";"104.6796143";"https://maps.google.com/?cid=0x0:0x5f97acea8ca0b125";""
"building materials";"Toko Bahan Bangunan";"Depot T.S";"Sukarami, Lorong Langgar No.213, Sukodadi, Kec. Alang-Alang Lebar, Kota Palembang, Sumatera Selatan 30153";"Lorong Langgar No.213, Sukodadi, Kec. Alang-Alang Lebar, Kota Palembang";"SUMATERA SELATAN";"30153";"Indonesia";" 082280094178";"";"";"-2.9134372";"104.6933884";"https://maps.google.com/?cid=0x0:0x58c74d1122f69cf9";""
"building materials";"Toko Bahan Bangunan";"TB Maju Bersama 1";"Jl. Soekarno Hatta No.2542, Karya Baru, Kec. Alang-Alang Lebar, Kota Palembang, Sumatera Selatan 30153";"Karya Baru, Kec. Alang-Alang Lebar, Kota Palembang";"SUMATERA SELATAN";"30153";"Indonesia";" 0711411200";"";"";"-2.9309378";"104.7046828";"https://maps.google.com/?cid=0x0:0xba0dedf0b48d4691";""
"building materials";"Toko Bahan Bangunan";"Toko Cahaya Makmur";"3M3Q+Q63, Jl. Talang Klp., Talang Klp., Kec. Alang-Alang Lebar, Kota Palembang, Sumatera Selatan 30155";"Jl. Talang Klp., Talang Klp., Kec. Alang-Alang Lebar, Kota Palembang";"SUMATERA SELATAN";"30155";"Indonesia";" 081279203400";"";"";"-2.9456055";"104.6880473";"https://maps.google.com/?cid=0x0:0x2748eca1d4a1be4d";""
"building materials";"Toko Bahan Bangunan";"Karya Baru Jaya";"2PR5+J3J, Jl. Karya Baru, Karya Baru, Kec. Alang-Alang Lebar, Kota Palembang, Sumatera Selatan 30151";"Jl. Karya Baru, Karya Baru, Kec. Alang-Alang Lebar, Kota Palembang";"SUMATERA SELATAN";"30151";"Indonesia";" 085100347717";"";"";"-2.9584116";"104.7076405";"https://maps.google.com/?cid=0x0:0x6d4f46d140a20abf";""
"building materials";"Toko";"DEPOT RIZQI 99";"2MVX+PXF, Unnamed Road, Talang Klp., Kec. Alang-Alang Lebar, Kota Palembang, Sumatera Selatan 30153";"Unnamed Road, Talang Klp., Kec. Alang-Alang Lebar, Kota Palembang";"SUMATERA SELATAN";"30153";"Indonesia";" 081377992929";"";"";"-2.9556888";"104.6999277";"https://maps.google.com/?cid=0x0:0xd7ce04b90e6b6655";""
"building materials";"Toko Kayu";"DEPOT PERTUKANGAN KAYU "MARABES"";"Jl. Perumnas Talang Klp. No.Blok 7 RT 35, Talang Klp., Kec. Alang-Alang Lebar, Kota Palembang, Sumatera Selatan 30151";"Talang Klp., Kec. Alang-Alang Lebar, Kota Palembang";"SUMATERA SELATAN";"30151";"Indonesia";" 08127824231";"";"";"-2.944544";"104.6872624";"https://maps.google.com/?cid=0x0:0x3385b81949c6655e";""
"building materials";"Pemasok Bahan Bangunan";"TB Ming-Ming Jaya";"Ruko Palm Hill, Jl. Talang Klp. No.22, Talang Klp., Kec. Alang-Alang Lebar, Kota Palembang, Sumatera Selatan 30153";"Jl. Talang Klp. No.22, Talang Klp., Kec. Alang-Alang Lebar, Kota Palembang";"SUMATERA SELATAN";"30153";"Indonesia";" 082279313337";"";"";"-2.9533132";"104.6876277";"https://maps.google.com/?cid=0x0:0x3a03d0a1f9c270e2";""
"building materials";"building materials";"Kec. Alang-Alang Lebar";"Kota Palembang, Sumatera Selatan";"Kota Palembang, Sumatera Selatan";"SUMATERA SELATAN";"";"Indonesia";"";"";"";"-2.9331703";"104.703526";"https://maps.google.com/?cid=0x0:0x7cb4d7710ca5cbf1";""
"building materials";"Toko Perlengkapan Rumah";"PT. Mitra Bangunan Indonesia - Shunda Plafon PVC Palembang";"Jl. Sultan Mahmud Badaruddin II No.7, Alang Alang Lebar, Kec. Alang-Alang Lebar, Kota Palembang, Sumatera Selatan 30154";"Alang Alang Lebar, Kec. Alang-Alang Lebar, Kota Palembang";"SUMATERA SELATAN";"30154";"Indonesia";" 085283839899";"";"";"-2.9178065";"104.7039466";"https://maps.google.com/?cid=0x0:0x5a27d685ac2b731a";""
"building materials";"Toko Perlengkapan Atap";"RoofMart - PT TATALOGAM LESTARI";"Jln Bypass alang alang lebar 23 (Ruko pintu hijau berderet) sebelah gudang ALFAMART DC RT 12 RW 05 Kecamatan Sukarami, Alang Alang Lebar, Kec. Alang-Alang Lebar, Kota Palembang, Sumatera Selatan 30154";"Alang Alang Lebar, Kec. Alang-Alang Lebar, Kota Palembang";"SUMATERA SELATAN";"30154";"Indonesia";" 081514899398";"";"";"-2.9308862";"104.68722";"https://maps.google.com/?cid=0x0:0x26ca56b802a15892";""
"building materials";"Toko Bahan Bangunan";"Toko Aneka Sejahtera";"Jalan H. Dahlan GI No.19 Maskrebet, Talang Klp., Kec. Alang-Alang Lebar, Kota Palembang, Sumatera Selatan 30154";"Talang Klp., Kec. Alang-Alang Lebar, Kota Palembang";"SUMATERA SELATAN";"30154";"Indonesia";" 082182512439";"";"";"-2.928205";"104.6973793";"https://maps.google.com/?cid=0x0:0x429b307412d887ca";""
"building materials";"Pusat Perbelanjaan";"CV BANGUN SEJAHTERA";"3MJJ+JM7, Jl. Bypass Alang-Alang Lebar, Talang Klp., Kec. Alang-Alang Lebar, Kota Palembang, Sumatera Selatan 30961";"Jl. Bypass Alang-Alang Lebar, Talang Klp., Kec. Alang-Alang Lebar, Kota Palembang";"SUMATERA SELATAN";"30961";"Indonesia";" 07117433277";"";"";"-2.9184594";"104.6816684";"https://maps.google.com/?cid=0x0:0xdc7d6d2958e173d6";""
"building materials";"building materials";"Suplier Taso Palembang";"";"";"SUMATERA SELATAN";"";"Indonesia";" 081366196385";"";"";"-2.44565";"117.8888";"https://maps.google.com/?cid=0x0:0xd443d26ab873d9d7";""
"building materials";"Toko Mebel";"Wood Metal Industrial";"Komplek Maskarebet Raya Jalan Matahari Blok CG No.17 RT.064, Talang Klp., Kec. Sukarami, Kota Palembang, Sumatera Selatan 30154";"Talang Klp., Kec. Sukarami, Kota Palembang";"SUMATERA SELATAN";"30154";"Indonesia";" 081278561193";"";"";"-2.9289734";"104.7014201";"https://maps.google.com/?cid=0x0:0x1d7bd0518bd52033";""
"building materials";"Toko Mebel";"Azzahra alumunium";"perum cahaya, Jl. Sukasari No.2 blok A, RT.15/RW.05, Talang Klp., Kec. Alang-Alang Lebar, Kota Palembang, Sumatera Selatan 30154";"Jl. Sukasari No.2 blok A, RT.15/RW.05, Talang Klp., Kec. Alang-Alang Lebar, Kota Palembang";"SUMATERA SELATAN";"30154";"Indonesia";" 085366306137";"";"";"-2.9636496";"104.6955937";"https://maps.google.com/?cid=0x0:0x26a45639d7e8af5c";""
"building materials";"Toko Bahan Bangunan";"Toko Aneka Bangunan";"3M9W+8C8, Jl. Hasanudin, Talang Klp., Kec. Alang-Alang Lebar, Kota Palembang, Sumatera Selatan 30154";"Jl. Hasanudin, Talang Klp., Kec. Alang-Alang Lebar, Kota Palembang";"SUMATERA SELATAN";"30154";"Indonesia";" 07117922099";"";"";"-2.9317182";"104.6960676";"https://maps.google.com/?cid=0x0:0x8b64b8f31bed0bee";""
"building materials";"Toko Bahan Bangunan";"TB BENATA 29 JAYA";"3M9W+JFV, Jl. Hasanudin, Talang Klp., Kec. Alang-Alang Lebar, Kota Palembang, Sumatera Selatan 30154";"Jl. Hasanudin, Talang Klp., Kec. Alang-Alang Lebar, Kota Palembang";"SUMATERA SELATAN";"30154";"Indonesia";" 082378931589";"";"";"-2.9308766";"104.696174";"https://maps.google.com/?cid=0x0:0x3e933b5e8fcc1c06";""
"building materials";"Toko Bahan Bangunan";"TB. Mudung Satu";"Jl. Kolonel H. Barlian No.04, Sukodadi, Kec. Alang-Alang Lebar, Kota Palembang, Sumatera Selatan 30962";"Sukodadi, Kec. Alang-Alang Lebar, Kota Palembang";"SUMATERA SELATAN";"30962";"Indonesia";" 08127897662";"";"";"-2.9204266";"104.7076887";"https://maps.google.com/?cid=0x0:0xd6c901db051e6110";""
"building materials";"Toko Bahan Bangunan";"TB. Maju Bersama 2";"Jalan Hasanudin Komplek Griya Hero Abadi, Blok A No.56, Talang Klp., Kec. Alang-Alang Lebar, Kota Palembang, Sumatera Selatan 30154";"Blok A No.56, Talang Klp., Kec. Alang-Alang Lebar, Kota Palembang";"SUMATERA SELATAN";"30154";"Indonesia";" 085105610001";"";"";"-2.9297056";"104.6962877";"https://maps.google.com/?cid=0x0:0xfd364d917faf29ce";""
"building materials";"Toko Bahan Bangunan";"Toko Bangunan Sinar Djuki";"Jl. Hasanudin No.69-70, Talang Klp., Kec. Alang-Alang Lebar, Kota Palembang, Sumatera Selatan 30154";"Talang Klp., Kec. Alang-Alang Lebar, Kota Palembang";"SUMATERA SELATAN";"30154";"Indonesia";" 081377875523";"";"";"-2.9290472";"104.6964254";"https://maps.google.com/?cid=0x0:0xdb7f070cdad784a6";""
"building materials";"Toko Kayu";"Depot Bangunan Dan Kayu Sulung Jaya";"Jl. Letnan Murod No.264, Srijaya, Kec. Alang-Alang Lebar, Kota Palembang, Sumatera Selatan 30128";"Srijaya, Kec. Alang-Alang Lebar, Kota Palembang";"SUMATERA SELATAN";"30128";"Indonesia";" 0711414931";"";"";"-2.9558813";"104.7277351";"https://maps.google.com/?cid=0x0:0xf342e09e5f57dfce";""
"building materials";"building materials";"N/A";"";"";"SUMATERA SELATAN";"";"Indonesia";" 081367483339";"";"";"-2.9549685";"104.7629646";"https://maps.google.com/?cid=0x0:0xbc4fd76e1f375099";""
"building materials";"Pemasok Aluminium";"Graha Aluminium Perkasa";"Jl. By Pass Alang Alang Lebar Terminal No.Km 12, Alang Alang Lebar, Kec. Alang-Alang Lebar, Kota Palembang, Sumatera Selatan 30154";"Alang Alang Lebar, Kec. Alang-Alang Lebar, Kota Palembang";"SUMATERA SELATAN";"30154";"Indonesia";" 082123638153";"";"";"-2.9181079";"104.6803396";"https://maps.google.com/?cid=0x0:0xf180329106432f0f";""
"building materials";"Toko Bahan Bangunan";"Depot Kayu  Material Kari-3";"Jl. Mandi Api II No.10, RT.31/RW.10, Srijaya, Kec. Alang-Alang Lebar, Kota Palembang, Sumatera Selatan 30153";"RT.31/RW.10, Srijaya, Kec. Alang-Alang Lebar, Kota Palembang";"SUMATERA SELATAN";"30153";"Indonesia";" 081278022212";"";"";"-2.954579";"104.7245179";"https://maps.google.com/?cid=0x0:0x5dccb5eed51fd900";""
"building materials";"Toko";"Toko Gemilang Sinar Harapan";"Jl. Maskarebet Raya No.3-4, Talang Klp., Kec. Alang-Alang Lebar, Kota Palembang, Sumatera Selatan 30154";"Talang Klp., Kec. Alang-Alang Lebar, Kota Palembang";"SUMATERA SELATAN";"30154";"Indonesia";" 07117423762";"";"";"-2.9282295";"104.7033542";"https://maps.google.com/?cid=0x0:0xcc9e70abad45f1cb";""
"building materials";"";"LOSTER SUKSES MAJU (LSM)";"hijau prumnas, Jl. Talang Klp. rt31 No.751 blok. 7, Talang Klp., Kec. Alang-Alang Lebar, Kota Palembang, Sumatera Selatan 30154";"Jl. Talang Klp. rt31 No.751 blok. 7, Talang Klp., Kec. Alang-Alang Lebar, Kota Palembang";"SUMATERA SELATAN";"30154";"Indonesia";" 082179765479";"";"";"-2.9436271";"104.6885326";"https://maps.google.com/?cid=0x0:0x5e8b88dba02b1432";""
"building materials";"Toko Bahan Bangunan";"Semen Padang";"Jl. Bypass Alang-Alang Lebar KM.12 No.99, Alang Alang Lebar, Kec. Alang-Alang Lebar, Kota Palembang, Sumatera Selatan 30961";"Alang Alang Lebar, Kec. Alang-Alang Lebar, Kota Palembang";"SUMATERA SELATAN";"30961";"Indonesia";"";"";"";"-2.9178059";"104.6817108";"https://maps.google.com/?cid=0x0:0xb2446ef4205f1c29";""
"building materials";"Toko Bahan Bangunan";"TB SUMBER ACUAN JAYA";"3P33+993, Jl. Kolonel Sulaiman Amin, Talang Klp., Kec. Alang-Alang Lebar, Kota Palembang, Sumatera Selatan 30151";"Jl. Kolonel Sulaiman Amin, Talang Klp., Kec. Alang-Alang Lebar, Kota Palembang";"SUMATERA SELATAN";"30151";"Indonesia";" 081271567707";"";"";"-2.9466084";"104.7034107";"https://maps.google.com/?cid=0x0:0xb73868b77cc6ffc4";""
"building materials";"Toko Bahan Bangunan";"Atap Indah";"2735, Jl. Kolonel H. Barlian No.35, Karya Baru, Alang-Alang Lebar, Palembang City, South Sumatra 30152";"Jl. Kolonel H. Barlian No.35, Karya Baru, Alang-Alang Lebar, Palembang City";"SUMATERA SELATAN";"30152";"Indonesia";" 0711421500";"";"";"-2.9271855";"104.7149493";"https://maps.google.com/?cid=0x0:0xe8671c1ae64e8148";""
"building materials";"Toko Bahan Bangunan";"Depot Nayyaka";"3PG6+423, Jl. Soekarno Hatta, Karya Baru, Kec. Alang-Alang Lebar, Kota Palembang, Sumatera Selatan 30153";"Jl. Soekarno Hatta, Karya Baru, Kec. Alang-Alang Lebar, Kota Palembang";"SUMATERA SELATAN";"30153";"Indonesia";" 081373317743";"";"";"-2.9247361";"104.7100427";"https://maps.google.com/?cid=0x0:0xac0fcd169193ce81";""
"building materials";"Toko Bahan Bangunan";"Depot gorong gorong embun pagi";"3MHJ+RQG, Jl. Bypass Alang-Alang Lebar, Alang Alang Lebar, Kec. Alang-Alang Lebar, Kota Palembang, Sumatera Selatan 30961";"Jl. Bypass Alang-Alang Lebar, Alang Alang Lebar, Kec. Alang-Alang Lebar, Kota Palembang";"SUMATERA SELATAN";"30961";"Indonesia";" 089614961147";"";"";"-2.9204354";"104.6819511";"https://maps.google.com/?cid=0x0:0xd4063a7009e4a14e";""
"building materials";"Toko Bahan Bangunan";"Sukses mandiri";"Jl. By Pass Alang Alang Lebar, Alang Alang Lebar, Kec. Alang-Alang Lebar, Kota Palembang, Sumatera Selatan 30961";"Alang Alang Lebar, Kec. Alang-Alang Lebar, Kota Palembang";"SUMATERA SELATAN";"30961";"Indonesia";" 082177613796";"";"";"-2.919928";"104.6822954";"https://maps.google.com/?cid=0x0:0xe06d5c0f4ce86e5";""
"building materials";"Perusahaan Konstruksi";"PT. Duta Mulia Palembang";"Jl. Bypass Alang-alang Lebar Pergudangan Graha Mitra Sukarame Block B03/09, Talang Klp., Kec. Alang-Alang Lebar, Kota Palembang, Sumatera Selatan 30151";"Talang Klp., Kec. Alang-Alang Lebar, Kota Palembang";"SUMATERA SELATAN";"30151";"Indonesia";" 07115645154";"";"";"-2.929511";"104.686019";"https://maps.google.com/?cid=0x0:0x9911ab5972b3104b";""
"building materials";"Toko Bahan Bangunan";"TB. ANUGRAH";"2MRM+8VX, Jl. Lebung Permai, Talang Klp., Kec. Alang-Alang Lebar, Kota Palembang, Sumatera Selatan 30153";"Jl. Lebung Permai, Talang Klp., Kec. Alang-Alang Lebar, Kota Palembang";"SUMATERA SELATAN";"30153";"Indonesia";" 081385378889";"";"";"-2.9591335";"104.68473";"https://maps.google.com/?cid=0x0:0xcb51a6e13053b49f";""
"building materials";"Toko Bahan Bangunan";"CV. Surya Cipta";"3M9P+VG4, Jl. Bypass Alang-Alang Lebar, Talang Klp., Kec. Alang-Alang Lebar, Kota Palembang, Sumatera Selatan 30961";"Jl. Bypass Alang-Alang Lebar, Talang Klp., Kec. Alang-Alang Lebar, Kota Palembang";"SUMATERA SELATAN";"30961";"Indonesia";" 07115645207";"";"";"-2.9303713";"104.6863204";"https://maps.google.com/?cid=0x0:0x9c4e652c042a4147";""
"building materials";"Toko Bahan Bangunan";"Mitra Bangun Bersama";"3P59+RF3, Jl. Kolonel Sulaiman Amin, Karya Baru, Kec. Alang-Alang Lebar, Kota Palembang, Sumatera Selatan 30961";"Jl. Kolonel Sulaiman Amin, Karya Baru, Kec. Alang-Alang Lebar, Kota Palembang";"SUMATERA SELATAN";"30961";"Indonesia";" 085101833038";"";"";"-2.9404814";"104.718677";"https://maps.google.com/?cid=0x0:0xc05d89d14fb8cbf9";""
"building materials";"building materials";"Sumatera Selatan 30131";"Kota Palembang, Sumatera Selatan";"Kota Palembang, Sumatera Selatan";"SUMATERA SELATAN";"";"Indonesia";"";"";"";"-3.0097307";"104.7513647";"https://maps.google.com/?cid=0x0:0x9f615406e50452bf";""
"building materials";"Toko Bahan Bangunan";"Istana Bangunan Palembang";"Jl. KH. A. Rasyid Siddiq No.861 D-F, Kertapati, 7 Ulu, Kecamatan Seberang Ulu I, Kota Palembang, Sumatera Selatan 30254";"Kertapati, 7 Ulu, Kecamatan Seberang Ulu I, Kota Palembang";"SUMATERA SELATAN";"30254";"Indonesia";" 082181404848";"";"";"-3.001137";"104.7660377";"https://maps.google.com/?cid=0x0:0xa294d886ea1dbdd7";""
"building materials";"Toko Bahan Bangunan";"Toko Bangunan Bukit Bintang";"Jl. Padang Selasa No.10A, Bukit Lama, Kec. Ilir Bar. I, Kota Palembang, Sumatera Selatan 30139";"Bukit Lama, Kec. Ilir Bar. I, Kota Palembang";"SUMATERA SELATAN";"30139";"Indonesia";" 082186748809";"";"";"-2.990179";"104.7345019";"https://maps.google.com/?cid=0x0:0xbfca6264d4c26d95";""
"building materials";"Pembangunan Perumahan";"PT Ali";"XQP4+RH6, Jalan Lintas Sumatera, Kecamatan Serbang Ulu I, Tuan Kentang, Kecamatan Seberang Ulu I, Kota Palembang, Sumatera Selatan 30254";"Jalan Lintas Sumatera, Kecamatan Serbang Ulu I, Tuan Kentang, Kecamatan Seberang Ulu I, Kota Palembang";"SUMATERA SELATAN";"30254";"Indonesia";"";"";"";"-3.0129552";"104.7563939";"https://maps.google.com/?cid=0x0:0x1ccfd2cf94845044";""
"building materials";"Toko Bahan Bangunan";"TB SINAR MEGA JAYA";"Jl. KH Wahid Hasyim No.430, RT.09/RW.02, Tuan Kentang, Kecamatan Seberang Ulu I, Kota Palembang, Sumatera Selatan 30257";"RT.09/RW.02, Tuan Kentang, Kecamatan Seberang Ulu I, Kota Palembang";"SUMATERA SELATAN";"30257";"Indonesia";" 0711513063";"";"";"-3.0146931";"104.7557247";"https://maps.google.com/?cid=0x0:0xd8e8f3f13dbd9c81";""
"building materials";"Toko Bahan Bangunan";"Toko Bangunan Akim";"Jl. H Faqih Usman, 2 Ulu, Kecamatan Seberang Ulu I, Kota Palembang, Sumatera Selatan 30131";"2 Ulu, Kecamatan Seberang Ulu I, Kota Palembang";"SUMATERA SELATAN";"30131";"Indonesia";" 081367783846";"";"";"-3.0076603";"104.7533676";"https://maps.google.com/?cid=0x0:0xf4635804ec5984f9";""
"building materials";"Toko Bahan Bangunan";"Depot H. Umaidi";"Jl. Aiptu A Wahab No.97, Tuan Kentang, Kecamatan Seberang Ulu I, Kota Palembang, Sumatera Selatan 30255";"Tuan Kentang, Kecamatan Seberang Ulu I, Kota Palembang";"SUMATERA SELATAN";"30255";"Indonesia";" 07117833181";"";"";"-3.0171483";"104.7546695";"https://maps.google.com/?cid=0x0:0xa99ae3d0ed38033d";""
"building materials";"Toko Bahan Bangunan";"Husni";"Jl. H Faqih Usman No.2001, 1 Ulu, Kecamatan Seberang Ulu I, Kota Palembang, Sumatera Selatan 30256";"1 Ulu, Kecamatan Seberang Ulu I, Kota Palembang";"SUMATERA SELATAN";"30256";"Indonesia";" 082186083072";"";"";"-3.0149839";"104.7532839";"https://maps.google.com/?cid=0x0:0xd941fccd3040a937";""
"building materials";"Toko Bahan Bangunan";"Spyro";"Jl. KH Wahid Hasyim No.1, 2 Ulu, Kecamatan Seberang Ulu I, Kota Palembang, Sumatera Selatan 30255";"2 Ulu, Kecamatan Seberang Ulu I, Kota Palembang";"SUMATERA SELATAN";"30255";"Indonesia";" 085103881866";"";"";"-3.0135142";"104.755994";"https://maps.google.com/?cid=0x0:0x70748e31de0eb208";""
"building materials";"Toko Bahan Bangunan";"Toko Bangunan Fuad Jaya";"Jl. KH Faqih Usman Jl. Jemb. Ogan, 2 Ulu, Seberang Ulu I, 3-4 Ulu, Kecamatan Seberang Ulu I, Kota Palembang, Sumatera Selatan 30256";"2 Ulu, Seberang Ulu I, 3-4 Ulu, Kecamatan Seberang Ulu I, Kota Palembang";"SUMATERA SELATAN";"30256";"Indonesia";" 081271627227";"";"";"-3.0068307";"104.7538401";"https://maps.google.com/?cid=0x0:0x8f5fe08a1f86f033";""
"building materials";"Toko Bahan Bangunan";"Depot Bahan Bangunan Hikmah Jaya";"Jl. Pangeran Sido Ing Lautan No.1097, 36 Ilir, Kec. Ilir Bar. II, Kota Palembang, Sumatera Selatan 30146";"36 Ilir, Kec. Ilir Bar. II, Kota Palembang";"SUMATERA SELATAN";"30146";"Indonesia";" 087748464713";"";"";"-3.010062";"104.746578";"https://maps.google.com/?cid=0x0:0x5b877f455cd67154";""
"building materials";"Toko Bahan Bangunan";"Toko Bangunan TRI JAYA";"Jl. H Faqih Usman No.1, Ulu laut, Kecamatan Seberang Ulu I, Kota Palembang, Sumatera Selatan 30141";"Ulu laut, Kecamatan Seberang Ulu I, Kota Palembang";"SUMATERA SELATAN";"30141";"Indonesia";" 081361517771";"";"";"-3.0153783";"104.753986";"https://maps.google.com/?cid=0x0:0xd18cad61604ade8c";""
"building materials";"Toko Bahan Bangunan";"Kita Jaya Bangunan";"Jl. KH Wahid Hasyim No.1, 2 Ulu, Kecamatan Seberang Ulu I, Kota Palembang, Sumatera Selatan 30255";"2 Ulu, Kecamatan Seberang Ulu I, Kota Palembang";"SUMATERA SELATAN";"30255";"Indonesia";" 08128882680";"";"";"-3.013924";"104.7565793";"https://maps.google.com/?cid=0x0:0x9f8674fb1f7607c3";""
"building materials";"Toko Bahan Bangunan";"Depot Dua Putra";"Jl. Sultan M. Mansyur No.556, 35 Ilir, Kec. Ilir Bar. II, Kota Palembang, Sumatera Selatan 30134";"35 Ilir, Kec. Ilir Bar. II, Kota Palembang";"SUMATERA SELATAN";"30134";"Indonesia";" 082184823290";"";"";"-3.0033408";"104.7467428";"https://maps.google.com/?cid=0x0:0x993f9596e0f84ae5";""
"building materials";"Toko";"Tatang Jaya";"Jl. Pangeran Sido Ing Lautan No.1364, 35 Ilir, Kec. Ilir Bar. II, Kota Palembang, Sumatera Selatan 30146";"35 Ilir, Kec. Ilir Bar. II, Kota Palembang";"SUMATERA SELATAN";"30146";"Indonesia";" 085925760902";"";"";"-3.008205";"104.7467809";"https://maps.google.com/?cid=0x0:0x2b63c6f40706bfa7";""
"building materials";"Toko Bahan Bangunan";"Depot Bahan Bangunan Kurnia";"Jl. Pangeran Sido Ing Lautan No.1229, 36 Ilir, Kec. Gandus, Kota Palembang, Sumatera Selatan 30146";"36 Ilir, Kec. Gandus, Kota Palembang";"SUMATERA SELATAN";"30146";"Indonesia";" 08970118382";"";"";"-3.009411";"104.746535";"https://maps.google.com/?cid=0x0:0x979d6dadd510eb5c";""
"building materials";"Toko Perlengkapan Atap";"Semendawai Gypsum";"Jl. Lintas Sumatra No.367, RW.03, Tuan Kentang, Kecamatan Seberang Ulu I, Kota Palembang, Sumatera Selatan 30255";"RW.03, Tuan Kentang, Kecamatan Seberang Ulu I, Kota Palembang";"SUMATERA SELATAN";"30255";"Indonesia";" 08127326125";"";"";"-3.0151298";"104.7552574";"https://maps.google.com/?cid=0x0:0xd6b83664cfac5235";""
"building materials";"Toko Bahan Bangunan";"MAR DEPOT BANGUNAN";"Jl. H Faqih Usman Blok A1, 1 Ulu, Kecamatan Seberang Ulu I, Kota Palembang, Sumatera Selatan 30257";"1 Ulu, Kecamatan Seberang Ulu I, Kota Palembang";"SUMATERA SELATAN";"30257";"Indonesia";" 085384066685";"";"";"-3.0145577";"104.7528457";"https://maps.google.com/?cid=0x0:0xd260e810640a572a";""
"building materials";"Toko Bahan Bangunan";"Depot Rizky Kamil";"Jl. Aiptu A Wahab No.96, Tuan Kentang, Kecamatan Seberang Ulu I, Kota Palembang, Sumatera Selatan 30255";"Tuan Kentang, Kecamatan Seberang Ulu I, Kota Palembang";"SUMATERA SELATAN";"30255";"Indonesia";" 0711713184";"";"";"-3.017215";"104.7550293";"https://maps.google.com/?cid=0x0:0xe0329b792c334d38";""
"building materials";"Toko Bahan Bangunan";"Toko Sukses Bersama - Semen Baturaja";"2Q97+J29, Jl. Brigjen, Jl. Abdul Kadir Jl. Lingkaran 1, 15 Ilir, Kec. Ilir Tim. I, Kota Palembang, Sumatera Selatan 30124";"Jl. Brigjen, Jl. Abdul Kadir Jl. Lingkaran 1, 15 Ilir, Kec. Ilir Tim. I, Kota Palembang";"SUMATERA SELATAN";"30124";"Indonesia";" 08117875200";"";"";"-2.9809619";"104.7626204";"https://maps.google.com/?cid=0x0:0x9eff3ea6413cb1b0";""
"building materials";"building materials";"Kec. Bukit Kecil";"Kota Palembang, Sumatera Selatan";"Kota Palembang, Sumatera Selatan";"SUMATERA SELATAN";"";"Indonesia";"";"";"";"-2.988549";"104.7491771";"https://maps.google.com/?cid=0x0:0xe7d624519bc4e3fa";""
"building materials";"Toko Bahan Bangunan";"Beringin Jaya";"JL. Raya Palembang-Betung, Km. 15, Talang Semut, Kec. Bukit Kecil, Kota Palembang, Sumatera Selatan 30126";"Km. 15, Talang Semut, Kec. Bukit Kecil, Kota Palembang";"SUMATERA SELATAN";"30126";"Indonesia";" 07117716561";"";"";"-2.9900109";"104.7541531";"https://maps.google.com/?cid=0x0:0x9adc072a282be9ff";""
"building materials";"Toko";"Alam";"Jl. KH. Ahmad Dahlan No.50, Talang Semut, Kec. Bukit Kecil, Kota Palembang, Sumatera Selatan 30136";"Talang Semut, Kec. Bukit Kecil, Kota Palembang";"SUMATERA SELATAN";"30136";"Indonesia";" 081977707753";"";"";"-2.9864";"104.7476028";"https://maps.google.com/?cid=0x0:0xf4c3bc9ce21c1410";""
"building materials";"Toko Bahan Bangunan";"Petak 43";"Jl. Cinde Welan No.4, 24 Ilir, Kec. Bukit Kecil, Kota Palembang, Sumatera Selatan 30114";"24 Ilir, Kec. Bukit Kecil, Kota Palembang";"SUMATERA SELATAN";"30114";"Indonesia";" 081368776222";"";"";"-2.9810011";"104.755053";"https://maps.google.com/?cid=0x0:0x1c40a33b955197a";""
"building materials";"Toko Bahan Bangunan";"Sinar Bintang";"Komp. Ilir Bar. Permai, Jl. Letkol Iskandar No.36 D-1, 24 Ilir, Kec. Bukit Kecil, Kota Palembang, Sumatera Selatan 30134";"Jl. Letkol Iskandar No.36 D-1, 24 Ilir, Kec. Bukit Kecil, Kota Palembang";"SUMATERA SELATAN";"30134";"Indonesia";" 0711311018";"";"";"-2.9838015";"104.7516267";"https://maps.google.com/?cid=0x0:0xd7c9a10e89dfafc8";""
"building materials";"Toko Bahan Bangunan";"Wonosari Jaya";"2Q94+239, Jl. Cinde Welan, 24 Ilir, Kec. Bukit Kecil, Kota Palembang, Sumatera Selatan 30114";"Jl. Cinde Welan, 24 Ilir, Kec. Bukit Kecil, Kota Palembang";"SUMATERA SELATAN";"30114";"Indonesia";" 087748469266";"";"";"-2.9824528";"104.7552226";"https://maps.google.com/?cid=0x0:0x900e449de2c17c9a";""
"building materials";"Toko Bahan Bangunan";"Rizki Art";"Jl. Faqih Jalaluddin No.107, 19 Ilir, Kec. Bukit Kecil, Kota Palembang, Sumatera Selatan 30113";"19 Ilir, Kec. Bukit Kecil, Kota Palembang";"SUMATERA SELATAN";"30113";"Indonesia";" 081278961081";"";"";"-2.988501";"104.758916";"https://maps.google.com/?cid=0x0:0xc3f4ab88198b5add";""
"building materials";"Toko Bahan Bangunan";"Amelia Putra Mandiri. CV";"JL. Komplek Taman Bukit, Blok C-2, 22 Ilir, Kec. Bukit Kecil, Kota Palembang, Sumatera Selatan 30113";"Blok C-2, 22 Ilir, Kec. Bukit Kecil, Kota Palembang";"SUMATERA SELATAN";"30113";"Indonesia";" 0711823155";"";"";"-2.9911083";"104.7567333";"https://maps.google.com/?cid=0x0:0x256ef7dbcfbdc89b";""
"building materials";"Pemasok Bahan Bangunan";"Toko Bangunan Palem Jaya";"Jl. Letnan Jaimas No.4-36, 24 Ilir, Kec. Bukit Kecil, Kota Palembang, Sumatera Selatan 30114";"24 Ilir, Kec. Bukit Kecil, Kota Palembang";"SUMATERA SELATAN";"30114";"Indonesia";"";"";"";"-2.9800061";"104.7544537";"https://maps.google.com/?cid=0x0:0x1571f1d276775301";""
"building materials";"building materials";"Sumatera Selatan 30132";"Kota Palembang, Sumatera Selatan";"Kota Palembang, Sumatera Selatan";"SUMATERA SELATAN";"";"Indonesia";"";"";"";"-3.0098716";"104.741156";"https://maps.google.com/?cid=0x0:0x782b8cc0b3412a92";""
"building materials";"Toko Bahan Bangunan";"Toko Bangunan Akas Diksal Mandiri";"XPVM+XPH, Bukit Lama, Kec. Ilir Bar. I, Kota Palembang, Sumatera Selatan 30136";"Bukit Lama, Kec. Ilir Bar. I, Kota Palembang";"SUMATERA SELATAN";"30136";"Indonesia";" 0711446017";"";"";"-3.0050568";"104.7343458";"https://maps.google.com/?cid=0x0:0x4777d24820e5445a";""
"building materials";"Toko Bahan Bangunan";"TB. SUMBER MAKMUR ( BUKIT )";"Jl. Sultan M. Mansyur No.1079, Bukit Lama, Kec. Ilir Bar. I, Kota Palembang, Sumatera Selatan 30139";"Bukit Lama, Kec. Ilir Bar. I, Kota Palembang";"SUMATERA SELATAN";"30139";"Indonesia";" 085368824168";"";"";"-3.003176";"104.734596";"https://maps.google.com/?cid=0x0:0x661db240561a969c";""
"building materials";"Toko Bahan Bangunan";"Toko Bangunan Jaya Abadi Bukit";"Jalan Jaksa Agung R Suprapto, Depan kampung kecil No.1-2, 26 Ilir D. I, Kec. Ilir Bar. I, Kota Palembang, Sumatera Selatan 30136";"Depan kampung kecil No.1-2, 26 Ilir D. I, Kec. Ilir Bar. I, Kota Palembang";"SUMATERA SELATAN";"30136";"Indonesia";" 082186717100";"";"";"-2.9896573";"104.7367531";"https://maps.google.com/?cid=0x0:0x4365541ff7fb8fc8";""
"building materials";"Toko";"Alam";"Jl. KH. Ahmad Dahlan No.50, Talang Semut, Kec. Bukit Kecil, Kota Palembang, Sumatera Selatan 30136";"Talang Semut, Kec. Bukit Kecil, Kota Palembang";"SUMATERA SELATAN";"30136";"Indonesia";" 081977707753";"";"";"-2.9864";"104.7476028";"https://maps.google.com/?cid=0x0:0xf4c3bc9ce21c1410";""
"building materials";"Toko Kayu";"Depot Masyarakat";"Jl. Politeknik, Bukit Lama, Kec. Ilir Bar. I, Kota Palembang, Sumatera Selatan 30139";"Bukit Lama, Kec. Ilir Bar. I, Kota Palembang";"SUMATERA SELATAN";"30139";"Indonesia";" 081278552474";"";"";"-3.0030261";"104.729656";"https://maps.google.com/?cid=0x0:0xaaf51f311945cf46";""
"building materials";"Toko Bahan Bangunan";"TB. Tanggo Bangunan";"Bukit Lama, Kec. Ilir Bar. I, Kota Palembang, Sumatera Selatan 30136";"Kec. Ilir Bar. I, Kota Palembang";"SUMATERA SELATAN";"30136";"Indonesia";" 085383853521";"";"";"-3.0017695";"104.7294803";"https://maps.google.com/?cid=0x0:0x315115438b775c2c";""
"building materials";"Toko Bahan Bangunan";"Toko Bangunan Akim";"Jl. H Faqih Usman, 2 Ulu, Kecamatan Seberang Ulu I, Kota Palembang, Sumatera Selatan 30131";"2 Ulu, Kecamatan Seberang Ulu I, Kota Palembang";"SUMATERA SELATAN";"30131";"Indonesia";" 081367783846";"";"";"-3.0076603";"104.7533676";"https://maps.google.com/?cid=0x0:0xf4635804ec5984f9";""
"building materials";"Toko Bahan Bangunan";"TB SINAR MEGA JAYA";"Jl. KH Wahid Hasyim No.430, RT.09/RW.02, Tuan Kentang, Kecamatan Seberang Ulu I, Kota Palembang, Sumatera Selatan 30257";"RT.09/RW.02, Tuan Kentang, Kecamatan Seberang Ulu I, Kota Palembang";"SUMATERA SELATAN";"30257";"Indonesia";" 0711513063";"";"";"-3.0146931";"104.7557247";"https://maps.google.com/?cid=0x0:0xd8e8f3f13dbd9c81";""
"building materials";"Toko Bahan Bangunan";"DEPOT MANDALA MANDIRI";"Jalan Sultan Mohamad Mansyur No.1053 A, 32 Ilir, Kec. Ilir Bar. II, Kota Palembang, Sumatera Selatan 30145";"32 Ilir, Kec. Ilir Bar. II, Kota Palembang";"SUMATERA SELATAN";"30145";"Indonesia";" 0711444735";"";"";"-3.0024407";"104.7374425";"https://maps.google.com/?cid=0x0:0x17c0a327093bc31f";""
"building materials";"Toko Bahan Bangunan";"Sinar Bintang";"Komp. Ilir Bar. Permai, Jl. Letkol Iskandar No.36 D-1, 24 Ilir, Kec. Bukit Kecil, Kota Palembang, Sumatera Selatan 30134";"Jl. Letkol Iskandar No.36 D-1, 24 Ilir, Kec. Bukit Kecil, Kota Palembang";"SUMATERA SELATAN";"30134";"Indonesia";" 0711311018";"";"";"-2.9838015";"104.7516267";"https://maps.google.com/?cid=0x0:0xd7c9a10e89dfafc8";""
"building materials";"Toko";"Kumala Permai";"Jl. Radial No.17/151, 24 Ilir, Kec. Bukit Kecil, Kota Palembang, Sumatera Selatan 30127";"24 Ilir, Kec. Bukit Kecil, Kota Palembang";"SUMATERA SELATAN";"30127";"Indonesia";" 0711320857";"";"";"-2.9833184";"104.7501874";"https://maps.google.com/?cid=0x0:0xd6920ac4f00677d2";""
"building materials";"Toko Bahan Bangunan";"Toko Bangunan Indah Permai - Semen Baturaja";"Jl. KH Wahid Hasyim No.1690, 3-4 Ulu, Kecamatan Seberang Ulu I, Kota Palembang, Sumatera Selatan 30258";"3-4 Ulu, Kecamatan Seberang Ulu I, Kota Palembang";"SUMATERA SELATAN";"30258";"Indonesia";" 085267025877";"";"";"-3.008196";"104.7611196";"https://maps.google.com/?cid=0x0:0xf676f2ec0606131f";""
"building materials";"Toko Bahan Bangunan";"Ayu Mandiri";"Jl. Sultan M. Mansyur No.1137A, Bukit Lama, Kec. Ilir Bar. I, Kota Palembang, Sumatera Selatan 30136";"Bukit Lama, Kec. Ilir Bar. I, Kota Palembang";"SUMATERA SELATAN";"30136";"Indonesia";" 082175306777";"";"";"-3.0026582";"104.7376408";"https://maps.google.com/?cid=0x0:0x16562a0ebf5e4523";""
"building materials";"Toko Bahan Bangunan";"Toko Bangunan Bukit Bintang";"Jl. Padang Selasa No.10A, Bukit Lama, Kec. Ilir Bar. I, Kota Palembang, Sumatera Selatan 30139";"Bukit Lama, Kec. Ilir Bar. I, Kota Palembang";"SUMATERA SELATAN";"30139";"Indonesia";" 082186748809";"";"";"-2.990179";"104.7345019";"https://maps.google.com/?cid=0x0:0xbfca6264d4c26d95";""
"building materials";"Toko Bahan Bangunan";"Beringin Jaya";"JL. Raya Palembang-Betung, Km. 15, Talang Semut, Kec. Bukit Kecil, Kota Palembang, Sumatera Selatan 30126";"Km. 15, Talang Semut, Kec. Bukit Kecil, Kota Palembang";"SUMATERA SELATAN";"30126";"Indonesia";" 07117716561";"";"";"-2.9900109";"104.7541531";"https://maps.google.com/?cid=0x0:0x9adc072a282be9ff";""
"building materials";"Toko Bahan Bangunan";"Depot Mandira";"Jl. Sultan M. Mansyur No.762, Bukit Lama, Kec. Ilir Bar. I, Kota Palembang, Sumatera Selatan 30137";"Bukit Lama, Kec. Ilir Bar. I, Kota Palembang";"SUMATERA SELATAN";"30137";"Indonesia";" 0711444954";"";"";"-3.001387";"104.742735";"https://maps.google.com/?cid=0x0:0x6da69b01b3b8814f";""
"building materials";"Toko Bahan Bangunan";"Depot Hijrah";"Jl. KH. Ahmad Dahlan No.256, Talang Semut, Kec. Bukit Kecil, Kota Palembang, Sumatera Selatan 30136";"Talang Semut, Kec. Bukit Kecil, Kota Palembang";"SUMATERA SELATAN";"30136";"Indonesia";" 0711361917";"";"";"-2.9875717";"104.7469078";"https://maps.google.com/?cid=0x0:0x6b75d3790caf5b11";""
"building materials";"Toko Bahan Bangunan";"Depot Bahan Bangunan Hikmah Jaya";"Jl. Pangeran Sido Ing Lautan No.1097, 36 Ilir, Kec. Ilir Bar. II, Kota Palembang, Sumatera Selatan 30146";"36 Ilir, Kec. Ilir Bar. II, Kota Palembang";"SUMATERA SELATAN";"30146";"Indonesia";" 087748464713";"";"";"-3.010062";"104.746578";"https://maps.google.com/?cid=0x0:0x5b877f455cd67154";""
"building materials";"Toko Bahan Bangunan";"Toko Bangunan TRI JAYA";"Jl. H Faqih Usman No.1, Ulu laut, Kecamatan Seberang Ulu I, Kota Palembang, Sumatera Selatan 30141";"Ulu laut, Kecamatan Seberang Ulu I, Kota Palembang";"SUMATERA SELATAN";"30141";"Indonesia";" 081361517771";"";"";"-3.0153783";"104.753986";"https://maps.google.com/?cid=0x0:0xd18cad61604ade8c";""
"building materials";"building materials";"Kec. Bukit Kecil";"Kota Palembang, Sumatera Selatan";"Kota Palembang, Sumatera Selatan";"SUMATERA SELATAN";"";"Indonesia";"";"";"";"-2.988549";"104.7491771";"https://maps.google.com/?cid=0x0:0xe7d624519bc4e3fa";""
"building materials";"Toko Bahan Bangunan";"Petak 43";"Jl. Cinde Welan No.4, 24 Ilir, Kec. Bukit Kecil, Kota Palembang, Sumatera Selatan 30114";"24 Ilir, Kec. Bukit Kecil, Kota Palembang";"SUMATERA SELATAN";"30114";"Indonesia";" 081368776222";"";"";"-2.9810011";"104.755053";"https://maps.google.com/?cid=0x0:0x1c40a33b955197a";""
"building materials";"Toko Bahan Bangunan";"Amelia Putra Mandiri. CV";"JL. Komplek Taman Bukit, Blok C-2, 22 Ilir, Kec. Bukit Kecil, Kota Palembang, Sumatera Selatan 30113";"Blok C-2, 22 Ilir, Kec. Bukit Kecil, Kota Palembang";"SUMATERA SELATAN";"30113";"Indonesia";" 0711823155";"";"";"-2.9911083";"104.7567333";"https://maps.google.com/?cid=0x0:0x256ef7dbcfbdc89b";""
"building materials";"Toko Bahan Bangunan";"Toko Abadi Jaya";"Jl. Cinde Welan No.6A, 24 Ilir, Kec. Bukit Kecil, Kota Palembang, Sumatera Selatan 30114";"24 Ilir, Kec. Bukit Kecil, Kota Palembang";"SUMATERA SELATAN";"30114";"Indonesia";" 0711363011";"";"";"-2.9831827";"104.7553883";"https://maps.google.com/?cid=0x0:0xf2dd9a6e2beb1aa7";""
"building materials";"Distributor Baja";"Toko Besi Awi / CV. AWIJAYA";"Jl. Cinde Welan No.40, 24 Ilir, Kec. Bukit Kecil, Kota Palembang, Sumatera Selatan 30114";"24 Ilir, Kec. Bukit Kecil, Kota Palembang";"SUMATERA SELATAN";"30114";"Indonesia";" 0711363330";"";"";"-2.981928";"104.7550129";"https://maps.google.com/?cid=0x0:0xc2b2cea33d102e45";""
"building materials";"Toko Bahan Bangunan";"Rizki Art";"Jl. Faqih Jalaluddin No.107, 19 Ilir, Kec. Bukit Kecil, Kota Palembang, Sumatera Selatan 30113";"19 Ilir, Kec. Bukit Kecil, Kota Palembang";"SUMATERA SELATAN";"30113";"Indonesia";" 081278961081";"";"";"-2.988501";"104.758916";"https://maps.google.com/?cid=0x0:0xc3f4ab88198b5add";""
"building materials";"Toko Mebel";"Depot Kusen Cahaya Maju";"Jl. Merdeka No.791, Talang Semut, Kec. Bukit Kecil, Kota Palembang, Sumatera Selatan 30135";"Talang Semut, Kec. Bukit Kecil, Kota Palembang";"SUMATERA SELATAN";"30135";"Indonesia";" 08127831834";"";"";"-2.991623";"104.754578";"https://maps.google.com/?cid=0x0:0x5cd08153db8ae1ca";""
"building materials";"Toko Bahan Bangunan";"Wonosari Jaya";"2Q94+239, Jl. Cinde Welan, 24 Ilir, Kec. Bukit Kecil, Kota Palembang, Sumatera Selatan 30114";"Jl. Cinde Welan, 24 Ilir, Kec. Bukit Kecil, Kota Palembang";"SUMATERA SELATAN";"30114";"Indonesia";" 087748469266";"";"";"-2.9824528";"104.7552226";"https://maps.google.com/?cid=0x0:0x900e449de2c17c9a";""
"building materials";"Toko Bahan Bangunan";"Bintang Selatan";"2P7R+CG9, 26 Ilir, D. I, Kec. Ilir Bar. I, Kota Palembang, Sumatera Selatan";"Kota Palembang, Sumatera Selatan";"SUMATERA SELATAN";"";"Indonesia";" 081273793838";"";"";"-2.9864603";"104.7413644";"https://maps.google.com/?cid=0x0:0xb2f6866e75d072d9";""
"building materials";"building materials";"Sumatera Selatan 30133";"36 Ilir, Kec. Gandus, Kota Palembang, Sumatera Selatan";"Kota Palembang, Sumatera Selatan";"SUMATERA SELATAN";"";"Indonesia";"";"";"";"-3.0098112";"104.7455311";"https://maps.google.com/?cid=0x0:0xe5bd4a9a5d13cc1d";""
"building materials";"Toko Bahan Bangunan";"Toko Bangunan Akas Diksal Mandiri";"XPVM+XPH, Bukit Lama, Kec. Ilir Bar. I, Kota Palembang, Sumatera Selatan 30136";"Bukit Lama, Kec. Ilir Bar. I, Kota Palembang";"SUMATERA SELATAN";"30136";"Indonesia";" 0711446017";"";"";"-3.0050568";"104.7343458";"https://maps.google.com/?cid=0x0:0x4777d24820e5445a";""
"building materials";"Toko Bahan Bangunan";"Toko Bangunan Jaya Abadi Bukit";"Jalan Jaksa Agung R Suprapto, Depan kampung kecil No.1-2, 26 Ilir D. I, Kec. Ilir Bar. I, Kota Palembang, Sumatera Selatan 30136";"Depan kampung kecil No.1-2, 26 Ilir D. I, Kec. Ilir Bar. I, Kota Palembang";"SUMATERA SELATAN";"30136";"Indonesia";" 082186717100";"";"";"-2.9896573";"104.7367531";"https://maps.google.com/?cid=0x0:0x4365541ff7fb8fc8";""
"building materials";"Toko Bahan Bangunan";"TB. SUMBER MAKMUR ( BUKIT )";"Jl. Sultan M. Mansyur No.1079, Bukit Lama, Kec. Ilir Bar. I, Kota Palembang, Sumatera Selatan 30139";"Bukit Lama, Kec. Ilir Bar. I, Kota Palembang";"SUMATERA SELATAN";"30139";"Indonesia";" 085368824168";"";"";"-3.003176";"104.734596";"https://maps.google.com/?cid=0x0:0x661db240561a969c";""
"building materials";"Toko Bahan Bangunan";"Sinar Bintang";"Komp. Ilir Bar. Permai, Jl. Letkol Iskandar No.36 D-1, 24 Ilir, Kec. Bukit Kecil, Kota Palembang, Sumatera Selatan 30134";"Jl. Letkol Iskandar No.36 D-1, 24 Ilir, Kec. Bukit Kecil, Kota Palembang";"SUMATERA SELATAN";"30134";"Indonesia";" 0711311018";"";"";"-2.9838015";"104.7516267";"https://maps.google.com/?cid=0x0:0xd7c9a10e89dfafc8";""
"building materials";"Toko";"Alam";"Jl. KH. Ahmad Dahlan No.50, Talang Semut, Kec. Bukit Kecil, Kota Palembang, Sumatera Selatan 30136";"Talang Semut, Kec. Bukit Kecil, Kota Palembang";"SUMATERA SELATAN";"30136";"Indonesia";" 081977707753";"";"";"-2.9864";"104.7476028";"https://maps.google.com/?cid=0x0:0xf4c3bc9ce21c1410";""
"building materials";"Toko Bahan Bangunan";"Beringin Jaya";"JL. Raya Palembang-Betung, Km. 15, Talang Semut, Kec. Bukit Kecil, Kota Palembang, Sumatera Selatan 30126";"Km. 15, Talang Semut, Kec. Bukit Kecil, Kota Palembang";"SUMATERA SELATAN";"30126";"Indonesia";" 07117716561";"";"";"-2.9900109";"104.7541531";"https://maps.google.com/?cid=0x0:0x9adc072a282be9ff";""
"building materials";"Toko Bahan Bangunan";"Depot Bahan Bangunan Hikmah Jaya";"Jl. Pangeran Sido Ing Lautan No.1097, 36 Ilir, Kec. Ilir Bar. II, Kota Palembang, Sumatera Selatan 30146";"36 Ilir, Kec. Ilir Bar. II, Kota Palembang";"SUMATERA SELATAN";"30146";"Indonesia";" 087748464713";"";"";"-3.010062";"104.746578";"https://maps.google.com/?cid=0x0:0x5b877f455cd67154";""
"building materials";"Toko Bahan Bangunan";"Toko Bangunan Bukit Bintang";"Jl. Padang Selasa No.10A, Bukit Lama, Kec. Ilir Bar. I, Kota Palembang, Sumatera Selatan 30139";"Bukit Lama, Kec. Ilir Bar. I, Kota Palembang";"SUMATERA SELATAN";"30139";"Indonesia";" 082186748809";"";"";"-2.990179";"104.7345019";"https://maps.google.com/?cid=0x0:0xbfca6264d4c26d95";""
"building materials";"Toko";"Kumala Permai";"Jl. Radial No.17/151, 24 Ilir, Kec. Bukit Kecil, Kota Palembang, Sumatera Selatan 30127";"24 Ilir, Kec. Bukit Kecil, Kota Palembang";"SUMATERA SELATAN";"30127";"Indonesia";" 0711320857";"";"";"-2.9833184";"104.7501874";"https://maps.google.com/?cid=0x0:0xd6920ac4f00677d2";""
"building materials";"Toko Bahan Bangunan";"Toko Tunak Jaya";"Jl. Pangeran Sido Ing Lautan No.161, 36 Ilir, Kec. Gandus, Kota Palembang, Sumatera Selatan 30147";"36 Ilir, Kec. Gandus, Kota Palembang";"SUMATERA SELATAN";"30147";"Indonesia";" 0711441326";"";"";"-3.0119506";"104.746247";"https://maps.google.com/?cid=0x0:0xc87dec831dc4014a";""
"building materials";"Toko Bahan Bangunan";"TB SINAR MEGA JAYA";"Jl. KH Wahid Hasyim No.430, RT.09/RW.02, Tuan Kentang, Kecamatan Seberang Ulu I, Kota Palembang, Sumatera Selatan 30257";"RT.09/RW.02, Tuan Kentang, Kecamatan Seberang Ulu I, Kota Palembang";"SUMATERA SELATAN";"30257";"Indonesia";" 0711513063";"";"";"-3.0146931";"104.7557247";"https://maps.google.com/?cid=0x0:0xd8e8f3f13dbd9c81";""
"building materials";"Toko Bahan Bangunan";"Toko Bangunan Akim";"Jl. H Faqih Usman, 2 Ulu, Kecamatan Seberang Ulu I, Kota Palembang, Sumatera Selatan 30131";"2 Ulu, Kecamatan Seberang Ulu I, Kota Palembang";"SUMATERA SELATAN";"30131";"Indonesia";" 081367783846";"";"";"-3.0076603";"104.7533676";"https://maps.google.com/?cid=0x0:0xf4635804ec5984f9";""
"building materials";"Toko Bahan Bangunan";"DEPOT MANDALA MANDIRI";"Jalan Sultan Mohamad Mansyur No.1053 A, 32 Ilir, Kec. Ilir Bar. II, Kota Palembang, Sumatera Selatan 30145";"32 Ilir, Kec. Ilir Bar. II, Kota Palembang";"SUMATERA SELATAN";"30145";"Indonesia";" 0711444735";"";"";"-3.0024407";"104.7374425";"https://maps.google.com/?cid=0x0:0x17c0a327093bc31f";""
"building materials";"Pembangunan Perumahan";"PT Ali";"XQP4+RH6, Jalan Lintas Sumatera, Kecamatan Serbang Ulu I, Tuan Kentang, Kecamatan Seberang Ulu I, Kota Palembang, Sumatera Selatan 30254";"Jalan Lintas Sumatera, Kecamatan Serbang Ulu I, Tuan Kentang, Kecamatan Seberang Ulu I, Kota Palembang";"SUMATERA SELATAN";"30254";"Indonesia";"";"";"";"-3.0129552";"104.7563939";"https://maps.google.com/?cid=0x0:0x1ccfd2cf94845044";""
"building materials";"Toko Bahan Bangunan";"Depot Hijrah";"Jl. KH. Ahmad Dahlan No.256, Talang Semut, Kec. Bukit Kecil, Kota Palembang, Sumatera Selatan 30136";"Talang Semut, Kec. Bukit Kecil, Kota Palembang";"SUMATERA SELATAN";"30136";"Indonesia";" 0711361917";"";"";"-2.9875717";"104.7469078";"https://maps.google.com/?cid=0x0:0x6b75d3790caf5b11";""
"building materials";"Toko Bahan Bangunan";"Tb.Polygon Jaya";"XPVC+JXW, Jl. Letjen H. Alamsyah Ratu Perwiranegara, Bukit Lama, Kec. Ilir Bar. I, Kota Palembang, Sumatera Selatan 30138";"Jl. Letjen H. Alamsyah Ratu Perwiranegara, Bukit Lama, Kec. Ilir Bar. I, Kota Palembang";"SUMATERA SELATAN";"30138";"Indonesia";" 0711442152";"";"";"-3.0058796";"104.7224456";"https://maps.google.com/?cid=0x0:0xcc2b87dbce3271aa";""
"building materials";"Toko Perlengkapan Rumah";"Depot Bahan Bangunan Kimin";"XQX5+J9G, Jl. KH. Azhari, 3-4 Ulu, Kecamatan Seberang Ulu I, Kota Palembang, Sumatera Selatan 30111";"Jl. KH. Azhari, 3-4 Ulu, Kecamatan Seberang Ulu I, Kota Palembang";"SUMATERA SELATAN";"30111";"Indonesia";" 081278980559";"";"";"-3.0009324";"104.7584476";"https://maps.google.com/?cid=0x0:0xe9274465879d19dd";""
"building materials";"Toko Bahan Bangunan";"Depot Bangunan Cek Tuti";"Jalan PSI Kenayan No.1129, 36 Ilir, Kec. Gandus, Kota Palembang, Sumatera Selatan 30148";"36 Ilir, Kec. Gandus, Kota Palembang";"SUMATERA SELATAN";"30148";"Indonesia";" 0711444053";"";"";"-3.014783";"104.7459494";"https://maps.google.com/?cid=0x0:0x510286d20ebd9c88";""
"building materials";"Toko Bahan Bangunan";"Dalem Agung";"Jl. Sultan M. Mansyur No.1372, Bukit Lama, Kec. Ilir Bar. II, Kota Palembang, Sumatera Selatan 30134";"Bukit Lama, Kec. Ilir Bar. II, Kota Palembang";"SUMATERA SELATAN";"30134";"Indonesia";" 0711444473";"";"";"-3.0019144";"104.7399399";"https://maps.google.com/?cid=0x0:0xd65d49617a579fd8";""
"building materials";"building materials";"Kec. Bukit Kecil";"Kota Palembang, Sumatera Selatan";"Kota Palembang, Sumatera Selatan";"SUMATERA SELATAN";"";"Indonesia";"";"";"";"-2.988549";"104.7491771";"https://maps.google.com/?cid=0x0:0xe7d624519bc4e3fa";""
"building materials";"Toko Bahan Bangunan";"Toko Abadi Jaya";"Jl. Cinde Welan No.6A, 24 Ilir, Kec. Bukit Kecil, Kota Palembang, Sumatera Selatan 30114";"24 Ilir, Kec. Bukit Kecil, Kota Palembang";"SUMATERA SELATAN";"30114";"Indonesia";" 0711363011";"";"";"-2.9831827";"104.7553883";"https://maps.google.com/?cid=0x0:0xf2dd9a6e2beb1aa7";""
"building materials";"Distributor Baja";"Toko Besi Awi / CV. AWIJAYA";"Jl. Cinde Welan No.40, 24 Ilir, Kec. Bukit Kecil, Kota Palembang, Sumatera Selatan 30114";"24 Ilir, Kec. Bukit Kecil, Kota Palembang";"SUMATERA SELATAN";"30114";"Indonesia";" 0711363330";"";"";"-2.981928";"104.7550129";"https://maps.google.com/?cid=0x0:0xc2b2cea33d102e45";""
"building materials";"Toko Bahan Bangunan";"Bintang Selatan";"2P7R+CG9, 26 Ilir, D. I, Kec. Ilir Bar. I, Kota Palembang, Sumatera Selatan";"Kota Palembang, Sumatera Selatan";"SUMATERA SELATAN";"";"Indonesia";" 081273793838";"";"";"-2.9864603";"104.7413644";"https://maps.google.com/?cid=0x0:0xb2f6866e75d072d9";""
"building materials";"Toko Alat Listrik";"TOKO BERKAT";"No. 800B, Jl. Cinde Welan No.Kelurahan, 24 Ilir, Kec. Bukit Kecil, Kota Palembang, Sumatera Selatan 30134";"Jl. Cinde Welan No.Kelurahan, 24 Ilir, Kec. Bukit Kecil, Kota Palembang";"SUMATERA SELATAN";"30134";"Indonesia";" 08127869537";"";"";"-2.9827885";"104.7552887";"https://maps.google.com/?cid=0x0:0x13cf8e7f7e1ae50f";""
"building materials";"Toko Bahan Bangunan";"Wonosari Jaya";"2Q94+239, Jl. Cinde Welan, 24 Ilir, Kec. Bukit Kecil, Kota Palembang, Sumatera Selatan 30114";"Jl. Cinde Welan, 24 Ilir, Kec. Bukit Kecil, Kota Palembang";"SUMATERA SELATAN";"30114";"Indonesia";" 087748469266";"";"";"-2.9824528";"104.7552226";"https://maps.google.com/?cid=0x0:0x900e449de2c17c9a";""
"building materials";"Toko Bahan Bangunan";"Rizki Art";"Jl. Faqih Jalaluddin No.107, 19 Ilir, Kec. Bukit Kecil, Kota Palembang, Sumatera Selatan 30113";"19 Ilir, Kec. Bukit Kecil, Kota Palembang";"SUMATERA SELATAN";"30113";"Indonesia";" 081278961081";"";"";"-2.988501";"104.758916";"https://maps.google.com/?cid=0x0:0xc3f4ab88198b5add";""
"building materials";"Pemasok Bahan Bangunan";"Toko Bangunan Palem Jaya";"Jl. Letnan Jaimas No.4-36, 24 Ilir, Kec. Bukit Kecil, Kota Palembang, Sumatera Selatan 30114";"24 Ilir, Kec. Bukit Kecil, Kota Palembang";"SUMATERA SELATAN";"30114";"Indonesia";"";"";"";"-2.9800061";"104.7544537";"https://maps.google.com/?cid=0x0:0x1571f1d276775301";""
"building materials";"Toko Bahan Bangunan";"TB DOA IBU ABADI";"Jl. Letnan Jaimas No.582, 24 Ilir, Kec. Bukit Kecil, Kota Palembang, Sumatera Selatan 30129";"24 Ilir, Kec. Bukit Kecil, Kota Palembang";"SUMATERA SELATAN";"30129";"Indonesia";"";"";"";"-2.9799447";"104.754542";"https://maps.google.com/?cid=0x0:0x1258a6f30392e4d8";""
"building materials";"building materials";"Sumatera Selatan 30134";"Kota Palembang, Sumatera Selatan";"Kota Palembang, Sumatera Selatan";"SUMATERA SELATAN";"";"Indonesia";"";"";"";"-2.9995971";"104.7389686";"https://maps.google.com/?cid=0x0:0x3abd87c9d431f953";""
"building materials";"Toko Bahan Bangunan";"Toko Bangunan Akas Diksal Mandiri";"XPVM+XPH, Bukit Lama, Kec. Ilir Bar. I, Kota Palembang, Sumatera Selatan 30136";"Bukit Lama, Kec. Ilir Bar. I, Kota Palembang";"SUMATERA SELATAN";"30136";"Indonesia";" 0711446017";"";"";"-3.0050568";"104.7343458";"https://maps.google.com/?cid=0x0:0x4777d24820e5445a";""
"building materials";"Toko Bahan Bangunan";"TB. SUMBER MAKMUR ( BUKIT )";"Jl. Sultan M. Mansyur No.1079, Bukit Lama, Kec. Ilir Bar. I, Kota Palembang, Sumatera Selatan 30139";"Bukit Lama, Kec. Ilir Bar. I, Kota Palembang";"SUMATERA SELATAN";"30139";"Indonesia";" 085368824168";"";"";"-3.003176";"104.734596";"https://maps.google.com/?cid=0x0:0x661db240561a969c";""
"building materials";"Toko Bahan Bangunan";"Toko Bangunan Bukit Bintang";"Jl. Padang Selasa No.10A, Bukit Lama, Kec. Ilir Bar. I, Kota Palembang, Sumatera Selatan 30139";"Bukit Lama, Kec. Ilir Bar. I, Kota Palembang";"SUMATERA SELATAN";"30139";"Indonesia";" 082186748809";"";"";"-2.990179";"104.7345019";"https://maps.google.com/?cid=0x0:0xbfca6264d4c26d95";""
"building materials";"Toko";"Alam";"Jl. KH. Ahmad Dahlan No.50, Talang Semut, Kec. Bukit Kecil, Kota Palembang, Sumatera Selatan 30136";"Talang Semut, Kec. Bukit Kecil, Kota Palembang";"SUMATERA SELATAN";"30136";"Indonesia";" 081977707753";"";"";"-2.9864";"104.7476028";"https://maps.google.com/?cid=0x0:0xf4c3bc9ce21c1410";""
"building materials";"Jasa penyewaan perancah";"TB. Bukit Raya";"2P5H+C72, Jl. Srijaya Negara, Bukit Lama, Kec. Ilir Bar. I, Kota Palembang, Sumatera Selatan 30139";"Jl. Srijaya Negara, Bukit Lama, Kec. Ilir Bar. I, Kota Palembang";"SUMATERA SELATAN";"30139";"Indonesia";" 0711310092";"";"";"-2.9914759";"104.7281266";"https://maps.google.com/?cid=0x0:0x1f175ed124df0d49";""
"building materials";"Toko Bahan Bangunan";"DEPOT MANDALA MANDIRI";"Jalan Sultan Mohamad Mansyur No.1053 A, 32 Ilir, Kec. Ilir Bar. II, Kota Palembang, Sumatera Selatan 30145";"32 Ilir, Kec. Ilir Bar. II, Kota Palembang";"SUMATERA SELATAN";"30145";"Indonesia";" 0711444735";"";"";"-3.0024407";"104.7374425";"https://maps.google.com/?cid=0x0:0x17c0a327093bc31f";""
"building materials";"Toko Alat-Alat";"Toko Apo Bukit";"Jl. Padang Selasa No.37-1847, Bukit Lama, Kec. Ilir Bar. I, Kota Palembang, Sumatera Selatan 30121";"Bukit Lama, Kec. Ilir Bar. I, Kota Palembang";"SUMATERA SELATAN";"30121";"Indonesia";" 0711363311";"";"";"-2.9901949";"104.7339385";"https://maps.google.com/?cid=0x0:0x8438df2b6f771b07";""
"building materials";"Toko Bahan Bangunan";"TB. Tanggo Bangunan";"Bukit Lama, Kec. Ilir Bar. I, Kota Palembang, Sumatera Selatan 30136";"Kec. Ilir Bar. I, Kota Palembang";"SUMATERA SELATAN";"30136";"Indonesia";" 085383853521";"";"";"-3.0017695";"104.7294803";"https://maps.google.com/?cid=0x0:0x315115438b775c2c";""
"building materials";"Toko Kayu";"Depot Masyarakat";"Jl. Politeknik, Bukit Lama, Kec. Ilir Bar. I, Kota Palembang, Sumatera Selatan 30139";"Bukit Lama, Kec. Ilir Bar. I, Kota Palembang";"SUMATERA SELATAN";"30139";"Indonesia";" 081278552474";"";"";"-3.0030261";"104.729656";"https://maps.google.com/?cid=0x0:0xaaf51f311945cf46";""
"building materials";"Toko Bahan Bangunan";"Ayu Mandiri";"Jl. Sultan M. Mansyur No.1137A, Bukit Lama, Kec. Ilir Bar. I, Kota Palembang, Sumatera Selatan 30136";"Bukit Lama, Kec. Ilir Bar. I, Kota Palembang";"SUMATERA SELATAN";"30136";"Indonesia";" 082175306777";"";"";"-3.0026582";"104.7376408";"https://maps.google.com/?cid=0x0:0x16562a0ebf5e4523";""
"building materials";"Toko Bahan Bangunan";"Depot Mandira";"Jl. Sultan M. Mansyur No.762, Bukit Lama, Kec. Ilir Bar. I, Kota Palembang, Sumatera Selatan 30137";"Bukit Lama, Kec. Ilir Bar. I, Kota Palembang";"SUMATERA SELATAN";"30137";"Indonesia";" 0711444954";"";"";"-3.001387";"104.742735";"https://maps.google.com/?cid=0x0:0x6da69b01b3b8814f";""
"building materials";"Toko Bahan Bangunan";"TB. Karya Indah";"Jl. Padang Selasa No.1850, Bukit Lama, Kec. Ilir Bar. I, Kota Palembang, Sumatera Selatan 30139";"Bukit Lama, Kec. Ilir Bar. I, Kota Palembang";"SUMATERA SELATAN";"30139";"Indonesia";" 0711362116";"";"";"-2.989826";"104.7346419";"https://maps.google.com/?cid=0x0:0xf10f24e63023d73c";""
"building materials";"Toko Bahan Bangunan";"TB. MMS";"No. 33, Kelurahan, Jl. Padang Selasa, Bukit Lama, Kec. Ilir Bar. I, Kota Palembang, Sumatera Selatan 30139";"Kelurahan, Jl. Padang Selasa, Bukit Lama, Kec. Ilir Bar. I, Kota Palembang";"SUMATERA SELATAN";"30139";"Indonesia";" 085100396806";"";"";"-2.9898337";"104.7347863";"https://maps.google.com/?cid=0x0:0xc916bfbd49fc7750";""
"building materials";"Toko Bahan Bangunan";"Istana Bangunan Palembang";"Jl. KH. A. Rasyid Siddiq No.861 D-F, Kertapati, 7 Ulu, Kecamatan Seberang Ulu I, Kota Palembang, Sumatera Selatan 30254";"Kertapati, 7 Ulu, Kecamatan Seberang Ulu I, Kota Palembang";"SUMATERA SELATAN";"30254";"Indonesia";" 082181404848";"";"";"-3.001137";"104.7660377";"https://maps.google.com/?cid=0x0:0xa294d886ea1dbdd7";""
"building materials";"Toko Bahan Bangunan";"Dalem Agung";"Jl. Sultan M. Mansyur No.1372, Bukit Lama, Kec. Ilir Bar. II, Kota Palembang, Sumatera Selatan 30134";"Bukit Lama, Kec. Ilir Bar. II, Kota Palembang";"SUMATERA SELATAN";"30134";"Indonesia";" 0711444473";"";"";"-3.0019144";"104.7399399";"https://maps.google.com/?cid=0x0:0xd65d49617a579fd8";""
"building materials";"Toko Bahan Bangunan";"Arlam";"Jl. Sultan M. Mansyur No.1139A, Bukit Lama, Kec. Ilir Bar. I, Kota Palembang, Sumatera Selatan 30139";"Bukit Lama, Kec. Ilir Bar. I, Kota Palembang";"SUMATERA SELATAN";"30139";"Indonesia";" 0711446041";"";"";"-3.0027399";"104.7371102";"https://maps.google.com/?cid=0x0:0xff2c328d5652b126";""
"building materials";"Toko Bahan Bangunan";"Toko Bangunan Sinar Mulia";"Jl. Kemang Manis No.368, Kemang Manis, Kec. Ilir Bar. II, Kota Palembang, Sumatera Selatan 30144";"Kemang Manis, Kec. Ilir Bar. II, Kota Palembang";"SUMATERA SELATAN";"30144";"Indonesia";" 081952871036";"";"";"-2.9914593";"104.7371685";"https://maps.google.com/?cid=0x0:0xed9ee85829759ea6";""
"building materials";"Toko Bahan Bangunan";"Toko Bangunan Tiga Jaya";"XPXQ+339, Jl. Sultan M. Mansyur, Bukit Lama, Kec. Ilir Bar. I, Kota Palembang, Sumatera Selatan 30134";"Jl. Sultan M. Mansyur, Bukit Lama, Kec. Ilir Bar. I, Kota Palembang";"SUMATERA SELATAN";"30134";"Indonesia";"";"";"";"-3.0023296";"104.7377456";"https://maps.google.com/?cid=0x0:0x513c1b0db4161047";""
"building materials";"Toko Bahan Bangunan";"Depot Hijrah";"Jl. KH. Ahmad Dahlan No.256, Talang Semut, Kec. Bukit Kecil, Kota Palembang, Sumatera Selatan 30136";"Talang Semut, Kec. Bukit Kecil, Kota Palembang";"SUMATERA SELATAN";"30136";"Indonesia";" 0711361917";"";"";"-2.9875717";"104.7469078";"https://maps.google.com/?cid=0x0:0x6b75d3790caf5b11";""
"building materials";"building materials";"Kec. Bukit Kecil";"Kota Palembang, Sumatera Selatan";"Kota Palembang, Sumatera Selatan";"SUMATERA SELATAN";"";"Indonesia";"";"";"";"-2.988549";"104.7491771";"https://maps.google.com/?cid=0x0:0xe7d624519bc4e3fa";""
"building materials";"Toko Bahan Bangunan";"Sinar Bintang";"Komp. Ilir Bar. Permai, Jl. Letkol Iskandar No.36 D-1, 24 Ilir, Kec. Bukit Kecil, Kota Palembang, Sumatera Selatan 30134";"Jl. Letkol Iskandar No.36 D-1, 24 Ilir, Kec. Bukit Kecil, Kota Palembang";"SUMATERA SELATAN";"30134";"Indonesia";" 0711311018";"";"";"-2.9838015";"104.7516267";"https://maps.google.com/?cid=0x0:0xd7c9a10e89dfafc8";""
"building materials";"Toko Bahan Bangunan";"Petak 43";"Jl. Cinde Welan No.4, 24 Ilir, Kec. Bukit Kecil, Kota Palembang, Sumatera Selatan 30114";"24 Ilir, Kec. Bukit Kecil, Kota Palembang";"SUMATERA SELATAN";"30114";"Indonesia";" 081368776222";"";"";"-2.9810011";"104.755053";"https://maps.google.com/?cid=0x0:0x1c40a33b955197a";""
"building materials";"Toko Bahan Bangunan";"Beringin Jaya";"JL. Raya Palembang-Betung, Km. 15, Talang Semut, Kec. Bukit Kecil, Kota Palembang, Sumatera Selatan 30126";"Km. 15, Talang Semut, Kec. Bukit Kecil, Kota Palembang";"SUMATERA SELATAN";"30126";"Indonesia";" 07117716561";"";"";"-2.9900109";"104.7541531";"https://maps.google.com/?cid=0x0:0x9adc072a282be9ff";""
"building materials";"Toko Bahan Bangunan";"Amelia Putra Mandiri. CV";"JL. Komplek Taman Bukit, Blok C-2, 22 Ilir, Kec. Bukit Kecil, Kota Palembang, Sumatera Selatan 30113";"Blok C-2, 22 Ilir, Kec. Bukit Kecil, Kota Palembang";"SUMATERA SELATAN";"30113";"Indonesia";" 0711823155";"";"";"-2.9911083";"104.7567333";"https://maps.google.com/?cid=0x0:0x256ef7dbcfbdc89b";""
"building materials";"Toko Bahan Bangunan";"Rizki Art";"Jl. Faqih Jalaluddin No.107, 19 Ilir, Kec. Bukit Kecil, Kota Palembang, Sumatera Selatan 30113";"19 Ilir, Kec. Bukit Kecil, Kota Palembang";"SUMATERA SELATAN";"30113";"Indonesia";" 081278961081";"";"";"-2.988501";"104.758916";"https://maps.google.com/?cid=0x0:0xc3f4ab88198b5add";""
"building materials";"Toko";"Kumala Permai";"Jl. Radial No.17/151, 24 Ilir, Kec. Bukit Kecil, Kota Palembang, Sumatera Selatan 30127";"24 Ilir, Kec. Bukit Kecil, Kota Palembang";"SUMATERA SELATAN";"30127";"Indonesia";" 0711320857";"";"";"-2.9833184";"104.7501874";"https://maps.google.com/?cid=0x0:0xd6920ac4f00677d2";""
"building materials";"Toko Bahan Bangunan";"Wai Hitam. PT";"Jl. karet No.902 I, 24 Ilir, Kec. Bukit Kecil, Kota Palembang, Sumatera Selatan 30114";"24 Ilir, Kec. Bukit Kecil, Kota Palembang";"SUMATERA SELATAN";"30114";"Indonesia";" 0711353044";"";"";"-2.9826956";"104.7563229";"https://maps.google.com/?cid=0x0:0x9b2c8095e9e45c4c";""
"building materials";"Toko Peralatan Tukang Kayu";"Cinde Prima";"Jl. karet No.RT. 10A, 24 Ilir, Kec. Bukit Kecil, Kota Palembang, Sumatera Selatan 30114";"24 Ilir, Kec. Bukit Kecil, Kota Palembang";"SUMATERA SELATAN";"30114";"Indonesia";" 085366835530";"";"";"-2.9827728";"104.7552579";"https://maps.google.com/?cid=0x0:0x41e165ba2f111879";""
"building materials";"building materials";"Sumatera Selatan 30135";"Talang Semut, Kec. Bukit Kecil, Kota Palembang, Sumatera Selatan";"Kota Palembang, Sumatera Selatan";"SUMATERA SELATAN";"";"Indonesia";"";"";"";"-2.9892275";"104.7518062";"https://maps.google.com/?cid=0x0:0x5052d57298e2b40d";""
"building materials";"Toko";"Alam";"Jl. KH. Ahmad Dahlan No.50, Talang Semut, Kec. Bukit Kecil, Kota Palembang, Sumatera Selatan 30136";"Talang Semut, Kec. Bukit Kecil, Kota Palembang";"SUMATERA SELATAN";"30136";"Indonesia";" 081977707753";"";"";"-2.9864";"104.7476028";"https://maps.google.com/?cid=0x0:0xf4c3bc9ce21c1410";""
"building materials";"Toko Bahan Bangunan";"Sinar Bintang";"Komp. Ilir Bar. Permai, Jl. Letkol Iskandar No.36 D-1, 24 Ilir, Kec. Bukit Kecil, Kota Palembang, Sumatera Selatan 30134";"Jl. Letkol Iskandar No.36 D-1, 24 Ilir, Kec. Bukit Kecil, Kota Palembang";"SUMATERA SELATAN";"30134";"Indonesia";" 0711311018";"";"";"-2.9838015";"104.7516267";"https://maps.google.com/?cid=0x0:0xd7c9a10e89dfafc8";""
"building materials";"Toko Bahan Bangunan";"Beringin Jaya";"JL. Raya Palembang-Betung, Km. 15, Talang Semut, Kec. Bukit Kecil, Kota Palembang, Sumatera Selatan 30126";"Km. 15, Talang Semut, Kec. Bukit Kecil, Kota Palembang";"SUMATERA SELATAN";"30126";"Indonesia";" 07117716561";"";"";"-2.9900109";"104.7541531";"https://maps.google.com/?cid=0x0:0x9adc072a282be9ff";""
"building materials";"Toko Bahan Bangunan";"Depot Hijrah";"Jl. KH. Ahmad Dahlan No.256, Talang Semut, Kec. Bukit Kecil, Kota Palembang, Sumatera Selatan 30136";"Talang Semut, Kec. Bukit Kecil, Kota Palembang";"SUMATERA SELATAN";"30136";"Indonesia";" 0711361917";"";"";"-2.9875717";"104.7469078";"https://maps.google.com/?cid=0x0:0x6b75d3790caf5b11";""
"building materials";"Toko Bahan Bangunan";"Toko Kharisma";"Seberang Kedai D'Rusun, Jl. Pangeran SW Subekti no 49, 26 Ilir, Kec. Bukit Kecil, Kota Palembang, Sumatera Selatan 30135";"Jl. Pangeran SW Subekti no 49, 26 Ilir, Kec. Bukit Kecil, Kota Palembang";"SUMATERA SELATAN";"30135";"Indonesia";" 08127826984";"";"";"-2.9858576";"104.750903";"https://maps.google.com/?cid=0x0:0xa47f364f22481b4a";""
"building materials";"Toko Mebel";"Depot Kusen Cahaya Maju";"Jl. Merdeka No.791, Talang Semut, Kec. Bukit Kecil, Kota Palembang, Sumatera Selatan 30135";"Talang Semut, Kec. Bukit Kecil, Kota Palembang";"SUMATERA SELATAN";"30135";"Indonesia";" 08127831834";"";"";"-2.991623";"104.754578";"https://maps.google.com/?cid=0x0:0x5cd08153db8ae1ca";""
"building materials";"";"Detasemen Zeni Bangunan (Denzibang) 1/II Sriwijaya";"Jl. Kartini No.6, Talang Semut, Kec. Bukit Kecil, Kota Palembang, Sumatera Selatan 30121";"Talang Semut, Kec. Bukit Kecil, Kota Palembang";"SUMATERA SELATAN";"30121";"Indonesia";" 0711350624";"";"";"-2.9914546";"104.748445";"https://maps.google.com/?cid=0x0:0xe31430142bde5287";""
"building materials";"Toko Bahan Bangunan";"Amelia Putra Mandiri. CV";"JL. Komplek Taman Bukit, Blok C-2, 22 Ilir, Kec. Bukit Kecil, Kota Palembang, Sumatera Selatan 30113";"Blok C-2, 22 Ilir, Kec. Bukit Kecil, Kota Palembang";"SUMATERA SELATAN";"30113";"Indonesia";" 0711823155";"";"";"-2.9911083";"104.7567333";"https://maps.google.com/?cid=0x0:0x256ef7dbcfbdc89b";""
"building materials";"Toko Bahan Bangunan";"TB Simpang 426";"Jl. Mujahidin No.12, Talang Semut, Kec. Bukit Kecil, Kota Palembang, Sumatera Selatan 30135";"Talang Semut, Kec. Bukit Kecil, Kota Palembang";"SUMATERA SELATAN";"30135";"Indonesia";" 0711372050";"";"";"-2.9887252";"104.7535188";"https://maps.google.com/?cid=0x0:0xa2150cb1d1a12909";""
"building materials";"Toko Bahan Bangunan";"Depot Suka Makmur";"Jl. Merdeka No.15 C, 22 Ilir, Kec. Bukit Kecil, Kota Palembang, Sumatera Selatan 30113";"22 Ilir, Kec. Bukit Kecil, Kota Palembang";"SUMATERA SELATAN";"30113";"Indonesia";" 08127814073";"";"";"-2.9905678";"104.7564703";"https://maps.google.com/?cid=0x0:0x4839b7ce111ea46a";""
"building materials";"Toko Bahan Bangunan";"Toko Bangunan Bukit Bintang";"Jl. Padang Selasa No.10A, Bukit Lama, Kec. Ilir Bar. I, Kota Palembang, Sumatera Selatan 30139";"Bukit Lama, Kec. Ilir Bar. I, Kota Palembang";"SUMATERA SELATAN";"30139";"Indonesia";" 082186748809";"";"";"-2.990179";"104.7345019";"https://maps.google.com/?cid=0x0:0xbfca6264d4c26d95";""
"building materials";"Toko Bahan Bangunan";"Depot Maju Jaya";"Jl. Mujahidin No.26, Talang Semut, Kec. Bukit Kecil, Kota Palembang, Sumatera Selatan 30135";"Talang Semut, Kec. Bukit Kecil, Kota Palembang";"SUMATERA SELATAN";"30135";"Indonesia";" 081367136078";"";"";"-2.9907115";"104.7547567";"https://maps.google.com/?cid=0x0:0x5f72e81d923dbda1";""
"building materials";"Toko Bahan Bangunan";"Joglo";"Jl. Merdeka No.15 C, 22 Ilir, Kec. Bukit Kecil, Kota Palembang, Sumatera Selatan 30113";"22 Ilir, Kec. Bukit Kecil, Kota Palembang";"SUMATERA SELATAN";"30113";"Indonesia";" 085267316778";"";"";"-2.9910387";"104.7566163";"https://maps.google.com/?cid=0x0:0xaddc49f421a060df";""
"building materials";"Toko Bahan Bangunan";"Kurnia Musi Plywood PT";"Jl Sei Rendang No.94, 22 Ilir, Kec. Bukit Kecil, Kota Palembang, Sumatera Selatan 30123";"22 Ilir, Kec. Bukit Kecil, Kota Palembang";"SUMATERA SELATAN";"30123";"Indonesia";" 0711311697";"";"";"-2.9889291";"104.7566731";"https://maps.google.com/?cid=0x0:0xa80f6a9139eedc10";""
"building materials";"Toko";"Johan";"Jl. Merdeka No.15 C, 22 Ilir, Kec. Bukit Kecil, Kota Palembang, Sumatera Selatan 30113";"22 Ilir, Kec. Bukit Kecil, Kota Palembang";"SUMATERA SELATAN";"30113";"Indonesia";" 082272660635";"";"";"-2.9910387";"104.7566163";"https://maps.google.com/?cid=0x0:0x7728473396c2c02c";""
"building materials";"Toko Bahan Bangunan";"Depot Bangunan Akar Mas";"Jl. Merdeka No.15 C, 22 Ilir, Kec. Bukit Kecil, Kota Palembang, Sumatera Selatan 30113";"22 Ilir, Kec. Bukit Kecil, Kota Palembang";"SUMATERA SELATAN";"30113";"Indonesia";" 08127857954";"";"";"-2.9911083";"104.7567333";"https://maps.google.com/?cid=0x0:0x17b6def7e7b06b3c";""
"building materials";"Toko Bahan Bangunan";"Depot Bagunan Ahong";"Jl. Merdeka No.15 C, 22 Ilir, Kec. Bukit Kecil, Kota Palembang, Sumatera Selatan 30113";"22 Ilir, Kec. Bukit Kecil, Kota Palembang";"SUMATERA SELATAN";"30113";"Indonesia";" 07117078702";"";"";"-2.990785";"104.757918";"https://maps.google.com/?cid=0x0:0x6987d77f0747b88a";""
"building materials";"Toko Bahan Bangunan";"Inti Sumber Baja Sakti PT";"Jl. Merdeka No.791, Talang Semut, Kec. Bukit Kecil, Kota Palembang, Sumatera Selatan 30135";"Talang Semut, Kec. Bukit Kecil, Kota Palembang";"SUMATERA SELATAN";"30135";"Indonesia";" 071134188";"";"";"-2.9913417";"104.7540593";"https://maps.google.com/?cid=0x0:0xeb348eb41f66da0e";""
"building materials";"Toko Bahan Bangunan";"Depot Bangunan Patra Jaya";"Jl. KH. Ahmad Dahlan No.29, Talang Semut, Kec. Bukit Kecil, Kota Palembang, Sumatera Selatan 30136";"Talang Semut, Kec. Bukit Kecil, Kota Palembang";"SUMATERA SELATAN";"30136";"Indonesia";" 07117307033";"";"";"-2.9884057";"104.7512731";"https://maps.google.com/?cid=0x0:0x3e857d668cb69343";""
"building materials";"Toko Bahan Bangunan";"Toko Bangunan Inti Jaya";"Jl. Merdeka No.15 C, 22 Ilir, Kec. Bukit Kecil, Kota Palembang, Sumatera Selatan 30113";"22 Ilir, Kec. Bukit Kecil, Kota Palembang";"SUMATERA SELATAN";"30113";"Indonesia";" 07117380234";"";"";"-2.9911083";"104.7567333";"https://maps.google.com/?cid=0x0:0xa2487a62eb324a53";""
"building materials";"Toko Bahan Bangunan";"Depot Banyuasin";"Jl. Raya Palembang-Betung KM.15 No.55, 22 Ilir, Kec. Bukit Kecil, Kota Palembang, Sumatera Selatan 30113";"22 Ilir, Kec. Bukit Kecil, Kota Palembang";"SUMATERA SELATAN";"30113";"Indonesia";" 0711432058";"";"";"-2.990144";"104.7562398";"https://maps.google.com/?cid=0x0:0x60954c790cc8668f";""
"building materials";"Distributor Baja";"Toko Besi Awi / CV. AWIJAYA";"Jl. Cinde Welan No.40, 24 Ilir, Kec. Bukit Kecil, Kota Palembang, Sumatera Selatan 30114";"24 Ilir, Kec. Bukit Kecil, Kota Palembang";"SUMATERA SELATAN";"30114";"Indonesia";" 0711363330";"";"";"-2.981928";"104.7550129";"https://maps.google.com/?cid=0x0:0xc2b2cea33d102e45";""
"building materials";"Toko Bahan Bangunan";"Toko Abadi Jaya";"Jl. Cinde Welan No.6A, 24 Ilir, Kec. Bukit Kecil, Kota Palembang, Sumatera Selatan 30114";"24 Ilir, Kec. Bukit Kecil, Kota Palembang";"SUMATERA SELATAN";"30114";"Indonesia";" 0711363011";"";"";"-2.9831827";"104.7553883";"https://maps.google.com/?cid=0x0:0xf2dd9a6e2beb1aa7";""
"building materials";"Toko";"Kumala Permai";"Jl. Radial No.17/151, 24 Ilir, Kec. Bukit Kecil, Kota Palembang, Sumatera Selatan 30127";"24 Ilir, Kec. Bukit Kecil, Kota Palembang";"SUMATERA SELATAN";"30127";"Indonesia";" 0711320857";"";"";"-2.9833184";"104.7501874";"https://maps.google.com/?cid=0x0:0xd6920ac4f00677d2";""
"building materials";"Toko Bahan Bangunan";"Depot R4";"Jl. Ki Gede Ing Suro No.401, 32 Ilir, Kec. Ilir Bar. II, Kota Palembang, Sumatera Selatan 30126";"32 Ilir, Kec. Ilir Bar. II, Kota Palembang";"SUMATERA SELATAN";"30126";"Indonesia";" 085379062089";"";"";"-2.9963883";"104.7547729";"https://maps.google.com/?cid=0x0:0x7773197986ee22ba";""
"building materials";"Toko Bahan Bangunan";"Depot Tiga Saudara";"JL Pabean Sekanak, No. 401 RT. 14 RW. 03, 28 Ilir, Ilir Barat II, 28 Ilir, Palembang, Kota Palembang, Sumatera Selatan 30142";"No. 401 RT. 14 RW. 03, 28 Ilir, Ilir Barat II, 28 Ilir, Palembang, Kota Palembang";"SUMATERA SELATAN";"30142";"Indonesia";" 081367704502";"";"";"-2.9963593";"104.7545942";"https://maps.google.com/?cid=0x0:0xeccc18c8bb736a7f";""
"building materials";"Toko Bahan Bangunan";"Depot Bahan Bangunan Puji Katrine";"Jalan Kiranggo Wiro Sentiko, 30 Ilir, Kec. Ilir Bar. II, Kota Palembang, Sumatera Selatan 30144";"30 Ilir, Kec. Ilir Bar. II, Kota Palembang";"SUMATERA SELATAN";"30144";"Indonesia";" 082122277145";"";"";"-2.996015";"104.7485632";"https://maps.google.com/?cid=0x0:0xe222940652396e29";""
"building materials";"Toko Perkakas";"Lancar Jaya Abadi";"Jl. Jend. Sudirman No.55 B, RT.10/RW.01, 24 Ilir, Kec. Bukit Kecil, Kota Palembang, Sumatera Selatan 30114";"RT.10/RW.01, 24 Ilir, Kec. Bukit Kecil, Kota Palembang";"SUMATERA SELATAN";"30114";"Indonesia";" 082175807777";"";"";"-2.9810489";"104.7560544";"https://maps.google.com/?cid=0x0:0x9dca71d72dc74dcc";""
"building materials";"building materials";"Sumatera Selatan 30136";"Bukit Lama, Kec. Ilir Bar. I, Kota Palembang, Sumatera Selatan";"Kota Palembang, Sumatera Selatan";"SUMATERA SELATAN";"";"Indonesia";"";"";"";"-3.0069511";"104.7331354";"https://maps.google.com/?cid=0x0:0xe034153a20cca073";""
"building materials";"Toko Bahan Bangunan";"Toko Bangunan Akas Diksal Mandiri";"XPVM+XPH, Bukit Lama, Kec. Ilir Bar. I, Kota Palembang, Sumatera Selatan 30136";"Bukit Lama, Kec. Ilir Bar. I, Kota Palembang";"SUMATERA SELATAN";"30136";"Indonesia";" 0711446017";"";"";"-3.0050568";"104.7343458";"https://maps.google.com/?cid=0x0:0x4777d24820e5445a";""
"building materials";"Toko Bahan Bangunan";"TB. SUMBER MAKMUR ( BUKIT )";"Jl. Sultan M. Mansyur No.1079, Bukit Lama, Kec. Ilir Bar. I, Kota Palembang, Sumatera Selatan 30139";"Bukit Lama, Kec. Ilir Bar. I, Kota Palembang";"SUMATERA SELATAN";"30139";"Indonesia";" 085368824168";"";"";"-3.003176";"104.734596";"https://maps.google.com/?cid=0x0:0x661db240561a969c";""
"building materials";"Toko Bahan Bangunan";"TB. Tanggo Bangunan";"Bukit Lama, Kec. Ilir Bar. I, Kota Palembang, Sumatera Selatan 30136";"Kec. Ilir Bar. I, Kota Palembang";"SUMATERA SELATAN";"30136";"Indonesia";" 085383853521";"";"";"-3.0017695";"104.7294803";"https://maps.google.com/?cid=0x0:0x315115438b775c2c";""
"building materials";"Toko Bahan Bangunan";"DEPOT MANDALA MANDIRI";"Jalan Sultan Mohamad Mansyur No.1053 A, 32 Ilir, Kec. Ilir Bar. II, Kota Palembang, Sumatera Selatan 30145";"32 Ilir, Kec. Ilir Bar. II, Kota Palembang";"SUMATERA SELATAN";"30145";"Indonesia";" 0711444735";"";"";"-3.0024407";"104.7374425";"https://maps.google.com/?cid=0x0:0x17c0a327093bc31f";""
"building materials";"Toko Bahan Bangunan";"Toko Bangunan Jaya Abadi Bukit";"Jalan Jaksa Agung R Suprapto, Depan kampung kecil No.1-2, 26 Ilir D. I, Kec. Ilir Bar. I, Kota Palembang, Sumatera Selatan 30136";"Depan kampung kecil No.1-2, 26 Ilir D. I, Kec. Ilir Bar. I, Kota Palembang";"SUMATERA SELATAN";"30136";"Indonesia";" 082186717100";"";"";"-2.9896573";"104.7367531";"https://maps.google.com/?cid=0x0:0x4365541ff7fb8fc8";""
"building materials";"Toko Perlengkapan Atap";"Evo Raya Gypsum";"Jl. Sultan M. Mansyur, Bukit Lama, Kec. Ilir Bar. I, Kota Palembang, Sumatera Selatan 30137";"Bukit Lama, Kec. Ilir Bar. I, Kota Palembang";"SUMATERA SELATAN";"30137";"Indonesia";" 081271603588";"";"";"-2.9997036";"104.7272275";"https://maps.google.com/?cid=0x0:0x2b8fdd5b8ddf651c";""
"building materials";"Toko Bahan Bangunan";"Toko Bangunan Bukit Bintang";"Jl. Padang Selasa No.10A, Bukit Lama, Kec. Ilir Bar. I, Kota Palembang, Sumatera Selatan 30139";"Bukit Lama, Kec. Ilir Bar. I, Kota Palembang";"SUMATERA SELATAN";"30139";"Indonesia";" 082186748809";"";"";"-2.990179";"104.7345019";"https://maps.google.com/?cid=0x0:0xbfca6264d4c26d95";""
"building materials";"Toko Kayu";"Depot Masyarakat";"Jl. Politeknik, Bukit Lama, Kec. Ilir Bar. I, Kota Palembang, Sumatera Selatan 30139";"Bukit Lama, Kec. Ilir Bar. I, Kota Palembang";"SUMATERA SELATAN";"30139";"Indonesia";" 081278552474";"";"";"-3.0030261";"104.729656";"https://maps.google.com/?cid=0x0:0xaaf51f311945cf46";""
"building materials";"Toko Bahan Bangunan";"Istana Bangunan Palembang";"Jl. KH. A. Rasyid Siddiq No.861 D-F, Kertapati, 7 Ulu, Kecamatan Seberang Ulu I, Kota Palembang, Sumatera Selatan 30254";"Kertapati, 7 Ulu, Kecamatan Seberang Ulu I, Kota Palembang";"SUMATERA SELATAN";"30254";"Indonesia";" 082181404848";"";"";"-3.001137";"104.7660377";"https://maps.google.com/?cid=0x0:0xa294d886ea1dbdd7";""
"building materials";"Toko Perlengkapan Rumah";"TB. Usaha Baru";"2P68+8J5, Jl. Macan Lindungan, RT.03/RW.05, Bukit Baru, Kec. Ilir Bar. I, Kota Palembang, Sumatera Selatan 30131";"Jl. Macan Lindungan, RT.03/RW.05, Bukit Baru, Kec. Ilir Bar. I, Kota Palembang";"SUMATERA SELATAN";"30131";"Indonesia";" 082182880377";"";"";"-2.9892317";"104.7166081";"https://maps.google.com/?cid=0x0:0xcc843aa530816145";""
"building materials";"Toko Alat-Alat";"Toko Apo Bukit";"Jl. Padang Selasa No.37-1847, Bukit Lama, Kec. Ilir Bar. I, Kota Palembang, Sumatera Selatan 30121";"Bukit Lama, Kec. Ilir Bar. I, Kota Palembang";"SUMATERA SELATAN";"30121";"Indonesia";" 0711363311";"";"";"-2.9901949";"104.7339385";"https://maps.google.com/?cid=0x0:0x8438df2b6f771b07";""
"building materials";"Toko Bahan Bangunan";"TB Tinus Jaya";"Jl. Sultan M. Mansyur, Bukit Lama, Kec. Ilir Bar. I, Kota Palembang, Sumatera Selatan 30139";"Bukit Lama, Kec. Ilir Bar. I, Kota Palembang";"SUMATERA SELATAN";"30139";"Indonesia";" 085832763203";"";"";"-3.0027417";"104.7319353";"https://maps.google.com/?cid=0x0:0x2fa1c5928190b9ee";""
"building materials";"Jasa penyewaan perancah";"TB. Bukit Raya";"2P5H+C72, Jl. Srijaya Negara, Bukit Lama, Kec. Ilir Bar. I, Kota Palembang, Sumatera Selatan 30139";"Jl. Srijaya Negara, Bukit Lama, Kec. Ilir Bar. I, Kota Palembang";"SUMATERA SELATAN";"30139";"Indonesia";" 0711310092";"";"";"-2.9914759";"104.7281266";"https://maps.google.com/?cid=0x0:0x1f175ed124df0d49";""
"building materials";"Toko Bahan Bangunan";"TB. MMS";"No. 33, Kelurahan, Jl. Padang Selasa, Bukit Lama, Kec. Ilir Bar. I, Kota Palembang, Sumatera Selatan 30139";"Kelurahan, Jl. Padang Selasa, Bukit Lama, Kec. Ilir Bar. I, Kota Palembang";"SUMATERA SELATAN";"30139";"Indonesia";" 085100396806";"";"";"-2.9898337";"104.7347863";"https://maps.google.com/?cid=0x0:0xc916bfbd49fc7750";""
"building materials";"Toko Bahan Bangunan";"Arlam";"Jl. Sultan M. Mansyur No.1139A, Bukit Lama, Kec. Ilir Bar. I, Kota Palembang, Sumatera Selatan 30139";"Bukit Lama, Kec. Ilir Bar. I, Kota Palembang";"SUMATERA SELATAN";"30139";"Indonesia";" 0711446041";"";"";"-3.0027399";"104.7371102";"https://maps.google.com/?cid=0x0:0xff2c328d5652b126";""
"building materials";"Toko Bahan Bangunan";"TB. Anugrah Agung";"Jl. Sultan M. Mansyur No.5, Bukit Lama, Kec. Ilir Bar. I, Kota Palembang, Sumatera Selatan 30121";"Bukit Lama, Kec. Ilir Bar. I, Kota Palembang";"SUMATERA SELATAN";"30121";"Indonesia";" 082185260133";"";"";"-2.9963792";"104.7268918";"https://maps.google.com/?cid=0x0:0x4cbe03d4cc927aae";""
"building materials";"Toko Bahan Bangunan";"TB. Karya Indah";"Jl. Padang Selasa No.1850, Bukit Lama, Kec. Ilir Bar. I, Kota Palembang, Sumatera Selatan 30139";"Bukit Lama, Kec. Ilir Bar. I, Kota Palembang";"SUMATERA SELATAN";"30139";"Indonesia";" 0711362116";"";"";"-2.989826";"104.7346419";"https://maps.google.com/?cid=0x0:0xf10f24e63023d73c";""
"building materials";"Toko Bahan Bangunan";"Artha Karya";"XPWJ+XVJ, Jl. Sultan M. Mansyur, Bukit Lama, Kec. Ilir Bar. I, Kota Palembang, Sumatera Selatan 30137";"Jl. Sultan M. Mansyur, Bukit Lama, Kec. Ilir Bar. I, Kota Palembang";"SUMATERA SELATAN";"30137";"Indonesia";" 081377733872";"";"";"-3.0025359";"104.732141";"https://maps.google.com/?cid=0x0:0x5f852d664845d0a0";""
"building materials";"Toko Bahan Bangunan";"Dalem Agung";"Jl. Sultan M. Mansyur No.1372, Bukit Lama, Kec. Ilir Bar. II, Kota Palembang, Sumatera Selatan 30134";"Bukit Lama, Kec. Ilir Bar. II, Kota Palembang";"SUMATERA SELATAN";"30134";"Indonesia";" 0711444473";"";"";"-3.0019144";"104.7399399";"https://maps.google.com/?cid=0x0:0xd65d49617a579fd8";""
"building materials";"building materials";"Kec. Bukit Kecil";"Kota Palembang, Sumatera Selatan";"Kota Palembang, Sumatera Selatan";"SUMATERA SELATAN";"";"Indonesia";"";"";"";"-2.988549";"104.7491771";"https://maps.google.com/?cid=0x0:0xe7d624519bc4e3fa";""
"building materials";"Toko";"Alam";"Jl. KH. Ahmad Dahlan No.50, Talang Semut, Kec. Bukit Kecil, Kota Palembang, Sumatera Selatan 30136";"Talang Semut, Kec. Bukit Kecil, Kota Palembang";"SUMATERA SELATAN";"30136";"Indonesia";" 081977707753";"";"";"-2.9864";"104.7476028";"https://maps.google.com/?cid=0x0:0xf4c3bc9ce21c1410";""
"building materials";"Toko Bahan Bangunan";"Sinar Bintang";"Komp. Ilir Bar. Permai, Jl. Letkol Iskandar No.36 D-1, 24 Ilir, Kec. Bukit Kecil, Kota Palembang, Sumatera Selatan 30134";"Jl. Letkol Iskandar No.36 D-1, 24 Ilir, Kec. Bukit Kecil, Kota Palembang";"SUMATERA SELATAN";"30134";"Indonesia";" 0711311018";"";"";"-2.9838015";"104.7516267";"https://maps.google.com/?cid=0x0:0xd7c9a10e89dfafc8";""
"building materials";"Toko";"Kumala Permai";"Jl. Radial No.17/151, 24 Ilir, Kec. Bukit Kecil, Kota Palembang, Sumatera Selatan 30127";"24 Ilir, Kec. Bukit Kecil, Kota Palembang";"SUMATERA SELATAN";"30127";"Indonesia";" 0711320857";"";"";"-2.9833184";"104.7501874";"https://maps.google.com/?cid=0x0:0xd6920ac4f00677d2";""
"building materials";"Toko Bahan Bangunan";"Beringin Jaya";"JL. Raya Palembang-Betung, Km. 15, Talang Semut, Kec. Bukit Kecil, Kota Palembang, Sumatera Selatan 30126";"Km. 15, Talang Semut, Kec. Bukit Kecil, Kota Palembang";"SUMATERA SELATAN";"30126";"Indonesia";" 07117716561";"";"";"-2.9900109";"104.7541531";"https://maps.google.com/?cid=0x0:0x9adc072a282be9ff";""
"building materials";"Toko Peralatan Tukang Kayu";"Cinde Prima";"Jl. karet No.RT. 10A, 24 Ilir, Kec. Bukit Kecil, Kota Palembang, Sumatera Selatan 30114";"24 Ilir, Kec. Bukit Kecil, Kota Palembang";"SUMATERA SELATAN";"30114";"Indonesia";" 085366835530";"";"";"-2.9827728";"104.7552579";"https://maps.google.com/?cid=0x0:0x41e165ba2f111879";""
"building materials";"Toko Bahan Bangunan";"Depot Hijrah";"Jl. KH. Ahmad Dahlan No.256, Talang Semut, Kec. Bukit Kecil, Kota Palembang, Sumatera Selatan 30136";"Talang Semut, Kec. Bukit Kecil, Kota Palembang";"SUMATERA SELATAN";"30136";"Indonesia";" 0711361917";"";"";"-2.9875717";"104.7469078";"https://maps.google.com/?cid=0x0:0x6b75d3790caf5b11";""
"building materials";"Toko Bahan Bangunan";"Rizki Art";"Jl. Faqih Jalaluddin No.107, 19 Ilir, Kec. Bukit Kecil, Kota Palembang, Sumatera Selatan 30113";"19 Ilir, Kec. Bukit Kecil, Kota Palembang";"SUMATERA SELATAN";"30113";"Indonesia";" 081278961081";"";"";"-2.988501";"104.758916";"https://maps.google.com/?cid=0x0:0xc3f4ab88198b5add";""
"building materials";"Toko Bahan Bangunan";"Petak 43";"Jl. Cinde Welan No.4, 24 Ilir, Kec. Bukit Kecil, Kota Palembang, Sumatera Selatan 30114";"24 Ilir, Kec. Bukit Kecil, Kota Palembang";"SUMATERA SELATAN";"30114";"Indonesia";" 081368776222";"";"";"-2.9810011";"104.755053";"https://maps.google.com/?cid=0x0:0x1c40a33b955197a";""
"building materials";"building materials";"Sumatera Selatan 30147";"Kec. Kertapati, Kota Palembang, Sumatera Selatan";"Kota Palembang, Sumatera Selatan";"SUMATERA SELATAN";"";"Indonesia";"";"";"";"-3.0335505";"104.7389686";"https://maps.google.com/?cid=0x0:0x2d56b41420f78cb6";""
"building materials";"Toko Bahan Bangunan";"Depot Ayu Mandiri Gandus";"Jl. Lettu Karim Kadir, Gandus, Kec. Gandus, Kota Palembang, Sumatera Selatan 30149";"Gandus, Kec. Gandus, Kota Palembang";"SUMATERA SELATAN";"30149";"Indonesia";" 082180009873";"";"";"-3.0145018";"104.6954404";"https://maps.google.com/?cid=0x0:0x2007c2a2b0bd8d11";""
"building materials";"Toko Bahan Bangunan";"Toko Global Jaya - Semen Baturaja";"XMHM+VMX, Jl. Lettu Karim Kadir, Gandus, Kec. Gandus, Kota Palembang, Sumatera Selatan 30149";"Jl. Lettu Karim Kadir, Gandus, Kec. Gandus, Kota Palembang";"SUMATERA SELATAN";"30149";"Indonesia";" 081367269642";"";"";"-3.020263";"104.6842301";"https://maps.google.com/?cid=0x0:0xe0665b3a2f47b87f";""
"building materials";"Toko Bahan Bangunan";"Toko Tunak Jaya";"Jl. Pangeran Sido Ing Lautan No.161, 36 Ilir, Kec. Gandus, Kota Palembang, Sumatera Selatan 30147";"36 Ilir, Kec. Gandus, Kota Palembang";"SUMATERA SELATAN";"30147";"Indonesia";" 0711441326";"";"";"-3.0119506";"104.746247";"https://maps.google.com/?cid=0x0:0xc87dec831dc4014a";""
"building materials";"Toko Bahan Bangunan";"Depot Amin Jaya";"XP8Q+G3P, Jl. Putri Dayang Rindu, Keramasan, Kec. Kertapati, Kota Palembang, Sumatera Selatan 30147";"Jl. Putri Dayang Rindu, Keramasan, Kec. Kertapati, Kota Palembang";"SUMATERA SELATAN";"30147";"Indonesia";" 082282995518";"";"";"-3.0336613";"104.7377076";"https://maps.google.com/?cid=0x0:0xdc424e7e3959e9";""
"building materials";"Toko Bahan Bangunan";"Depot Bangunan AA";"Jl. PDAM No.350 C, Karang Jaya, Kec. Gandus, Kota Palembang, Sumatera Selatan 30149";"Karang Jaya, Kec. Gandus, Kota Palembang";"SUMATERA SELATAN";"30149";"Indonesia";" 07115640016";"";"";"-3.0110556";"104.7299605";"https://maps.google.com/?cid=0x0:0xd7ada61333d4d801";""
"building materials";"Toko Bahan Bangunan";"Depot Bangunan Cek Tuti";"Jalan PSI Kenayan No.1129, 36 Ilir, Kec. Gandus, Kota Palembang, Sumatera Selatan 30148";"36 Ilir, Kec. Gandus, Kota Palembang";"SUMATERA SELATAN";"30148";"Indonesia";" 0711444053";"";"";"-3.014783";"104.7459494";"https://maps.google.com/?cid=0x0:0x510286d20ebd9c88";""
"building materials";"Toko Bahan Bangunan";"CV Inti Usaha 2 (H.Adam Umar)";"Jl. Syakyakirti No.155, Karang Jaya, Kec. Gandus, Kota Palembang, Sumatera Selatan 30148";"Karang Jaya, Kec. Gandus, Kota Palembang";"SUMATERA SELATAN";"30148";"Indonesia";" 07115641902";"";"";"-3.0186873";"104.7241152";"https://maps.google.com/?cid=0x0:0x2b1f0aca13edf67e";""
"building materials";"Toko Bahan Bangunan";"RIDHO JAYA BROTHER'S";"Jl. Syakyakirti, Karang Jaya, Kec. Gandus, Kota Palembang, Sumatera Selatan 30148";"Karang Jaya, Kec. Gandus, Kota Palembang";"SUMATERA SELATAN";"30148";"Indonesia";"";"";"";"-3.0172373";"104.7217297";"https://maps.google.com/?cid=0x0:0xdf7a4b0ebafcd0c5";""
"building materials";"Toko Bahan Bangunan";"Musi Indah. CV";"JL Syakyakirti, No. 89 Rt. 02 Rw. 01, Karang Jaya, Gandus, Karang Jaya, Palembang, Kota Palembang, Sumatera Selatan 30139";"No. 89 Rt. 02 Rw. 01, Karang Jaya, Gandus, Karang Jaya, Palembang, Kota Palembang";"SUMATERA SELATAN";"30139";"Indonesia";" 0711441693";"";"";"-3.020248";"104.72674";"https://maps.google.com/?cid=0x0:0x77196726d2a4cba4";""
"building materials";"Toko Bahan Bangunan";"TB Puspa";"1262, Jl. Syakyakirti No.23, Karang Anyar, Gandus, Palembang City, South Sumatra 30148";"Jl. Syakyakirti No.23, Karang Anyar, Gandus, Palembang City";"SUMATERA SELATAN";"30148";"Indonesia";" 081271811127";"";"";"-3.0181264";"104.7308643";"https://maps.google.com/?cid=0x0:0x2bab9995e5dae936";""
"building materials";"Toko Bahan Bangunan";"Usaha Bersama";"105, Jl. Pangeran Sido Ing Kenayan No.01, Karang Anyar, Kec. Gandus, Kota Palembang, Sumatera Selatan 30148";"Jl. Pangeran Sido Ing Kenayan No.01, Karang Anyar, Kec. Gandus, Kota Palembang";"SUMATERA SELATAN";"30148";"Indonesia";" 0711443275";"";"";"-3.0166799";"104.7446801";"https://maps.google.com/?cid=0x0:0x18c6e9a9e6c26ab7";""
"building materials";"Toko Bahan Bangunan";"Mandiri Jaya";"Jalan Ki Merogan Blok Pal 8, Kemang Agung, Kec. Kertapati, Kota Palembang, Sumatera Selatan 30259";"Kemang Agung, Kec. Kertapati, Kota Palembang";"SUMATERA SELATAN";"30259";"Indonesia";" 085269793244";"";"";"-3.0463999";"104.7457242";"https://maps.google.com/?cid=0x0:0x1a78eabe822f2ffa";""
"building materials";"Toko Bahan Bangunan";"Depot Bahan Bangunan Permata Jaya";"XQ72+GMH, Jl. Kimarogan, Kemas Rindo, Kec. Kertapati, Kota Palembang, Sumatera Selatan 30258";"Jl. Kimarogan, Kemas Rindo, Kec. Kertapati, Kota Palembang";"SUMATERA SELATAN";"30258";"Indonesia";" 085273219897";"";"";"-3.0361963";"104.7517285";"https://maps.google.com/?cid=0x0:0x7984560524bfce18";""
"building materials";"Toko Bahan Bangunan";"DEPOT NAILA SUKSES";"Jalan Abikusno Cahyo Suyoso No.521, Kemang Agung, Kec. Kertapati, Kota Palembang, Sumatera Selatan 30258";"Kemang Agung, Kec. Kertapati, Kota Palembang";"SUMATERA SELATAN";"30258";"Indonesia";" 081279631881";"";"";"-3.0333862";"104.7507024";"https://maps.google.com/?cid=0x0:0x3585b276fd3aeaa8";""
"building materials";"Toko Bahan Bangunan";"Inti Usaha";"Jl. Syakyakirti No.156, Karang Jaya, Kec. Gandus, Kota Palembang, Sumatera Selatan 30148";"Karang Jaya, Kec. Gandus, Kota Palembang";"SUMATERA SELATAN";"30148";"Indonesia";" 0711441459";"";"";"-3.018453";"104.7240726";"https://maps.google.com/?cid=0x0:0xd215bd0ec1e776be";""
"building materials";"Toko Bahan Bangunan";"Depot Bahan Bangunan Dian Putra";"XPPF+V2J, Jl. Letjen H. Alamsyah Ratu Perwiranegara, Karang Jaya, Kec. Gandus, Kota Palembang, Sumatera Selatan 30149";"Jl. Letjen H. Alamsyah Ratu Perwiranegara, Karang Jaya, Kec. Gandus, Kota Palembang";"SUMATERA SELATAN";"30149";"Indonesia";" 081377709709";"";"";"-3.0127975";"104.7225088";"https://maps.google.com/?cid=0x0:0x5cbd6c85b721aed6";""
"building materials";"Toko Bahan Bangunan";"TB Maju Jaya Abadi";"XPMC+XWW, Jl. Letjen H. Alamsyah Ratu Perwiranegara, Karang Jaya, Kec. Gandus, Kota Palembang, Sumatera Selatan";"Kota Palembang, Sumatera Selatan";"SUMATERA SELATAN";"";"Indonesia";" 08119424331";"";"";"-3.0150069";"104.7223157";"https://maps.google.com/?cid=0x0:0x38312d46ee22af78";""
"building materials";"Toko Kayu";"Depot Citra Usaha";"36 Ilir, Kec. Gandus, Kota Palembang, Sumatera Selatan 30143";"Kec. Gandus, Kota Palembang";"SUMATERA SELATAN";"30143";"Indonesia";" 085383939333";"";"";"-3.0147965";"104.7458377";"https://maps.google.com/?cid=0x0:0x4150b5e90c512f6c";""
"building materials";"Toko Bahan Bangunan";"Depot Bahan Bangunan Kurnia";"Jl. Pangeran Sido Ing Lautan No.1229, 36 Ilir, Kec. Gandus, Kota Palembang, Sumatera Selatan 30146";"36 Ilir, Kec. Gandus, Kota Palembang";"SUMATERA SELATAN";"30146";"Indonesia";" 08970118382";"";"";"-3.009411";"104.746535";"https://maps.google.com/?cid=0x0:0x979d6dadd510eb5c";""
