Category;Real Category;Business Name;Address;City;State;Postal Code;Country;Phone;Email;Website;Latitude;Longitude;Map Link;Details Link
"mall";"Pusat Perbelanjaan";"Mall Pesona Square";"Jl. Ir. H. Juanda No.22a, Bakti Jaya, Kec. Sukmajaya, Kota Depok, Jawa Barat 16418";"Bakti Jaya, Kec. Sukmajaya, Kota Depok";"JAWA BARAT";"16418";"Indonesia";"";"";"/url?q>>u003dhttps://www.instagram.com/pesonasquareid/%3Fhl%3Den>>u0026opi>>u003d79508299>>u0026sa>>u003dU>>u0026ved>>u003d0ahUKEwjfhIb1pPyLAxXER2wGHbqpKKwQ61gIEigO>>u0026usg>>u003dAOvVaw1kXrGI0saXQJIgOUZTq_9B";"-6.3804838";"106.8439769";"https://maps.google.com/?cid=0x0:0x1b0766ee6d95d49e";""
"mall";"Pusat Perbelanjaan";"Cimahi Mall";"Cimahi Mall, Jl. Gandawijaya, Setiamanah, Kec. Cimahi Tengah, Kota Cimahi, Jawa Barat 40524";"Jl. Gandawijaya, Setiamanah, Kec. Cimahi Tengah, Kota Cimahi";"JAWA BARAT";"40524";"Indonesia";" 081122335546";"";"";"-6.8782602";"107.5396055";"https://maps.google.com/?cid=0x0:0x277aab6fe377a757";""
"mall";"Taman Hiburan";"Trans Studio Mall Cibubur";"Jl. Alternatif Cibubur No.230 A, Harjamukti, Kec. Cimanggis, Kota Depok, Jawa Barat 16454";"Harjamukti, Kec. Cimanggis, Kota Depok";"JAWA BARAT";"16454";"Indonesia";" 02139705050";"";"";"-6.3756707";"106.9019455";"https://maps.google.com/?cid=0x0:0x5e89bf86511886e2";""
"mall";"Pusat Perbelanjaan";"D'Mall Depok";"Jl. Margonda Raya No.88, Kemiri Muka, Kecamatan Beji, Kota Depok, Jawa Barat 16423";"Kemiri Muka, Kecamatan Beji, Kota Depok";"JAWA BARAT";"16423";"Indonesia";"";"";"";"-6.387138";"106.827347";"https://maps.google.com/?cid=0x0:0x40e44007d9f58418";""
"mall";"mall";"BAROS SENENG NO.64";"4G2Q+7H5, Utama, Kec. Cimahi Sel., Kota Cimahi, Jawa Barat 40533";"Utama, Kec. Cimahi Sel., Kota Cimahi";"JAWA BARAT";"40533";"Indonesia";"";"";"";"-6.8993733";"107.5389932";"https://maps.google.com/?cid=0x0:0xe3c2db6d284556e2";""
"mall";"mall";"Jawa Barat";"";"Jawa Barat";"JAWA BARAT";"";"Indonesia";"";"";"";"-7.090911";"107.668887";"https://maps.google.com/?cid=0x0:0xbc18a454fc8e9d7e";""
"mall";"Toko bahan makanan";"KS 212 MART CIMAHI KOSSAMI";"Town Place, Jl. Sentra Raya No.A1, Baros, Kec. Cimahi Tengah, Kota Cimahi, Jawa Barat 40521";"Jl. Sentra Raya No.A1, Baros, Kec. Cimahi Tengah, Kota Cimahi";"JAWA BARAT";"40521";"Indonesia";" 089512122850";"";"";"-6.8923439";"107.5403822";"https://maps.google.com/?cid=0x0:0xd9efcf7d7c2fc378";""
"mall";"Vila";"Villa Baros";"Q4R3+M52, Unnamed Road,, Cisalam, Kec. Baros, Kabupaten Serang, Banten 42173";"Unnamed Road,, Cisalam, Kec. Baros, Kabupaten Serang";"JAWA BARAT";"42173";"Indonesia";"";"";"";"-6.2083518";"106.1028814";"https://maps.google.com/?cid=0x0:0x49e792ad866d0f83";""
"mall";"Toko Bahan Bangunan";"Tk Batu Kuda Baros";"Q4QJ+2QX, Baros, Kec. Baros, Kabupaten Serang, Banten 42173";"Baros, Kec. Baros, Kabupaten Serang";"JAWA BARAT";"42173";"Indonesia";"";"";"";"-6.212385";"106.1319799";"https://maps.google.com/?cid=0x0:0x6816b2c05cdf309f";""
"mall";"Pusat Perbelanjaan";"MINISO CIMAHI OFFICIAL STORE";"Jl. Gandawijaya No.48, Setiamanah, Kec. Cimahi Tengah, Kota Cimahi, Jawa Barat 40524";"Setiamanah, Kec. Cimahi Tengah, Kota Cimahi";"JAWA BARAT";"40524";"Indonesia";" 082340762551";"";"";"-6.8745912";"107.5412541";"https://maps.google.com/?cid=0x0:0x1de19443296c4190";""
"mall";"Pasar tradisional";"Pasar Baros";"Jl. Jaksa Agung R. Soeprapto No.KM. 13, Baros, Kec. Baros, Kabupaten Serang, Banten 42173";"Baros, Kec. Baros, Kabupaten Serang";"JAWA BARAT";"42173";"Indonesia";"";"";"";"-6.2102775";"106.1342342";"https://maps.google.com/?cid=0x0:0xa9c4df379f4a8c1a";""
"mall";"Pusat Perbelanjaan";"Outlet Momy Aqila";"Q4QQ+XX9, Jl. Raya Baros Petir, Kp.dukuh, pinang, Kec. Baros, Kabupaten Serang, Banten 42173";"Jl. Raya Baros Petir, Kp.dukuh, pinang, Kec. Baros, Kabupaten Serang";"JAWA BARAT";"42173";"Indonesia";" 087881796673";"";"";"-6.2100789";"106.1399893";"https://maps.google.com/?cid=0x0:0x6bf537ed30cfc149";""
"mall";"Toko";"Joy Cell";"Q4MM+V2X puskesmas, Jl. Raya Serang - Pandeglang, Baros, Kec. Baros, Kabupaten Serang, Banten 42173";"Jl. Raya Serang - Pandeglang, Baros, Kec. Baros, Kabupaten Serang";"JAWA BARAT";"42173";"Indonesia";" 081911006070";"";"";"-6.2152529";"106.1326052";"https://maps.google.com/?cid=0x0:0x9ba90e3f5553e25e";""
"mall";"Toko Bahan Bangunan";"CV.Putra Jaya Group";"Q4HJ+665, Jl. Raya Serang - Pandeglang, Sukamanah, Kec. Baros, Kabupaten Serang, Banten 42173";"Jl. Raya Serang - Pandeglang, Sukamanah, Kec. Baros, Kabupaten Serang";"JAWA BARAT";"42173";"Indonesia";" 085283541466";"";"";"-6.2219879";"106.1306089";"https://maps.google.com/?cid=0x0:0xe6f82f201eb85eec";""
"mall";"Pusat Perbelanjaan";"Warung Dian Amel";"Q47W+R2J, Tejamari, Kec. Baros, Kabupaten Serang, Banten 42173";"Tejamari, Kec. Baros, Kabupaten Serang";"JAWA BARAT";"42173";"Indonesia";" 081315967335";"";"";"-6.2354244";"106.1450076";"https://maps.google.com/?cid=0x0:0xa5daccffbf46df9c";""
"mall";"Pusat Perbelanjaan";"Melly Cell";"Q4J3+JM6, Curug Agung, Kec. Baros, Kabupaten Serang, Banten 42173";"Curug Agung, Kec. Baros, Kabupaten Serang";"JAWA BARAT";"42173";"Indonesia";" 08558682696";"";"";"-6.2184667";"106.1041366";"https://maps.google.com/?cid=0x0:0x675a58039d3a5b28";""
"mall";"Toko";"Syeen store banten";"Suka Indah, Kec. Baros, Kabupaten Serang, Banten 42173";"Kec. Baros, Kabupaten Serang";"JAWA BARAT";"42173";"Indonesia";" 082118022499";"";"";"-6.2446065";"106.1249535";"https://maps.google.com/?cid=0x0:0x7d665b669b16226e";""
"mall";"Studio Foto";"Umi Photo";"jajajsh, Baros, Kec. Baros, Kabupaten Serang, Banten 42173";"Baros, Kec. Baros, Kabupaten Serang";"JAWA BARAT";"42173";"Indonesia";"";"";"";"-6.2143671";"106.1329282";"https://maps.google.com/?cid=0x0:0xaab67dbe4f821446";""
"mall";"Pusat Perbelanjaan";"Pusat Oleh Oleh RR9";"Jl. Jaksa Agung R. Soeprapto No.13, Suka Indah, Kec. Baros, Kabupaten Serang, Banten 42173";"Suka Indah, Kec. Baros, Kabupaten Serang";"JAWA BARAT";"42173";"Indonesia";" 085159817099";"";"";"-6.2444494";"106.1250187";"https://maps.google.com/?cid=0x0:0x8569b93fdb7800f8";""
"mall";"Pusat Perbelanjaan";"Warung Aris";"Q48R+C5R, Unnamed Road, Tejamari, Kec. Baros, Kabupaten Serang, Banten 42173";"Unnamed Road, Tejamari, Kec. Baros, Kabupaten Serang";"JAWA BARAT";"42173";"Indonesia";"";"";"";"-6.2338967";"106.1403921";"https://maps.google.com/?cid=0x0:0x34eb3ce452727fba";""
"mall";"Toko Olahraga Panahan";"Garuda Sport Hunt  Match";"Q5Q3+842, Jl. Raya Baros Petir, Sidamukti, Kec. Baros, Kabupaten Serang, Banten 42173";"Jl. Raya Baros Petir, Sidamukti, Kec. Baros, Kabupaten Serang";"JAWA BARAT";"42173";"Indonesia";" 085946379415";"";"";"-6.2117281";"106.1527807";"https://maps.google.com/?cid=0x0:0x3fdfb27bcd7100b4";""
"mall";"Toko";"Toko Afifah";"Jl. Raya Baros Petir No.8, Sidamukti, Kec. Baros, Kabupaten Serang, Banten 42173";"Sidamukti, Kec. Baros, Kabupaten Serang";"JAWA BARAT";"42173";"Indonesia";" 087781000303";"";"";"-6.2104284";"106.1378455";"https://maps.google.com/?cid=0x0:0x2b32f9de5e642439";""
"mall";"Pusat Perbelanjaan";"Warung Emin Muhe";"Q44G+QCV, Suka Indah, Kec. Baros, Kabupaten Serang, Banten 42173";"Suka Indah, Kec. Baros, Kabupaten Serang";"JAWA BARAT";"42173";"Indonesia";" 08989336522";"";"";"-6.2430114";"106.1260367";"https://maps.google.com/?cid=0x0:0x1ec8d3d7336eadb0";""
"mall";"Lembaga Agama";"PONDOK PESANTREN AL HAJAR";"Q4JX+V4P, Sidamukti, Kec. Baros, Kabupaten Serang, Banten 42173";"Sidamukti, Kec. Baros, Kabupaten Serang";"JAWA BARAT";"42173";"Indonesia";" 085215108857";"";"";"-6.2177896";"106.1478259";"https://maps.google.com/?cid=0x0:0x94b0f4622b026deb";""
"mall";"Toko Ikan";"Akbar Catfish";"Q4PH+XXM, Unnamed Road, Baros, Kec. Baros, Kabupaten Serang, Banten 42173";"Unnamed Road, Baros, Kec. Baros, Kabupaten Serang";"JAWA BARAT";"42173";"Indonesia";" 081911039536";"";"";"-6.2125328";"106.1299116";"https://maps.google.com/?cid=0x0:0x129e9c242a71b4d";""
"mall";"Toko";"Toko Sembako Teh Isur";"Panyirapan, Kec. Baros, Kabupaten Serang, Banten 42173";"Kec. Baros, Kabupaten Serang";"JAWA BARAT";"42173";"Indonesia";" 089696929399";"";"";"-6.2403751";"106.1280396";"https://maps.google.com/?cid=0x0:0x4f5d55aacc4358a6";""
"mall";"Toko Balon";"BALONKU";"Q4CH+RF3, Kp. Sawah, Sukamanah, Kec. Baros, Kabupaten Serang, Banten 42173";"Kp. Sawah, Sukamanah, Kec. Baros, Kabupaten Serang";"JAWA BARAT";"42173";"Indonesia";" 081296468784";"";"";"-6.2279918";"106.1286764";"https://maps.google.com/?cid=0x0:0x2fe210ea8eb43bbc";""
"mall";"Toko";"Toko RATU (H Lukman)";"Q5Q3+8F3, Kp cipacung, Sidamukti, Kec. Baros, Kabupaten Serang, Banten 42173";"Kp cipacung, Sidamukti, Kec. Baros, Kabupaten Serang";"JAWA BARAT";"42173";"Indonesia";" 081806644855";"";"";"-6.211726";"106.153669";"https://maps.google.com/?cid=0x0:0x6df8b9b946bb1183";""
"mall";"Pusat Perbelanjaan";"Warung Rizky";"Q47W+G9W, Sinarmukti, Kec. Baros, Kabupaten Serang, Banten 42173";"Sinarmukti, Kec. Baros, Kabupaten Serang";"JAWA BARAT";"42173";"Indonesia";" 083877826788";"";"";"-6.2361491";"106.1459542";"https://maps.google.com/?cid=0x0:0x59509d7461edad51";""
"mall";"Toko umum";".";"Jl. Balandongan, RT.03/RW.02, Sudajaya Hilir, Kec. Baros, Kota Sukabumi, Jawa Barat 43161";"RT.03/RW.02, Sudajaya Hilir, Kec. Baros, Kota Sukabumi";"JAWA BARAT";"43161";"Indonesia";" 086564246754";"";"";"-6.9465427";"106.9231112";"https://maps.google.com/?cid=0x0:0x80e8d8832af65df6";""
"mall";"Minimarket";"YOMART BAROS";"2WPQ+7GV dekat pom bensin, Jl. Baros, Baros, Kec. Baros, Kota Sukabumi, Jawa Barat 43161";"Jl. Baros, Baros, Kec. Baros, Kota Sukabumi";"JAWA BARAT";"43161";"Indonesia";"";"";"";"-6.96429";"106.9388507";"https://maps.google.com/?cid=0x0:0xd203efe65a9af133";""
"mall";"Toko Perlengkapan Bayi";"Baby Pandawa";"2WPQ+FWV, Jl. Garuda, Baros, Kec. Baros, Kota Sukabumi, Jawa Barat 43161";"Jl. Garuda, Baros, Kec. Baros, Kota Sukabumi";"JAWA BARAT";"43161";"Indonesia";" 08987932363";"";"";"-6.9637524";"106.9398056";"https://maps.google.com/?cid=0x0:0x5c9000286aa41a1a";""
"mall";"Gudang";"Indogrosir Sukabumi";"Jl. Lkr. Sel., RT.01/RW.03, Sudajaya Hilir, Kec. Baros, Kota Sukabumi, Jawa Barat 43161";"RT.01/RW.03, Sudajaya Hilir, Kec. Baros, Kota Sukabumi";"JAWA BARAT";"43161";"Indonesia";" 02662489291";"";"/url?q>>u003dhttps://wa.me/6287819545846>>u0026opi>>u003d79508299>>u0026sa>>u003dU>>u0026ved>>u003d0ahUKEwiVr9CNpfyLAxUD3jgGHUfcGz4Q61gIFigS>>u0026usg>>u003dAOvVaw1lwYlFxP7JkDpiRDF-Wzwb";"-6.9522044";"106.9266579";"https://maps.google.com/?cid=0x0:0x9962a6d50202333d";""
"mall";"Toko";"garasi classic 88";"2WWJ+C4M, Jayaraksa, Kec. Baros, Kabupaten Sukabumi, Jawa Barat 43166";"Jayaraksa, Kec. Baros, Kabupaten Sukabumi";"JAWA BARAT";"43166";"Indonesia";" 085624811813";"";"";"-6.9539089";"106.9302989";"https://maps.google.com/?cid=0x0:0xfd3d24ecc98f16bb";""
"mall";"Pusat Perbelanjaan";"Warung teh ela";"2WPQ+R4F, Baros, Kec. Baros, Kota Sukabumi, Jawa Barat 43161";"Baros, Kec. Baros, Kota Sukabumi";"JAWA BARAT";"43161";"Indonesia";"";"";"";"-6.9629435";"106.9377989";"https://maps.google.com/?cid=0x0:0xdaa982c42f341900";""
"mall";"Pusat Perbelanjaan";"F2 cell";"Jl. Proklamasi, Jayamekar, Kec. Baros, Kota Sukabumi, Jawa Barat 43166";"Jayamekar, Kec. Baros, Kota Sukabumi";"JAWA BARAT";"43166";"Indonesia";" 0816605897";"";"";"-6.9658304";"106.9241306";"https://maps.google.com/?cid=0x0:0xe7bdf7e2a44efae5";""
"mall";"Pusat Perbelanjaan";"Warung B Tia";"Perum Taman Genting Puri Baros, Blk. D1 No.4, Baros, Kec. Baros, Kabupaten Sukabumi, Jawa Barat 43192";"Blk. D1 No.4, Baros, Kec. Baros, Kabupaten Sukabumi";"JAWA BARAT";"43192";"Indonesia";" 085872041810";"";"";"-6.9621281";"106.9432389";"https://maps.google.com/?cid=0x0:0x670948dfbae0215b";""
"mall";"Toko";"Bumi Riyadhfara";"Sudajaya Hilir, Kec. Baros, Kota Sukabumi, Jawa Barat 43161";"Kec. Baros, Kota Sukabumi";"JAWA BARAT";"43161";"Indonesia";" 085793596877";"";"";"-6.9491253";"106.9244207";"https://maps.google.com/?cid=0x0:0x2d02216d496286b5";""
"mall";"Toko";"TOKO DAFA";"Jl. Garuda, Baros, Kec. Baros, Kota Sukabumi, Jawa Barat 43161";"Baros, Kec. Baros, Kota Sukabumi";"JAWA BARAT";"43161";"Indonesia";" 085692677214";"";"";"-6.9605922";"106.9429799";"https://maps.google.com/?cid=0x0:0xbb8df0481de50352";""
"mall";"Toko Pakaian";"Kitty house";"Jl. Tatanugraha No.148, Jayamekar, Kec. Baros, Kota Sukabumi, Jawa Barat 43166";"Jayamekar, Kec. Baros, Kota Sukabumi";"JAWA BARAT";"43166";"Indonesia";" 085860966689";"";"";"-6.9631352";"106.9249029";"https://maps.google.com/?cid=0x0:0x4ac7934924ea1fc4";""
"mall";"Pusat Perbelanjaan";"PT. WNK Wahyu";"2WXJ+759, Jayaraksa, Kec. Baros, Kota Sukabumi, Jawa Barat 43166";"Jayaraksa, Kec. Baros, Kota Sukabumi";"JAWA BARAT";"43166";"Indonesia";" 08129334774";"";"";"-6.9518348";"106.930481";"https://maps.google.com/?cid=0x0:0x2b11bd0960ea5946";""
"mall";"Pusat Perbelanjaan";"Cimahi Mall";"Cimahi Mall, Jl. Gandawijaya, Setiamanah, Kec. Cimahi Tengah, Kota Cimahi, Jawa Barat 40524";"Jl. Gandawijaya, Setiamanah, Kec. Cimahi Tengah, Kota Cimahi";"JAWA BARAT";"40524";"Indonesia";" 081122335546";"";"";"-6.8782602";"107.5396055";"https://maps.google.com/?cid=0x0:0x277aab6fe377a757";""
"mall";"Toko Makanan Sehat";"Rujak Anti Galau";"2WXF+J89, Jl. Balandongan, Sudajaya Hilir, Kec. Baros, Kota Sukabumi, Jawa Barat 43161";"Jl. Balandongan, Sudajaya Hilir, Kec. Baros, Kota Sukabumi";"JAWA BARAT";"43161";"Indonesia";" 022553688";"";"";"-6.9509585";"106.923364";"https://maps.google.com/?cid=0x0:0x6a7854e1193bb039";""
"mall";"Toko Perlengkapan Rumah";"Samuraipaint";"2WJX+M3J, Jl. Tangkil - Agrabinta, Baros, Kec. Baros, Kota Sukabumi, Jawa Barat 43161";"Jl. Tangkil - Agrabinta, Baros, Kec. Baros, Kota Sukabumi";"JAWA BARAT";"43161";"Indonesia";" 085846555554";"";"";"-6.9682796";"106.9476431";"https://maps.google.com/?cid=0x0:0x32b46ed0e6f04184";""
"mall";"Pasar";"BioFK Sukabumi";"2WWM+9HR, Sudajaya Hilir, Kec. Baros, Kota Sukabumi, Jawa Barat 43166";"Sudajaya Hilir, Kec. Baros, Kota Sukabumi";"JAWA BARAT";"43166";"Indonesia";" 087872184923";"";"";"-6.9540116";"106.9339016";"https://maps.google.com/?cid=0x0:0xf41c536ca270ccca";""
"mall";"Pusat Perbelanjaan";"Kalinka Store";"3W3C+8R6, Sudajaya Hilir, Kec. Baros, Kota Sukabumi, Jawa Barat 43167";"Sudajaya Hilir, Kec. Baros, Kota Sukabumi";"JAWA BARAT";"43167";"Indonesia";" 089691509700";"";"";"-6.9467077";"106.9220211";"https://maps.google.com/?cid=0x0:0x3caa9eade2ef07d2";""
"mall";"Toko Rokok Elektrik";"Awan Vapor";"Jl. Sudajaya Hilir, Sudajaya Hilir, Kec. Baros, Kota Sukabumi, Jawa Barat 43161";"Sudajaya Hilir, Kec. Baros, Kota Sukabumi";"JAWA BARAT";"43161";"Indonesia";" 085723292226";"";"";"-6.9493202";"106.9233078";"https://maps.google.com/?cid=0x0:0x129e7d9953acf7e7";""
"mall";"Toko";"UD.clom giriwil";"Jl. Baros No.10, Limusnunggal, Kec. Cibeureum, Kota Sukabumi, Jawa Barat 43181";"Limusnunggal, Kec. Cibeureum, Kota Sukabumi";"JAWA BARAT";"43181";"Indonesia";" 082316469309";"";"";"-6.9583235";"106.9336063";"https://maps.google.com/?cid=0x0:0xfae90de3b055bcf5";""
"mall";"mall";"Jawa Barat 43161";"Kec. Baros, Kabupaten Sukabumi, Jawa Barat";"Kabupaten Sukabumi, Jawa Barat";"JAWA BARAT";"";"Indonesia";"";"";"";"-6.9597603";"106.9373361";"https://maps.google.com/?cid=0x0:0x1c00c5eb568ed140";""
"mall";"Toko Pakaian Remaja";"Golden Bee Supplier Grosir Distro";"2WVF+7PJ, Jayamekar, Kec. Baros, Kota Sukabumi, Jawa Barat 43161";"Jayamekar, Kec. Baros, Kota Sukabumi";"JAWA BARAT";"43161";"Indonesia";" 085319831805";"";"/url?q>>u003dhttp://www.goldenbeecloth.blogspot.co.id/>>u0026opi>>u003d79508299>>u0026sa>>u003dU>>u0026ved>>u003d0ahUKEwjFooWSpfyLAxWYS2wGHcpiALUQ61gIFSgR>>u0026usg>>u003dAOvVaw0x0W5E9C_d0CykSwIBuhLG";"-6.956779";"106.9242785";"https://maps.google.com/?cid=0x0:0xfbfc4a63235fda93";""
"mall";"Kantor Perusahaan";"Pabrik kripik mujarab";"2WRF+W3G, Jl. Widyakrama, Jayamekar, Kec. Baros, Kota Sukabumi, Jawa Barat 43161";"Jl. Widyakrama, Jayamekar, Kec. Baros, Kota Sukabumi";"JAWA BARAT";"43161";"Indonesia";"";"";"";"-6.9576798";"106.9227034";"https://maps.google.com/?cid=0x0:0xd572d5841b0fdc41";""
"mall";"Bengkel Sepeda Motor";"bengkel zeta racing team";"2WRC+9RP, Pangkalan Jl. Widyakrama, Sudajaya Hilir, Kec. Baros, Kota Sukabumi, Jawa Barat 43161";"Pangkalan Jl. Widyakrama, Sudajaya Hilir, Kec. Baros, Kota Sukabumi";"JAWA BARAT";"43161";"Indonesia";"";"";"";"-6.9590382";"106.9220723";"https://maps.google.com/?cid=0x0:0xf8f3dc981ca171e5";""
"mall";"Pasar";"Erna frozen foods";"Perum Genting Puri Blok J2. No. 6 Nagela Baros, Baros, Kec. Baros, Kota Sukabumi, Jawa Barat 43144";"Baros, Kec. Baros, Kota Sukabumi";"JAWA BARAT";"43144";"Indonesia";" 085659246250";"";"/url?q>>u003dhttps://m.facebook.com/adierna061010%3Fref%3Dbookmarks>>u0026opi>>u003d79508299>>u0026sa>>u003dU>>u0026ved>>u003d0ahUKEwjZseeSpfyLAxVy-zgGHbMpMA4Q61gIFigS>>u0026usg>>u003dAOvVaw3L_ajMLSh_UK0TIkbnEIdE";"-6.9606475";"106.9489641";"https://maps.google.com/?cid=0x0:0xdf0816c16eac8a42";""
"mall";"Toko Parfum";"Toko Nela";"Jl biduri 3 no 56 rt01/rw15 Perum Baros kencana Kel, Baros, Kec. Baros, Kota Sukabumi, Jawa Barat 43161";"Baros, Kec. Baros, Kota Sukabumi";"JAWA BARAT";"43161";"Indonesia";" 085721052840";"";"";"-6.962097";"106.9453754";"https://maps.google.com/?cid=0x0:0x8e6c86493bb68b2a";""
"mall";"Toko bahan makanan";"KS 212 MART CIMAHI KOSSAMI";"Town Place, Jl. Sentra Raya No.A1, Baros, Kec. Cimahi Tengah, Kota Cimahi, Jawa Barat 40521";"Jl. Sentra Raya No.A1, Baros, Kec. Cimahi Tengah, Kota Cimahi";"JAWA BARAT";"40521";"Indonesia";" 089512122850";"";"";"-6.8923439";"107.5403822";"https://maps.google.com/?cid=0x0:0xd9efcf7d7c2fc378";""
"mall";"Vila";"Villa Baros";"Q4R3+M52, Unnamed Road,, Cisalam, Kec. Baros, Kabupaten Serang, Banten 42173";"Unnamed Road,, Cisalam, Kec. Baros, Kabupaten Serang";"JAWA BARAT";"42173";"Indonesia";"";"";"";"-6.2083518";"106.1028814";"https://maps.google.com/?cid=0x0:0x49e792ad866d0f83";""
"mall";"Pusat Perbelanjaan";"Outlet Momy Aqila";"Q4QQ+XX9, Jl. Raya Baros Petir, Kp.dukuh, pinang, Kec. Baros, Kabupaten Serang, Banten 42173";"Jl. Raya Baros Petir, Kp.dukuh, pinang, Kec. Baros, Kabupaten Serang";"JAWA BARAT";"42173";"Indonesia";" 087881796673";"";"";"-6.2100789";"106.1399893";"https://maps.google.com/?cid=0x0:0x6bf537ed30cfc149";""
"mall";"Toko Bahan Bangunan";"Tk Batu Kuda Baros";"Q4QJ+2QX, Baros, Kec. Baros, Kabupaten Serang, Banten 42173";"Baros, Kec. Baros, Kabupaten Serang";"JAWA BARAT";"42173";"Indonesia";"";"";"";"-6.212385";"106.1319799";"https://maps.google.com/?cid=0x0:0x6816b2c05cdf309f";""
"mall";"Toko umum";".";"Jl. Balandongan, RT.03/RW.02, Sudajaya Hilir, Kec. Baros, Kota Sukabumi, Jawa Barat 43161";"RT.03/RW.02, Sudajaya Hilir, Kec. Baros, Kota Sukabumi";"JAWA BARAT";"43161";"Indonesia";" 086564246754";"";"";"-6.9465427";"106.9231112";"https://maps.google.com/?cid=0x0:0x80e8d8832af65df6";""
"mall";"Toko";"garasi classic 88";"2WWJ+C4M, Jayaraksa, Kec. Baros, Kabupaten Sukabumi, Jawa Barat 43166";"Jayaraksa, Kec. Baros, Kabupaten Sukabumi";"JAWA BARAT";"43166";"Indonesia";" 085624811813";"";"";"-6.9539089";"106.9302989";"https://maps.google.com/?cid=0x0:0xfd3d24ecc98f16bb";""
"mall";"Pusat Perbelanjaan";"F2 cell";"Jl. Proklamasi, Jayamekar, Kec. Baros, Kota Sukabumi, Jawa Barat 43166";"Jayamekar, Kec. Baros, Kota Sukabumi";"JAWA BARAT";"43166";"Indonesia";" 0816605897";"";"";"-6.9658304";"106.9241306";"https://maps.google.com/?cid=0x0:0xe7bdf7e2a44efae5";""
"mall";"Pusat Perbelanjaan";"PT. WNK Wahyu";"2WXJ+759, Jayaraksa, Kec. Baros, Kota Sukabumi, Jawa Barat 43166";"Jayaraksa, Kec. Baros, Kota Sukabumi";"JAWA BARAT";"43166";"Indonesia";" 08129334774";"";"";"-6.9518348";"106.930481";"https://maps.google.com/?cid=0x0:0x2b11bd0960ea5946";""
"mall";"Minimarket";"YOMART BAROS";"2WPQ+7GV dekat pom bensin, Jl. Baros, Baros, Kec. Baros, Kota Sukabumi, Jawa Barat 43161";"Jl. Baros, Baros, Kec. Baros, Kota Sukabumi";"JAWA BARAT";"43161";"Indonesia";"";"";"";"-6.96429";"106.9388507";"https://maps.google.com/?cid=0x0:0xd203efe65a9af133";""
"mall";"Toko Perlengkapan Bayi";"Baby Pandawa";"2WPQ+FWV, Jl. Garuda, Baros, Kec. Baros, Kota Sukabumi, Jawa Barat 43161";"Jl. Garuda, Baros, Kec. Baros, Kota Sukabumi";"JAWA BARAT";"43161";"Indonesia";" 08987932363";"";"";"-6.9637524";"106.9398056";"https://maps.google.com/?cid=0x0:0x5c9000286aa41a1a";""
"mall";"Pasar";"BioFK Sukabumi";"2WWM+9HR, Sudajaya Hilir, Kec. Baros, Kota Sukabumi, Jawa Barat 43166";"Sudajaya Hilir, Kec. Baros, Kota Sukabumi";"JAWA BARAT";"43166";"Indonesia";" 087872184923";"";"";"-6.9540116";"106.9339016";"https://maps.google.com/?cid=0x0:0xf41c536ca270ccca";""
"mall";"Bengkel Jok Kursi Mobil";"Marchel Jok  Car Interior";"2WQM+CX5, Jayaraksa, Kec. Baros, Kota Sukabumi, Jawa Barat 43166";"Jayaraksa, Kec. Baros, Kota Sukabumi";"JAWA BARAT";"43166";"Indonesia";" 085624301633";"";"";"-6.9614794";"106.9349984";"https://maps.google.com/?cid=0x0:0xc031242378effbad";""
"mall";"Pusat Perbelanjaan";"Maestro Farm";"Jl. Garuda, Baros, Kec. Baros, Kota Sukabumi, Jawa Barat 43161";"Baros, Kec. Baros, Kota Sukabumi";"JAWA BARAT";"43161";"Indonesia";" 085659555749";"";"";"-6.9635402";"106.940111";"https://maps.google.com/?cid=0x0:0x26caba90ed797b80";""
"mall";"Pusat Perbelanjaan";"Warung teh ela";"2WPQ+R4F, Baros, Kec. Baros, Kota Sukabumi, Jawa Barat 43161";"Baros, Kec. Baros, Kota Sukabumi";"JAWA BARAT";"43161";"Indonesia";"";"";"";"-6.9629435";"106.9377989";"https://maps.google.com/?cid=0x0:0xdaa982c42f341900";""
"mall";"Toko";"Warung Elyda";"2WVJ+XVM, Jl. Tangkil - Agrabinta, Jayaraksa, Kec. Baros, Kabupaten Sukabumi, Jawa Barat 43166";"Jl. Tangkil - Agrabinta, Jayaraksa, Kec. Baros, Kabupaten Sukabumi";"JAWA BARAT";"43166";"Indonesia";" 08987945096";"";"";"-6.9550417";"106.9321716";"https://maps.google.com/?cid=0x0:0x396b1dbe23b4ecc0";""
"mall";"Pusat Perbelanjaan";"Happy Hills Sukabumi warung tasya";"2WPG+H9M happy hils, Jl. Perumahan, sukabumi.B, Kec. Baros, Kota Sukabumi, Jawa Barat 43166";"Jl. Perumahan, sukabumi.B, Kec. Baros, Kota Sukabumi";"JAWA BARAT";"43166";"Indonesia";" 082280680991";"";"";"-6.9635322";"106.9259171";"https://maps.google.com/?cid=0x0:0xbbd67705de04e2f1";""
"mall";"Gudang";"Indogrosir Sukabumi";"Jl. Lkr. Sel., RT.01/RW.03, Sudajaya Hilir, Kec. Baros, Kota Sukabumi, Jawa Barat 43161";"RT.01/RW.03, Sudajaya Hilir, Kec. Baros, Kota Sukabumi";"JAWA BARAT";"43161";"Indonesia";" 02662489291";"";"/url?q>>u003dhttps://wa.me/6287819545846>>u0026opi>>u003d79508299>>u0026sa>>u003dU>>u0026ved>>u003d0ahUKEwjsj5OmpfyLAxWqTWcHHUQuKzoQ61gIFigS>>u0026usg>>u003dAOvVaw1GfAno38AzQ3Sfjxp87hOz";"-6.9522044";"106.9266579";"https://maps.google.com/?cid=0x0:0x9962a6d50202333d";""
"mall";"Pusat Perbelanjaan";"Cimahi Mall";"Cimahi Mall, Jl. Gandawijaya, Setiamanah, Kec. Cimahi Tengah, Kota Cimahi, Jawa Barat 40524";"Jl. Gandawijaya, Setiamanah, Kec. Cimahi Tengah, Kota Cimahi";"JAWA BARAT";"40524";"Indonesia";" 081122335546";"";"";"-6.8782602";"107.5396055";"https://maps.google.com/?cid=0x0:0x277aab6fe377a757";""
"mall";"Toko";"Bumi Riyadhfara";"Sudajaya Hilir, Kec. Baros, Kota Sukabumi, Jawa Barat 43161";"Kec. Baros, Kota Sukabumi";"JAWA BARAT";"43161";"Indonesia";" 085793596877";"";"";"-6.9491253";"106.9244207";"https://maps.google.com/?cid=0x0:0x2d02216d496286b5";""
"mall";"Toko bahan makanan";"Warung Ibu Een";"2WQP+R4H, Unnamed Road, Baros, Kec. Baros, Kota Sukabumi, Jawa Barat 43166";"Unnamed Road, Baros, Kec. Baros, Kota Sukabumi";"JAWA BARAT";"43166";"Indonesia";" 081389902820";"";"";"-6.9604334";"106.9353578";"https://maps.google.com/?cid=0x0:0x7e488be45e66e7c7";""
"mall";"Toko";"DEPOT AIR 'WATER VIN'";"2WMH+MJ8, Jl. Proklamasi, Jayaraksa, Kec. Baros, Kota Sukabumi, Jawa Barat 43166";"Jl. Proklamasi, Jayaraksa, Kec. Baros, Kota Sukabumi";"JAWA BARAT";"43166";"Indonesia";" 0895607331155";"";"";"-6.9658368";"106.9290831";"https://maps.google.com/?cid=0x0:0xdeef3976c772a022";""
"mall";"Pusat Perbelanjaan";"Warung B Tia";"Perum Taman Genting Puri Baros, Blk. D1 No.4, Baros, Kec. Baros, Kabupaten Sukabumi, Jawa Barat 43192";"Blk. D1 No.4, Baros, Kec. Baros, Kabupaten Sukabumi";"JAWA BARAT";"43192";"Indonesia";" 085872041810";"";"";"-6.9621281";"106.9432389";"https://maps.google.com/?cid=0x0:0x670948dfbae0215b";""
"mall";"Toko";"UD.clom giriwil";"Jl. Baros No.10, Limusnunggal, Kec. Cibeureum, Kota Sukabumi, Jawa Barat 43181";"Limusnunggal, Kec. Cibeureum, Kota Sukabumi";"JAWA BARAT";"43181";"Indonesia";" 082316469309";"";"";"-6.9583235";"106.9336063";"https://maps.google.com/?cid=0x0:0xfae90de3b055bcf5";""
"mall";"mall";"Jawa Barat 43166";"Kec. Baros, Kabupaten Sukabumi, Jawa Barat";"Kabupaten Sukabumi, Jawa Barat";"JAWA BARAT";"";"Indonesia";"";"";"";"-6.9614306";"106.9270066";"https://maps.google.com/?cid=0x0:0x1c00c5eb568ed1f0";""
"mall";"Pusat Perbelanjaan";"Kalinka Store";"3W3C+8R6, Sudajaya Hilir, Kec. Baros, Kota Sukabumi, Jawa Barat 43167";"Sudajaya Hilir, Kec. Baros, Kota Sukabumi";"JAWA BARAT";"43167";"Indonesia";" 089691509700";"";"";"-6.9467077";"106.9220211";"https://maps.google.com/?cid=0x0:0x3caa9eade2ef07d2";""
"mall";"Vila";"Villa Baros";"Q4R3+M52, Unnamed Road,, Cisalam, Kec. Baros, Kabupaten Serang, Banten 42173";"Unnamed Road,, Cisalam, Kec. Baros, Kabupaten Serang";"JAWA BARAT";"42173";"Indonesia";"";"";"";"-6.2083518";"106.1028814";"https://maps.google.com/?cid=0x0:0x49e792ad866d0f83";""
"mall";"Toko bahan makanan";"KS 212 MART CIMAHI KOSSAMI";"Town Place, Jl. Sentra Raya No.A1, Baros, Kec. Cimahi Tengah, Kota Cimahi, Jawa Barat 40521";"Jl. Sentra Raya No.A1, Baros, Kec. Cimahi Tengah, Kota Cimahi";"JAWA BARAT";"40521";"Indonesia";" 089512122850";"";"";"-6.8923439";"107.5403822";"https://maps.google.com/?cid=0x0:0xd9efcf7d7c2fc378";""
"mall";"Pasar pakaian";"perusda jati mandiri kota cimahi";"4G4Q+WVJ, Jl. HMS Mintareja Sarjana Hukum, Baros, Kec. Cimahi Tengah, Kota Cimahi, Jawa Barat 40521";"Jl. HMS Mintareja Sarjana Hukum, Baros, Kec. Cimahi Tengah, Kota Cimahi";"JAWA BARAT";"40521";"Indonesia";" 02268001046";"";"";"-6.8926529";"107.5396386";"https://maps.google.com/?cid=0x0:0xbfe943212b987627";""
"mall";"Toko Bahan Bangunan";"Tk Batu Kuda Baros";"Q4QJ+2QX, Baros, Kec. Baros, Kabupaten Serang, Banten 42173";"Baros, Kec. Baros, Kabupaten Serang";"JAWA BARAT";"42173";"Indonesia";"";"";"";"-6.212385";"106.1319799";"https://maps.google.com/?cid=0x0:0x6816b2c05cdf309f";""
"mall";"Pusat Perbelanjaan";"Muddybuddy";"4G2Q+Q5H, Jl. Baros Seneng, Utama, Kec. Cimahi Sel., Kota Cimahi, Jawa Barat 40521";"Jl. Baros Seneng, Utama, Kec. Cimahi Sel., Kota Cimahi";"JAWA BARAT";"40521";"Indonesia";" 081223413132";"";"/url?q>>u003dhttps://www.instagram.com/muddybuddy.cmh/>>u0026opi>>u003d79508299>>u0026sa>>u003dU>>u0026ved>>u003d0ahUKEwjj78qppfyLAxWIVWwGHeVkKbYQ61gIFSgR>>u0026usg>>u003dAOvVaw09OtReCQ834Mwrjqgf0n5G";"-6.89806";"107.5379995";"https://maps.google.com/?cid=0x0:0x1c40846796f4dd40";""
"mall";"Pusat Perbelanjaan";"Outlet Momy Aqila";"Q4QQ+XX9, Jl. Raya Baros Petir, Kp.dukuh, pinang, Kec. Baros, Kabupaten Serang, Banten 42173";"Jl. Raya Baros Petir, Kp.dukuh, pinang, Kec. Baros, Kabupaten Serang";"JAWA BARAT";"42173";"Indonesia";" 087881796673";"";"";"-6.2100789";"106.1399893";"https://maps.google.com/?cid=0x0:0x6bf537ed30cfc149";""
"mall";"Toko Olahraga Panahan";"Garuda Sport Hunt  Match";"Q5Q3+842, Jl. Raya Baros Petir, Sidamukti, Kec. Baros, Kabupaten Serang, Banten 42173";"Jl. Raya Baros Petir, Sidamukti, Kec. Baros, Kabupaten Serang";"JAWA BARAT";"42173";"Indonesia";" 085946379415";"";"";"-6.2117281";"106.1527807";"https://maps.google.com/?cid=0x0:0x3fdfb27bcd7100b4";""
"mall";"";"Paskum 57";"Jl. Pasir Kumeli No.57, Baros, Kec. Cimahi Tengah, Kota Cimahi, Jawa Barat 40521";"Baros, Kec. Cimahi Tengah, Kota Cimahi";"JAWA BARAT";"40521";"Indonesia";" 0226653391";"";"";"-6.8862366";"107.5422282";"https://maps.google.com/?cid=0x0:0x4f41abd5bb0e5b2a";""
"mall";"Toko";"LOURDES Cabang Bandung";"3XJ4+7QW, Babakan, Kec. Cibeureum, Kota Sukabumi, Jawa Barat 43142";"Babakan, Kec. Cibeureum, Kota Sukabumi";"JAWA BARAT";"43142";"Indonesia";" 085863144489";"";"";"-6.9192678";"106.9569592";"https://maps.google.com/?cid=0x0:0x3c3f071dd3340967";""
"mall";"Pusat Perbelanjaan";"TOKO GEMILANG";"Jalan Rancakadu Sindang Resmi, RT.02/RW.08, Babakan, Kec. Cibeureum, Kota Sukabumi, Jawa Barat 43165";"RT.02/RW.08, Babakan, Kec. Cibeureum, Kota Sukabumi";"JAWA BARAT";"43165";"Indonesia";" 085721521557";"";"";"-6.9491266";"106.9524845";"https://maps.google.com/?cid=0x0:0x1000d56a2faeea91";""
"mall";"Pusat Perbelanjaan";"warung nurhenda";"3XC3+76P, kp Selagombong, RT.03/RW.02, Babakan, Cibeureum, Sukabumi City, West Java";"Kota Sukabumi, Jawa Barat";"JAWA BARAT";"";"Indonesia";"";"";"";"-6.9292915";"106.9530657";"https://maps.google.com/?cid=0x0:0x528297792793a6c3";""
"mall";"Toko";"Jasmine grosir";"Cibeureum Hilir, Kec. Cibeureum, Kota Sukabumi, Jawa Barat 43165";"Kec. Cibeureum, Kota Sukabumi";"JAWA BARAT";"43165";"Indonesia";" 081383392048";"";"";"-6.924317";"106.9533204";"https://maps.google.com/?cid=0x0:0x11292e38ccd692";""
"mall";"Pusat Perbelanjaan";"HK Store";"3WCW+HCM, Jl. Ciandam, Cibeureum Hilir, Kec. Cibeureum, Kota Sukabumi, Jawa Barat 43122";"Jl. Ciandam, Cibeureum Hilir, Kec. Cibeureum, Kota Sukabumi";"JAWA BARAT";"43122";"Indonesia";" 085721166616";"";"";"-6.9285409";"106.9460566";"https://maps.google.com/?cid=0x0:0x1546f7c9dab8c2fa";""
"mall";"Restoran";"Waroeng Cibay";"3WFW+579, Cibeureum Hilir, Kec. Cibeureum, Kota Sukabumi, Jawa Barat 43165";"Cibeureum Hilir, Kec. Cibeureum, Kota Sukabumi";"JAWA BARAT";"43165";"Indonesia";" 081573555346";"";"";"-6.9270799";"106.9457292";"https://maps.google.com/?cid=0x0:0x71cc1e1e6628943f";""
"mall";"Pusat Perbelanjaan";"Yoesban sukabumi";"Babakan, Kec. Cibeureum, Kota Sukabumi, Jawa Barat 43142";"Kec. Cibeureum, Kota Sukabumi";"JAWA BARAT";"43142";"Indonesia";" 089637003949";"";"";"-6.936973";"106.9527215";"https://maps.google.com/?cid=0x0:0x3e8f682f2e4862f";""
"mall";"Produsen";"Gudang Batok";"3X75+RRH, Jl. Cikaret, Cikaret, Kec. Kebonpedes, Kabupaten Sukabumi, Jawa Barat 43142";"Jl. Cikaret, Cikaret, Kec. Kebonpedes, Kabupaten Sukabumi";"JAWA BARAT";"43142";"Indonesia";" 085722967317";"";"";"-6.9354389";"106.9596031";"https://maps.google.com/?cid=0x0:0x440d95c5609e3feb";""
"mall";"Pusat Bisnis";"Eco Racing Suksbumi Zaenal";"Babakan, Kec. Cibeureum, Kota Sukabumi, Jawa Barat 43142";"Kec. Cibeureum, Kota Sukabumi";"JAWA BARAT";"43142";"Indonesia";" 085722597589";"";"";"-6.9347108";"106.9570261";"https://maps.google.com/?cid=0x0:0x64717334b6fdb2de";""
"mall";"Toko bahan makanan";"Bandros UJ";"3X82+7FJ, Cibeureum Hilir, Kec. Cibeureum, Kota Sukabumi, Jawa Barat 43165";"Cibeureum Hilir, Kec. Cibeureum, Kota Sukabumi";"JAWA BARAT";"43165";"Indonesia";" 085872767457";"";"";"-6.9342828";"106.9511438";"https://maps.google.com/?cid=0x0:0xad3207edb918c036";""
"mall";"Layanan Kesehatan di Rumah";"MILAGROS";"Parahita Nugraha, Jalan, Limusnunggal, Cibeureum, Sukabumi City, West Java 43165";"Jalan, Limusnunggal, Cibeureum, Sukabumi City";"JAWA BARAT";"43165";"Indonesia";" 083170676001";"";"";"-6.9481398";"106.9438852";"https://maps.google.com/?cid=0x0:0xcc93296ca7118032";""
"mall";"Galeri Seni";"Handmade Sukabumi";"Jl. Denpasar, Babakan, Kec. Cibeureum, Kota Sukabumi, Jawa Barat 43165";"Babakan, Kec. Cibeureum, Kota Sukabumi";"JAWA BARAT";"43165";"Indonesia";" 089656464474";"";"";"-6.922821";"106.9555762";"https://maps.google.com/?cid=0x0:0x3106a08e2e3baa9a";""
"mall";"Pusat Perbelanjaan";"Raja cell";"Jl. Pembangunan rt02, RW.06, Babakan, Kec. Cibeureum, Kota Sukabumi, Jawa Barat 43163";"RW.06, Babakan, Kec. Cibeureum, Kota Sukabumi";"JAWA BARAT";"43163";"Indonesia";" 085723847332";"";"";"-6.9344638";"106.9575044";"https://maps.google.com/?cid=0x0:0xf725163a9915c924";""
"mall";"Ruang Kerja Bersama";"Bumi Arsa Creative Space";"Jl. RH. Didi Sukardi No.37, Gedongpanjang, Kec. Citamiang, Kota Sukabumi, Jawa Barat 43143";"Gedongpanjang, Kec. Citamiang, Kota Sukabumi";"JAWA BARAT";"43143";"Indonesia";" 081386095151";"";"";"-6.93405";"106.93194";"https://maps.google.com/?cid=0x0:0x177857d23615d9b2";""
"mall";"Toko Makanan";"KRIPIK SINGKONG ONE";"3XF2+MW2, Jl. G. Jaya Wijaya, Cibeureum Hilir, Kec. Cibeureum, Kota Sukabumi, Jawa Barat 43165";"Jl. G. Jaya Wijaya, Cibeureum Hilir, Kec. Cibeureum, Kota Sukabumi";"JAWA BARAT";"43165";"Indonesia";" 081318587246";"";"";"-6.9258733";"106.9522517";"https://maps.google.com/?cid=0x0:0x445ea8373ec9ab08";""
"mall";"Toko";"Warung Pak Asep";"2WVV+8G2, Jl. Bougenville, Sindangpalay, Kec. Cibeureum, Kota Sukabumi, Jawa Barat 43162";"Jl. Bougenville, Sindangpalay, Kec. Cibeureum, Kota Sukabumi";"JAWA BARAT";"43162";"Indonesia";" 085861513009";"";"";"-6.9567473";"106.9437581";"https://maps.google.com/?cid=0x0:0x3de6a8dd2e7ee279";""
"mall";"Pusat Perbelanjaan";"Warung Ibu Ine";"3WCW+HCP, Jl. Ciandam, Cibeureum Hilir, Kec. Cibeureum, Kota Sukabumi, Jawa Barat 43165";"Jl. Ciandam, Cibeureum Hilir, Kec. Cibeureum, Kota Sukabumi";"JAWA BARAT";"43165";"Indonesia";" 085864697006";"";"";"-6.9285403";"106.9460645";"https://maps.google.com/?cid=0x0:0x2897ee55febb8f8";""
"mall";"Toko Bahan Bangunan";"Berdikari Expo 2";"Jalan R. A. Kosasih No.65, Sukaraja, Babakan, Kec. Cibeureum, Kabupaten Sukabumi, Jawa Barat 43192";"Sukaraja, Babakan, Kec. Cibeureum, Kabupaten Sukabumi";"JAWA BARAT";"43192";"Indonesia";" 0266236000";"";"";"-6.9190122";"106.9584239";"https://maps.google.com/?cid=0x0:0xd1ba3daf6508db64";""
"mall";"Pusat Perbelanjaan";"Berdikari Expo";"Jl. R.A. Kosasih No.37, Cibeureum Hilir, Kec. Cibeureum, Kota Sukabumi, Jawa Barat 43165";"Cibeureum Hilir, Kec. Cibeureum, Kota Sukabumi";"JAWA BARAT";"43165";"Indonesia";" 0266236000";"";"";"-6.919455";"106.955567";"https://maps.google.com/?cid=0x0:0x9fbe7bfb40ba692d";""
"mall";"mall";"Jawa Barat 43142";"Kec. Cibeureum, Kabupaten Sukabumi, Jawa Barat";"Kabupaten Sukabumi, Jawa Barat";"JAWA BARAT";"";"Indonesia";"";"";"";"-6.9396812";"106.9565206";"https://maps.google.com/?cid=0x0:0x1c00c5eb568ed0a0";""
"mall";"";"Rizkika Snack";"Jl. Cikaret, Babakan, Kec. Cibeureum, Kota Sukabumi, Jawa Barat 43142";"Babakan, Kec. Cibeureum, Kota Sukabumi";"JAWA BARAT";"43142";"Indonesia";" 085759851151";"";"";"-6.941482";"106.9597797";"https://maps.google.com/?cid=0x0:0x99661400dc2d59d";""
"mall";"Toko Bahan Bangunan";"Mitra cahaya gypsum 1";"3XC5+G6W, Jl. Pembangunan Jl. Selakaso Kulon, Babakan, Kec. Cibeureum, Kota Sukabumi, Jawa Barat 43142";"Jl. Pembangunan Jl. Selakaso Kulon, Babakan, Kec. Cibeureum, Kota Sukabumi";"JAWA BARAT";"43142";"Indonesia";" 085871997692";"";"";"-6.9212512";"106.9404906";"https://maps.google.com/?cid=0x0:0x9bb87fcd4d3d6eea";""
"mall";"Pusat Perbelanjaan";"MILAGROS CIBEUREUM";"RM3C+752, Cibeureum, Kec. Kertasari, Kabupaten Bandung, Jawa Barat 40386";"Cibeureum, Kec. Kertasari, Kabupaten Bandung";"JAWA BARAT";"40386";"Indonesia";" 085320379094";"";"";"-7.1968707";"107.6703779";"https://maps.google.com/?cid=0x0:0x3b35459cf79a161b";""
"mall";"";"Warung Neneng";"3W2V+HCP, Unnamed Road, Limusnunggal, Kec. Cibeureum, Kota Sukabumi, Jawa Barat 43165";"Unnamed Road, Limusnunggal, Kec. Cibeureum, Kota Sukabumi";"JAWA BARAT";"43165";"Indonesia";" 081311566078";"";"";"-6.9485465";"106.9435797";"https://maps.google.com/?cid=0x0:0x397f31f7fc920226";""
"mall";"Pusat Perbelanjaan";"TOKO GEMILANG";"Jalan Rancakadu Sindang Resmi, RT.02/RW.08, Babakan, Kec. Cibeureum, Kota Sukabumi, Jawa Barat 43165";"RT.02/RW.08, Babakan, Kec. Cibeureum, Kota Sukabumi";"JAWA BARAT";"43165";"Indonesia";" 085721521557";"";"";"-6.9491266";"106.9524845";"https://maps.google.com/?cid=0x0:0x1000d56a2faeea91";""
"mall";"Toko";"Warung Pak Asep";"2WVV+8G2, Jl. Bougenville, Sindangpalay, Kec. Cibeureum, Kota Sukabumi, Jawa Barat 43162";"Jl. Bougenville, Sindangpalay, Kec. Cibeureum, Kota Sukabumi";"JAWA BARAT";"43162";"Indonesia";" 085861513009";"";"";"-6.9567473";"106.9437581";"https://maps.google.com/?cid=0x0:0x3de6a8dd2e7ee279";""
"mall";"Layanan Kesehatan di Rumah";"MILAGROS";"Parahita Nugraha, Jalan, Limusnunggal, Cibeureum, Sukabumi City, West Java 43165";"Jalan, Limusnunggal, Cibeureum, Sukabumi City";"JAWA BARAT";"43165";"Indonesia";" 083170676001";"";"";"-6.9481398";"106.9438852";"https://maps.google.com/?cid=0x0:0xcc93296ca7118032";""
"mall";"Toko";"UD.clom giriwil";"Jl. Baros No.10, Limusnunggal, Kec. Cibeureum, Kota Sukabumi, Jawa Barat 43181";"Limusnunggal, Kec. Cibeureum, Kota Sukabumi";"JAWA BARAT";"43181";"Indonesia";" 082316469309";"";"";"-6.9583235";"106.9336063";"https://maps.google.com/?cid=0x0:0xfae90de3b055bcf5";""
"mall";"Pusat Perbelanjaan";"GL18 CELL";"04, kp cihuis, RT.01rw, Sasagaran, Kebonpedes, Sukabumi Regency, West Java 43162";"kp cihuis, RT.01rw, Sasagaran, Kebonpedes, Sukabumi Regency";"JAWA BARAT";"43162";"Indonesia";" 085703406008";"";"";"-6.9586589";"106.9590582";"https://maps.google.com/?cid=0x0:0x504cbdf230526d97";""
"mall";"Restoran";"Waroeng Cibay";"3WFW+579, Cibeureum Hilir, Kec. Cibeureum, Kota Sukabumi, Jawa Barat 43165";"Cibeureum Hilir, Kec. Cibeureum, Kota Sukabumi";"JAWA BARAT";"43165";"Indonesia";" 081573555346";"";"";"-6.9270799";"106.9457292";"https://maps.google.com/?cid=0x0:0x71cc1e1e6628943f";""
"mall";"Pusat Perbelanjaan";"warung nurhenda";"3XC3+76P, kp Selagombong, RT.03/RW.02, Babakan, Cibeureum, Sukabumi City, West Java";"Kota Sukabumi, Jawa Barat";"JAWA BARAT";"";"Indonesia";"";"";"";"-6.9292915";"106.9530657";"https://maps.google.com/?cid=0x0:0x528297792793a6c3";""
"mall";"Toko";"Taufik Cell";"2WRM+8J7, Limusnunggal, Kec. Cibeureum, Kota Sukabumi, Jawa Barat 43166";"Limusnunggal, Kec. Cibeureum, Kota Sukabumi";"JAWA BARAT";"43166";"Indonesia";" 085871344409";"";"";"-6.9592005";"106.9340363";"https://maps.google.com/?cid=0x0:0x923f7ae60313f4d1";""
"mall";"Distributor Baja";"Centrak baja";"3W2Q+RF3, Jl. Lkr. Sel., Limusnunggal, Kec. Cibeureum, Kota Sukabumi, Jawa Barat 43165";"Jl. Lkr. Sel., Limusnunggal, Kec. Cibeureum, Kota Sukabumi";"JAWA BARAT";"43165";"Indonesia";" 085624242435";"";"";"-6.9479911";"106.9386703";"https://maps.google.com/?cid=0x0:0x1b6bd0ce1e37d4be";""
"mall";"Toko";"Jasmine grosir";"Cibeureum Hilir, Kec. Cibeureum, Kota Sukabumi, Jawa Barat 43165";"Kec. Cibeureum, Kota Sukabumi";"JAWA BARAT";"43165";"Indonesia";" 081383392048";"";"";"-6.924317";"106.9533204";"https://maps.google.com/?cid=0x0:0x11292e38ccd692";""
"mall";"Pusat Perbelanjaan";"Warung Ibu Ine";"3WCW+HCP, Jl. Ciandam, Cibeureum Hilir, Kec. Cibeureum, Kota Sukabumi, Jawa Barat 43165";"Jl. Ciandam, Cibeureum Hilir, Kec. Cibeureum, Kota Sukabumi";"JAWA BARAT";"43165";"Indonesia";" 085864697006";"";"";"-6.9285403";"106.9460645";"https://maps.google.com/?cid=0x0:0x2897ee55febb8f8";""
"mall";"Toko Makanan";"KRIPIK SINGKONG ONE";"3XF2+MW2, Jl. G. Jaya Wijaya, Cibeureum Hilir, Kec. Cibeureum, Kota Sukabumi, Jawa Barat 43165";"Jl. G. Jaya Wijaya, Cibeureum Hilir, Kec. Cibeureum, Kota Sukabumi";"JAWA BARAT";"43165";"Indonesia";" 081318587246";"";"";"-6.9258733";"106.9522517";"https://maps.google.com/?cid=0x0:0x445ea8373ec9ab08";""
"mall";"Toko Pakan Hewan";"Kios Pakan Ternak Burung Dll.";"Cibungur Jl. Limusnunggal No.275, RT.01, Limusnunggal, Kec. Cibeureum, Kota Sukabumi, Jawa Barat 43165";"RT.01, Limusnunggal, Kec. Cibeureum, Kota Sukabumi";"JAWA BARAT";"43165";"Indonesia";" 081320975196";"";"";"-6.9498976";"106.9446531";"https://maps.google.com/?cid=0x0:0x7fef8689b41fb5c0";""
"mall";"Pusat Perbelanjaan";"Raja cell";"Jl. Pembangunan rt02, RW.06, Babakan, Kec. Cibeureum, Kota Sukabumi, Jawa Barat 43163";"RW.06, Babakan, Kec. Cibeureum, Kota Sukabumi";"JAWA BARAT";"43163";"Indonesia";" 085723847332";"";"";"-6.9344638";"106.9575044";"https://maps.google.com/?cid=0x0:0xf725163a9915c924";""
"mall";"Pusat Perbelanjaan";"MILAGROS CIBEUREUM";"RM3C+752, Cibeureum, Kec. Kertasari, Kabupaten Bandung, Jawa Barat 40386";"Cibeureum, Kec. Kertasari, Kabupaten Bandung";"JAWA BARAT";"40386";"Indonesia";" 085320379094";"";"";"-7.1968707";"107.6703779";"https://maps.google.com/?cid=0x0:0x3b35459cf79a161b";""
"mall";"Pusat Perbelanjaan";"TOKO PAK EMAN";"2WRM+8JF, Limusnunggal, Kec. Cibeureum, Kota Sukabumi, Jawa Barat 43166";"Limusnunggal, Kec. Cibeureum, Kota Sukabumi";"JAWA BARAT";"43166";"Indonesia";" 085871344409";"";"";"-6.9591959";"106.9340408";"https://maps.google.com/?cid=0x0:0xd6d88ee7fc467bb6";""
"mall";"Pasar";"JM Fish Sentra Ikan Segar";"2WRM+8FQ, Jl. Tangkil - Agrabinta, Limusnunggal, Kec. Cibeureum, Kota Sukabumi, Jawa Barat 43166";"Jl. Tangkil - Agrabinta, Limusnunggal, Kec. Cibeureum, Kota Sukabumi";"JAWA BARAT";"43166";"Indonesia";" 085846843878";"";"";"-6.9591615";"106.9337233";"https://maps.google.com/?cid=0x0:0xac35ae00a7e85a37";""
"mall";"Toko bahan makanan";"Bandros UJ";"3X82+7FJ, Cibeureum Hilir, Kec. Cibeureum, Kota Sukabumi, Jawa Barat 43165";"Cibeureum Hilir, Kec. Cibeureum, Kota Sukabumi";"JAWA BARAT";"43165";"Indonesia";" 085872767457";"";"";"-6.9342828";"106.9511438";"https://maps.google.com/?cid=0x0:0xad3207edb918c036";""
"mall";"mall";"Jawa Barat 43162";"Sindangpalay, Kec. Cibeureum, Kabupaten Sukabumi, Jawa Barat";"Kabupaten Sukabumi, Jawa Barat";"JAWA BARAT";"";"Indonesia";"";"";"";"-6.9540519";"106.9520933";"https://maps.google.com/?cid=0x0:0x1c00c5eb568ed160";""
"mall";"Pasar";"BioFK Sukabumi";"2WWM+9HR, Sudajaya Hilir, Kec. Baros, Kota Sukabumi, Jawa Barat 43166";"Sudajaya Hilir, Kec. Baros, Kota Sukabumi";"JAWA BARAT";"43166";"Indonesia";" 087872184923";"";"";"-6.9540116";"106.9339016";"https://maps.google.com/?cid=0x0:0xf41c536ca270ccca";""
"mall";"Produsen";"Gudang Batok";"3X75+RRH, Jl. Cikaret, Cikaret, Kec. Kebonpedes, Kabupaten Sukabumi, Jawa Barat 43142";"Jl. Cikaret, Cikaret, Kec. Kebonpedes, Kabupaten Sukabumi";"JAWA BARAT";"43142";"Indonesia";" 085722967317";"";"";"-6.9354389";"106.9596031";"https://maps.google.com/?cid=0x0:0x440d95c5609e3feb";""
"mall";"Toko umum";".";"Jl. Balandongan, RT.03/RW.02, Sudajaya Hilir, Kec. Baros, Kota Sukabumi, Jawa Barat 43161";"RT.03/RW.02, Sudajaya Hilir, Kec. Baros, Kota Sukabumi";"JAWA BARAT";"43161";"Indonesia";" 086564246754";"";"";"-6.9465427";"106.9231112";"https://maps.google.com/?cid=0x0:0x80e8d8832af65df6";""
"mall";"Pusat Perbelanjaan";"Maestro Farm";"Jl. Garuda, Baros, Kec. Baros, Kota Sukabumi, Jawa Barat 43161";"Baros, Kec. Baros, Kota Sukabumi";"JAWA BARAT";"43161";"Indonesia";" 085659555749";"";"";"-6.9635402";"106.940111";"https://maps.google.com/?cid=0x0:0x26caba90ed797b80";""
"mall";"Pusat Perbelanjaan";"Yoesban sukabumi";"Babakan, Kec. Cibeureum, Kota Sukabumi, Jawa Barat 43142";"Kec. Cibeureum, Kota Sukabumi";"JAWA BARAT";"43142";"Indonesia";" 089637003949";"";"";"-6.936973";"106.9527215";"https://maps.google.com/?cid=0x0:0x3e8f682f2e4862f";""
"mall";"";"doa ibu gedong panjang";"3W4M+V9R, Jl. RH. Didi Sukardi, Citamiang, Kec. Citamiang, Kota Sukabumi, Jawa Barat 43143";"Jl. RH. Didi Sukardi, Citamiang, Kec. Citamiang, Kota Sukabumi";"JAWA BARAT";"43143";"Indonesia";"";"";"";"-6.9427638";"106.9333971";"https://maps.google.com/?cid=0x0:0x2ee1a88877be8d94";""
"mall";"";"Warung Neneng";"3W2V+HCP, Unnamed Road, Limusnunggal, Kec. Cibeureum, Kota Sukabumi, Jawa Barat 43165";"Unnamed Road, Limusnunggal, Kec. Cibeureum, Kota Sukabumi";"JAWA BARAT";"43165";"Indonesia";" 081311566078";"";"";"-6.9485465";"106.9435797";"https://maps.google.com/?cid=0x0:0x397f31f7fc920226";""
"mall";"Restoran";"Waroeng Cibay";"3WFW+579, Cibeureum Hilir, Kec. Cibeureum, Kota Sukabumi, Jawa Barat 43165";"Cibeureum Hilir, Kec. Cibeureum, Kota Sukabumi";"JAWA BARAT";"43165";"Indonesia";" 081573555346";"";"";"-6.9270799";"106.9457292";"https://maps.google.com/?cid=0x0:0x71cc1e1e6628943f";""
"mall";"Pusat Perbelanjaan";"TOKO GEMILANG";"Jalan Rancakadu Sindang Resmi, RT.02/RW.08, Babakan, Kec. Cibeureum, Kota Sukabumi, Jawa Barat 43165";"RT.02/RW.08, Babakan, Kec. Cibeureum, Kota Sukabumi";"JAWA BARAT";"43165";"Indonesia";" 085721521557";"";"";"-6.9491266";"106.9524845";"https://maps.google.com/?cid=0x0:0x1000d56a2faeea91";""
"mall";"Toko";"Jasmine grosir";"Cibeureum Hilir, Kec. Cibeureum, Kota Sukabumi, Jawa Barat 43165";"Kec. Cibeureum, Kota Sukabumi";"JAWA BARAT";"43165";"Indonesia";" 081383392048";"";"";"-6.924317";"106.9533204";"https://maps.google.com/?cid=0x0:0x11292e38ccd692";""
"mall";"Pusat Perbelanjaan";"Warung Ibu Ine";"3WCW+HCP, Jl. Ciandam, Cibeureum Hilir, Kec. Cibeureum, Kota Sukabumi, Jawa Barat 43165";"Jl. Ciandam, Cibeureum Hilir, Kec. Cibeureum, Kota Sukabumi";"JAWA BARAT";"43165";"Indonesia";" 085864697006";"";"";"-6.9285403";"106.9460645";"https://maps.google.com/?cid=0x0:0x2897ee55febb8f8";""
"mall";"Pusat Perbelanjaan";"warung nurhenda";"3XC3+76P, kp Selagombong, RT.03/RW.02, Babakan, Cibeureum, Sukabumi City, West Java";"Kota Sukabumi, Jawa Barat";"JAWA BARAT";"";"Indonesia";"";"";"";"-6.9292915";"106.9530657";"https://maps.google.com/?cid=0x0:0x528297792793a6c3";""
"mall";"Maskapai Penerbangan";"Citimall Sukabumi";"Jl. A. Yani No.121-127, Gunungparang, Kec. Cikole, Kota Sukabumi, Jawa Barat 43111";"Gunungparang, Kec. Cikole, Kota Sukabumi";"JAWA BARAT";"43111";"Indonesia";" 0266232820";"";"";"-6.9216947";"106.9286093";"https://maps.google.com/?cid=0x0:0x25d779dd316516f7";""
"mall";"Toko Makanan";"KRIPIK SINGKONG ONE";"3XF2+MW2, Jl. G. Jaya Wijaya, Cibeureum Hilir, Kec. Cibeureum, Kota Sukabumi, Jawa Barat 43165";"Jl. G. Jaya Wijaya, Cibeureum Hilir, Kec. Cibeureum, Kota Sukabumi";"JAWA BARAT";"43165";"Indonesia";" 081318587246";"";"";"-6.9258733";"106.9522517";"https://maps.google.com/?cid=0x0:0x445ea8373ec9ab08";""
"mall";"Layanan Kesehatan di Rumah";"MILAGROS";"Parahita Nugraha, Jalan, Limusnunggal, Cibeureum, Sukabumi City, West Java 43165";"Jalan, Limusnunggal, Cibeureum, Sukabumi City";"JAWA BARAT";"43165";"Indonesia";" 083170676001";"";"";"-6.9481398";"106.9438852";"https://maps.google.com/?cid=0x0:0xcc93296ca7118032";""
"mall";"Distributor Baja";"Centrak baja";"3W2Q+RF3, Jl. Lkr. Sel., Limusnunggal, Kec. Cibeureum, Kota Sukabumi, Jawa Barat 43165";"Jl. Lkr. Sel., Limusnunggal, Kec. Cibeureum, Kota Sukabumi";"JAWA BARAT";"43165";"Indonesia";" 085624242435";"";"";"-6.9479911";"106.9386703";"https://maps.google.com/?cid=0x0:0x1b6bd0ce1e37d4be";""
"mall";"Galeri Seni";"Handmade Sukabumi";"Jl. Denpasar, Babakan, Kec. Cibeureum, Kota Sukabumi, Jawa Barat 43165";"Babakan, Kec. Cibeureum, Kota Sukabumi";"JAWA BARAT";"43165";"Indonesia";" 089656464474";"";"";"-6.922821";"106.9555762";"https://maps.google.com/?cid=0x0:0x3106a08e2e3baa9a";""
"mall";"Pusat Perbelanjaan";"Warung Mang Alex";"Jl. Ciandam kp. Sudajaya, Cibeureum Hilir, Kec. Cibeureum, Kota Sukabumi, Jawa Barat 43165";"Cibeureum Hilir, Kec. Cibeureum, Kota Sukabumi";"JAWA BARAT";"43165";"Indonesia";"";"";"";"-6.930727";"106.944725";"https://maps.google.com/?cid=0x0:0x7c59067099e8691e";""
"mall";"Pusat Perbelanjaan";"Berdikari Expo";"Jl. R.A. Kosasih No.37, Cibeureum Hilir, Kec. Cibeureum, Kota Sukabumi, Jawa Barat 43165";"Cibeureum Hilir, Kec. Cibeureum, Kota Sukabumi";"JAWA BARAT";"43165";"Indonesia";" 0266236000";"";"";"-6.919455";"106.955567";"https://maps.google.com/?cid=0x0:0x9fbe7bfb40ba692d";""
"mall";"Toko";"Warung Pak Asep";"2WVV+8G2, Jl. Bougenville, Sindangpalay, Kec. Cibeureum, Kota Sukabumi, Jawa Barat 43162";"Jl. Bougenville, Sindangpalay, Kec. Cibeureum, Kota Sukabumi";"JAWA BARAT";"43162";"Indonesia";" 085861513009";"";"";"-6.9567473";"106.9437581";"https://maps.google.com/?cid=0x0:0x3de6a8dd2e7ee279";""
"mall";"Toko Kue";"Central mochi";"Jl. Lkr. Sel. No.212-213, Limusnunggal, Kec. Cibeureum, Kota Sukabumi, Jawa Barat 43165";"Limusnunggal, Kec. Cibeureum, Kota Sukabumi";"JAWA BARAT";"43165";"Indonesia";" 085863348619";"";"";"-6.9494359";"106.9353424";"https://maps.google.com/?cid=0x0:0x80267b4e0ce4e38f";""
"mall";"Toko";"Taufik Cell";"2WRM+8J7, Limusnunggal, Kec. Cibeureum, Kota Sukabumi, Jawa Barat 43166";"Limusnunggal, Kec. Cibeureum, Kota Sukabumi";"JAWA BARAT";"43166";"Indonesia";" 085871344409";"";"";"-6.9592005";"106.9340363";"https://maps.google.com/?cid=0x0:0x923f7ae60313f4d1";""
"mall";"Toko bahan makanan";"Bandros UJ";"3X82+7FJ, Cibeureum Hilir, Kec. Cibeureum, Kota Sukabumi, Jawa Barat 43165";"Cibeureum Hilir, Kec. Cibeureum, Kota Sukabumi";"JAWA BARAT";"43165";"Indonesia";" 085872767457";"";"";"-6.9342828";"106.9511438";"https://maps.google.com/?cid=0x0:0xad3207edb918c036";""
"mall";"Ruang Kerja Bersama";"Bumi Arsa Creative Space";"Jl. RH. Didi Sukardi No.37, Gedongpanjang, Kec. Citamiang, Kota Sukabumi, Jawa Barat 43143";"Gedongpanjang, Kec. Citamiang, Kota Sukabumi";"JAWA BARAT";"43143";"Indonesia";" 081386095151";"";"";"-6.93405";"106.93194";"https://maps.google.com/?cid=0x0:0x177857d23615d9b2";""
"mall";"Toko Bahan Bangunan";"Mitra cahaya gypsum 1";"3XC5+G6W, Jl. Pembangunan Jl. Selakaso Kulon, Babakan, Kec. Cibeureum, Kota Sukabumi, Jawa Barat 43142";"Jl. Pembangunan Jl. Selakaso Kulon, Babakan, Kec. Cibeureum, Kota Sukabumi";"JAWA BARAT";"43142";"Indonesia";" 085871997692";"";"";"-6.9212512";"106.9404906";"https://maps.google.com/?cid=0x0:0x9bb87fcd4d3d6eea";""
"mall";"mall";"Jawa Barat 43165";"Kec. Cibeureum, Kabupaten Sukabumi, Jawa Barat";"Kabupaten Sukabumi, Jawa Barat";"JAWA BARAT";"";"Indonesia";"";"";"";"-6.9401128";"106.9447146";"https://maps.google.com/?cid=0x0:0x1c00c5eb568ed1c0";""
"mall";"Toko";"UD.clom giriwil";"Jl. Baros No.10, Limusnunggal, Kec. Cibeureum, Kota Sukabumi, Jawa Barat 43181";"Limusnunggal, Kec. Cibeureum, Kota Sukabumi";"JAWA BARAT";"43181";"Indonesia";" 082316469309";"";"";"-6.9583235";"106.9336063";"https://maps.google.com/?cid=0x0:0xfae90de3b055bcf5";""
"mall";"Toko Bunga";"Kios bunga Diana";"Jl. Lkr. Sel. No.48, Limusnunggal, Kec. Cibeureum, Kota Sukabumi, Jawa Barat 43165";"Limusnunggal, Kec. Cibeureum, Kota Sukabumi";"JAWA BARAT";"43165";"Indonesia";" 085694763731";"";"";"-6.9490075";"106.9376916";"https://maps.google.com/?cid=0x0:0xc8a1751b672aa5d1";""
"mall";"Toko Pakan Hewan";"Kios Pakan Ternak Burung Dll.";"Cibungur Jl. Limusnunggal No.275, RT.01, Limusnunggal, Kec. Cibeureum, Kota Sukabumi, Jawa Barat 43165";"RT.01, Limusnunggal, Kec. Cibeureum, Kota Sukabumi";"JAWA BARAT";"43165";"Indonesia";" 081320975196";"";"";"-6.9498976";"106.9446531";"https://maps.google.com/?cid=0x0:0x7fef8689b41fb5c0";""
"mall";"Pasar";"BioFK Sukabumi";"2WWM+9HR, Sudajaya Hilir, Kec. Baros, Kota Sukabumi, Jawa Barat 43166";"Sudajaya Hilir, Kec. Baros, Kota Sukabumi";"JAWA BARAT";"43166";"Indonesia";" 087872184923";"";"";"-6.9540116";"106.9339016";"https://maps.google.com/?cid=0x0:0xf41c536ca270ccca";""
"mall";"Pusat Perbelanjaan";"Yoesban sukabumi";"Babakan, Kec. Cibeureum, Kota Sukabumi, Jawa Barat 43142";"Kec. Cibeureum, Kota Sukabumi";"JAWA BARAT";"43142";"Indonesia";" 089637003949";"";"";"-6.936973";"106.9527215";"https://maps.google.com/?cid=0x0:0x3e8f682f2e4862f";""
"mall";"Pusat Perbelanjaan";"MargoCity";"Jl. Margonda Raya No.358, Kemiri Muka, Kecamatan Beji, Kota Depok, Jawa Barat 16423";"Kemiri Muka, Kecamatan Beji, Kota Depok";"JAWA BARAT";"16423";"Indonesia";" 02178870888";"";"/url?q>>u003dhttp://margocity.com/>>u0026opi>>u003d79508299>>u0026sa>>u003dU>>u0026ved>>u003d0ahUKEwiTroT5pfyLAxUyxzgGHeutIjMQ61gIFigS>>u0026usg>>u003dAOvVaw39ZHVnyuqxruWCY1ODhP-h";"-6.372967";"106.8344235";"https://maps.google.com/?cid=0x0:0xd3365350a2ebe2f";""
"mall";"Pusat Perbelanjaan";"MILAGROS CIBEUREUM";"RM3C+752, Cibeureum, Kec. Kertasari, Kabupaten Bandung, Jawa Barat 40386";"Cibeureum, Kec. Kertasari, Kabupaten Bandung";"JAWA BARAT";"40386";"Indonesia";" 085320379094";"";"";"-7.1968707";"107.6703779";"https://maps.google.com/?cid=0x0:0x3b35459cf79a161b";""
"mall";"Pusat Perbelanjaan";"Cibinong City Mall";"Jl. Tegar Beriman No.1, Pakansari, Kec. Cibinong, Kabupaten Bogor, Jawa Barat 16914";"Pakansari, Kec. Cibinong, Kabupaten Bogor";"JAWA BARAT";"16914";"Indonesia";" 02129860099";"";"/url?q>>u003dhttps://www.cibinongcitymall.com/HOME.html>>u0026opi>>u003d79508299>>u0026sa>>u003dU>>u0026ved>>u003d0ahUKEwio-MH5pfyLAxVQyjgGHe1BIMsQ61gIFigS>>u0026usg>>u003dAOvVaw0qyNu9IbmyOjWV_fuGoHf-";"-6.4845183";"106.8423676";"https://maps.google.com/?cid=0x0:0x8cce62bf5b8baa08";""
"mall";"Pusat Perbelanjaan";"Botani Square";"Jl. Raya Pajajaran No.40, Tugu Kujang, Kecamatan Bogor Tengah, Kota Bogor, Jawa Barat 16127";"Tugu Kujang, Kecamatan Bogor Tengah, Kota Bogor";"JAWA BARAT";"16127";"Indonesia";" 02518386658";"";"/url?q>>u003dhttps://www.instagram.com/botanisquaremall/>>u0026opi>>u003d79508299>>u0026sa>>u003dU>>u0026ved>>u003d0ahUKEwiB4O_5pfyLAxWkxDgGHTTsHqAQ61gIFigS>>u0026usg>>u003dAOvVaw0qXj0y7RWpX9AjQd53AF9P";"-6.6014221";"106.8071254";"https://maps.google.com/?cid=0x0:0x9edb391e7c74be19";""
"mall";"Pusat Perbelanjaan";"Mal Ciputra Cibubur";"Jl. Alternatif Cibubur, RT.005/RW.011, Jatikarya, Kec. Jatisampurna, Kota Bks, Jawa Barat 17435";"RT.005/RW.011, Jatikarya, Kec. Jatisampurna, Kota Bks";"JAWA BARAT";"17435";"Indonesia";" 02184593193";"";"/url?q>>u003dhttp://www.malciputracibubur.com/>>u0026opi>>u003d79508299>>u0026sa>>u003dU>>u0026ved>>u003d0ahUKEwjsvIL6pfyLAxXLXWwGHTyoHu8Q61gIFigS>>u0026usg>>u003dAOvVaw0aIKMny_MQNuT1xM9dXS4H";"-6.3826374";"106.9264278";"https://maps.google.com/?cid=0x0:0x17fe2652752ef425";""
"mall";"Pusat Perbelanjaan";"Cibinong City Mall 2";"Cibinong City Mall, Jl. Tegar Beriman, Pakansari, Kec. Cibinong, Kabupaten Bogor, Jawa Barat 16915";"Jl. Tegar Beriman, Pakansari, Kec. Cibinong, Kabupaten Bogor";"JAWA BARAT";"16915";"Indonesia";"";"";"";"-6.4845863";"106.841003";"https://maps.google.com/?cid=0x0:0x6b2e5cd439fbb5c";""
"mall";"Pusat Perbelanjaan";"MENTARI STORE";"J7Q2+FP8, Kersanagara, Kec. Cibeureum, Kab. Tasikmalaya, Jawa Barat 46196";"Kersanagara, Kec. Cibeureum, Kab. Tasikmalaya";"JAWA BARAT";"46196";"Indonesia";" 081221997570";"";"";"-7.3613274";"108.2518258";"https://maps.google.com/?cid=0x0:0x8bce640257008ac2";""
"mall";"Pusat Perbelanjaan";"Kuningan City";"Jl. Prof. DR. Satrio No.Kav. 18, Kuningan, Karet Kuningan, Kecamatan Setiabudi, Kota Jakarta Selatan, Daerah Khusus Ibukota Jakarta 12940";"Kuningan, Karet Kuningan, Kecamatan Setiabudi, Kota Jakarta Selatan";"JAWA BARAT";"12940";"Indonesia";" 02157905555";"";"/url?q>>u003dhttps://www.kuningancity.com/>>u0026opi>>u003d79508299>>u0026sa>>u003dU>>u0026ved>>u003d0ahUKEwiF8_H6pfyLAxVByDgGHUERPWIQ61gIFigS>>u0026usg>>u003dAOvVaw1vFoKy1yUoRf1N68JALDfl";"-6.2250136";"106.829553";"https://maps.google.com/?cid=0x0:0x420d8f1dfd4d9452";""
"mall";"Pusat Perbelanjaan";"Grosir Aida";"WPXG+VM7, Cibeureum, Kec. Cibeureum, Kabupaten Kuningan, Jawa Barat 45588";"Cibeureum, Kec. Cibeureum, Kabupaten Kuningan";"JAWA BARAT";"45588";"Indonesia";"";"";"";"-7.0503261";"108.726662";"https://maps.google.com/?cid=0x0:0xe439de3cce603a1a";""
"mall";"Toko bahan makanan";"WS Putra Swalayan";"Cimara, Kec. Cibeureum, Kabupaten Kuningan, Jawa Barat 45588";"Kec. Cibeureum, Kabupaten Kuningan";"JAWA BARAT";"45588";"Indonesia";" 083179368060";"";"";"-7.0864853";"108.7098372";"https://maps.google.com/?cid=0x0:0xa80ee94703f2d2b6";""
"mall";"Pusat Perbelanjaan";"Rendi mar";"XP3C+MX3, Sukadana, Kec. Cibeureum, Kabupaten Kuningan, Jawa Barat 45588";"Sukadana, Kec. Cibeureum, Kabupaten Kuningan";"JAWA BARAT";"45588";"Indonesia";"";"";"";"-7.045866";"108.7224358";"https://maps.google.com/?cid=0x0:0x56b0459d35149ea3";""
"mall";"Pusat Perbelanjaan";"Abeg MMc";"WP87+2W5, Jl. Desa Sukarapih, Cimara, Kec. Cibeureum, Kabupaten Kuningan, Jawa Barat 45588";"Jl. Desa Sukarapih, Cimara, Kec. Cibeureum, Kabupaten Kuningan";"JAWA BARAT";"45588";"Indonesia";" 085797081725";"";"";"-7.0849975";"108.7148535";"https://maps.google.com/?cid=0x0:0x25d33dbd7cad122c";""
"mall";"Sekolah";"Tk Irma";"WP88+8WG, Sukarapih, Kec. Cibeureum, Kabupaten Kuningan, Jawa Barat 45588";"Sukarapih, Kec. Cibeureum, Kabupaten Kuningan";"JAWA BARAT";"45588";"Indonesia";"";"";"";"-7.0841799";"108.7173346";"https://maps.google.com/?cid=0x0:0x1b6504405c416946";""
"mall";"Toko";"Pusat Oleh Oleh Tape Ketan Harum Manis";"WPXG+W37, Jl. Raya Cibeureum, Cibeureum, Kec. Cibeureum, Kabupaten Kuningan, Jawa Barat 45588";"Jl. Raya Cibeureum, Cibeureum, Kec. Cibeureum, Kabupaten Kuningan";"JAWA BARAT";"45588";"Indonesia";" 081220544144";"";"";"-7.0502054";"108.7251631";"https://maps.google.com/?cid=0x0:0xc77e72cc9ac2cc44";""
"mall";"Toko Perlengkapan Bayi";"BASIL FAMILY baby and kids";"Cibeureum, Kec. Cibeureum, Kabupaten Kuningan, Jawa Barat 45588";"Kec. Cibeureum, Kabupaten Kuningan";"JAWA BARAT";"45588";"Indonesia";" 081324705477";"";"";"-7.049995";"108.725454";"https://maps.google.com/?cid=0x0:0xe8246c835d8f9c22";""
"mall";"Kantor Perusahaan";"Tape Ketan Sari Wangi";"Jl. Raya Cibeureum, Cibeureum, Kec. Cibeureum, Kabupaten Kuningan, Jawa Barat 45588";"Cibeureum, Kec. Cibeureum, Kabupaten Kuningan";"JAWA BARAT";"45588";"Indonesia";" 085793285242";"";"";"-7.0478331";"108.7248523";"https://maps.google.com/?cid=0x0:0x5c30daadea9e2d53";""
"mall";"Pusat Perbelanjaan";"Peuyeum Rasa Madu";"WPXG+W5C, Jalan Raya, Cibeureum, Kuningan Regency, West Java 45588";"Jalan Raya, Cibeureum, Kuningan Regency";"JAWA BARAT";"45588";"Indonesia";" 087723402830";"";"";"-7.0501836";"108.7254037";"https://maps.google.com/?cid=0x0:0x51f8bc3befe7909f";""
"mall";"Pusat Perbelanjaan";"Dinar Mart/ Aida";"WPXG+WM7, Jalan Raya, Cibeureum, Kuningan Regency, West Java 45588";"Jalan Raya, Cibeureum, Kuningan Regency";"JAWA BARAT";"45588";"Indonesia";"";"";"";"-7.0502205";"108.7266744";"https://maps.google.com/?cid=0x0:0xe3010eca3c195c7d";""
"mall";"Toko Ikan";"Ikan Segar AA GUSTI";"WP8C+8VQ, Jl. Desa Sukarapih, Sukarapih, Kec. Cibeureum, Kabupaten Kuningan, Jawa Barat 45588";"Jl. Desa Sukarapih, Sukarapih, Kec. Cibeureum, Kabupaten Kuningan";"JAWA BARAT";"45588";"Indonesia";" 085721211812";"";"";"-7.0841583";"108.7222303";"https://maps.google.com/?cid=0x0:0xd7128d8fc40f8136";""
"mall";"Restoran";"The Amboja";"Jl. Raya Mabes Hankam, Bambu Apus, Kec. Cipayung, Jakarta, Daerah Khusus Ibukota Jakarta 13890";"Bambu Apus, Kec. Cipayung, Jakarta";"JAWA BARAT";"13890";"Indonesia";" 085804631884";"";"/url?q>>u003dhttp://linktr.ee/theamboja>>u0026opi>>u003d79508299>>u0026sa>>u003dU>>u0026ved>>u003d0ahUKEwiZ2Yr-pfyLAxUAzjgGHVCHDcIQ61gIFigS>>u0026usg>>u003dAOvVaw0GF2BbDgSVuTsQ1vTCO2Gu";"-6.3096372";"106.9011697";"https://maps.google.com/?cid=0x0:0x3b0f05849f2f58c7";""
"mall";"Toko Bahan Bangunan";"Toko Timur Jaya";"XP3J+W4C, Unnamed Road, Tarikolot, Kec. Cibeureum, Kabupaten Kuningan, Jawa Barat 45588";"Unnamed Road, Tarikolot, Kec. Cibeureum, Kabupaten Kuningan";"JAWA BARAT";"45588";"Indonesia";" 085324339798";"";"";"-7.0451983";"108.7302717";"https://maps.google.com/?cid=0x0:0x27b70d5befa5f195";""
"mall";"Kantor Perusahaan";"Tape Ketan RASA MANIS PROD IBU DEWI";"WPXF+MMM, Cibeureum, Kec. Cibeureum, Kabupaten Kuningan, Jawa Barat 45588";"Cibeureum, Kec. Cibeureum, Kabupaten Kuningan";"JAWA BARAT";"45588";"Indonesia";" 085759896123";"";"";"-7.0507993";"108.7241809";"https://maps.google.com/?cid=0x0:0x77e8de481798b869";""
"mall";"Toko";"Toko Agung Padamoro";"XP3H+QMG, Tarikolot, Kec. Cibeureum, Kabupaten Kuningan, Jawa Barat 45588";"Tarikolot, Kec. Cibeureum, Kabupaten Kuningan";"JAWA BARAT";"45588";"Indonesia";" 081564644919";"";"";"-7.0455686";"108.7292071";"https://maps.google.com/?cid=0x0:0xa566d9f92867a207";""
"mall";"Toko Ponsel";"Jasmine Cell";"WPGJ+XG6, Jl. Desa Sumur Wiru, Sumurwiru, Kec. Cibeureum, Kabupaten Kuningan, Jawa Barat 45588";"Jl. Desa Sumur Wiru, Sumurwiru, Kec. Cibeureum, Kabupaten Kuningan";"JAWA BARAT";"45588";"Indonesia";"";"";"";"-7.0725812";"108.7312643";"https://maps.google.com/?cid=0x0:0x4200205512cd018";""
"mall";"mall";"A Ndang";"WPW6+WX5, Randusari, Kec. Cibeureum, Kabupaten Kuningan, Jawa Barat 45588";"Randusari, Kec. Cibeureum, Kabupaten Kuningan";"JAWA BARAT";"45588";"Indonesia";"";"";"";"-7.0527433";"108.7124783";"https://maps.google.com/?cid=0x0:0x1613465546032ddf";""
"mall";"Toko Aksesori Pakaian";"LABANA TASIKMALAYA";"Jl. KH. Khoer Affandi, Ciherang, Kec. Cibeureum, Kab. Tasikmalaya, Jawa Barat 46196";"Ciherang, Kec. Cibeureum, Kab. Tasikmalaya";"JAWA BARAT";"46196";"Indonesia";"";"";"";"-7.354863";"108.2717566";"https://maps.google.com/?cid=0x0:0x213a2ad94afb41b9";""
"mall";"Pusat Perbelanjaan";"Warung Bp Eeng";"J7PC+Q9Q, Jl. Ciakar, Ciakar, Kec. Cibeureum, Kab. Tasikmalaya, Jawa Barat 46196";"Jl. Ciakar, Ciakar, Kec. Cibeureum, Kab. Tasikmalaya";"JAWA BARAT";"46196";"Indonesia";" 085321419566";"";"";"-7.3630414";"108.2709714";"https://maps.google.com/?cid=0x0:0x8da5754c3731d495";""
"mall";"Pusat Perbelanjaan";"MENTARI STORE";"J7Q2+FP8, Kersanagara, Kec. Cibeureum, Kab. Tasikmalaya, Jawa Barat 46196";"Kersanagara, Kec. Cibeureum, Kab. Tasikmalaya";"JAWA BARAT";"46196";"Indonesia";" 081221997570";"";"";"-7.3613274";"108.2518258";"https://maps.google.com/?cid=0x0:0x8bce640257008ac2";""
"mall";"Toko Swalayan";"Cilendek";"Jl. Cilendek No.1-19, Kotabaru, Kec. Cibeureum, Kab. Tasikmalaya, Jawa Barat 46196";"Kotabaru, Kec. Cibeureum, Kab. Tasikmalaya";"JAWA BARAT";"46196";"Indonesia";"";"";"";"-7.3515354";"108.2604192";"https://maps.google.com/?cid=0x0:0xefd52980c0875fad";""
"mall";"Pusat Perbelanjaan";"PD.InginJaya";"J6RP+383, Kersanagara, Kec. Cibeureum, Kab. Tasikmalaya, Jawa Barat 46196";"Kersanagara, Kec. Cibeureum, Kab. Tasikmalaya";"JAWA BARAT";"46196";"Indonesia";" 081312805019";"";"";"-7.3598553";"108.23581";"https://maps.google.com/?cid=0x0:0xe893cb29c7c35127";""
"mall";"Pembangunan Perumahan";"Amang Famz";"Jl. Ciakar - Ciherang No.64, Ciakar, Kec. Cibeureum, Kab. Tasikmalaya, Jawa Barat 46196";"Ciakar, Kec. Cibeureum, Kab. Tasikmalaya";"JAWA BARAT";"46196";"Indonesia";" 082316859655";"";"";"-7.3636424";"108.2709236";"https://maps.google.com/?cid=0x0:0x7927dd4f2cbfcabc";""
"mall";"Pusat Perbelanjaan";"Ewarong sumber rizki barokah";"J6QQ+5X8, Jl. Letjen Mashudi, Kersanagara, Kec. Cibeureum, Kab. Tasikmalaya, Jawa Barat 46196";"Jl. Letjen Mashudi, Kersanagara, Kec. Cibeureum, Kab. Tasikmalaya";"JAWA BARAT";"46196";"Indonesia";" 082315851456";"";"";"-7.3620866";"108.2399389";"https://maps.google.com/?cid=0x0:0x2eb8916907b83b2d";""
"mall";"Pusat Perbelanjaan";"Qudmart";"Jl. KH. Khoer Affandi No.149, Awipari, Kec. Cibeureum, Kab. Tasikmalaya, Jawa Barat 46196";"Awipari, Kec. Cibeureum, Kab. Tasikmalaya";"JAWA BARAT";"46196";"Indonesia";"";"";"";"-7.3548617";"108.2704621";"https://maps.google.com/?cid=0x0:0x16b1f0ef007939cd";""
"mall";"Toko Perlengkapan Rumah";"Ade Gypsum";"J7WG+84G, Awipari, Kec. Cibeureum, Kab. Tasikmalaya, Jawa Barat 46196";"Awipari, Kec. Cibeureum, Kab. Tasikmalaya";"JAWA BARAT";"46196";"Indonesia";" 085320880044";"";"";"-7.3541771";"108.2753251";"https://maps.google.com/?cid=0x0:0x9a75e767aa2e1267";""
"mall";"Komplek perumahan";"Nama jalan raya gunung Muncang kaler";"J6XQ+Q9J, Gunung Muncang kaler, Setiajaya, Kec. Cibeureum, Kab. Tasikmalaya, Jawa Barat 46196";"Gunung Muncang kaler, Setiajaya, Kec. Cibeureum, Kab. Tasikmalaya";"JAWA BARAT";"46196";"Indonesia";"";"";"";"-7.3505275";"108.2384012";"https://maps.google.com/?cid=0x0:0x38f0fbae5e4eae9b";""
"mall";"Toko";"Wrung Nyai Eti";"J7Q8+46J, Jl. Cibangun, Ciherang, Kec. Cibeureum, Kab. Tasikmalaya, Jawa Barat 46196";"Jl. Cibangun, Ciherang, Kec. Cibeureum, Kab. Tasikmalaya";"JAWA BARAT";"46196";"Indonesia";"";"";"";"-7.3621603";"108.2655279";"https://maps.google.com/?cid=0x0:0x498ed3edc948358e";""
"mall";"Toko Ikan";"Ikan moly";"Jl. Condong No.A2, Setianagara, Kec. Cibeureum, Kab. Tasikmalaya, Jawa Barat 46196";"Setianagara, Kec. Cibeureum, Kab. Tasikmalaya";"JAWA BARAT";"46196";"Indonesia";" 082216800614";"";"";"-7.3477094";"108.2598537";"https://maps.google.com/?cid=0x0:0x71b1ed99b18fa218";""
"mall";"Pusat Perbelanjaan";"SUMBER LAS";"Jl. KH. Khoer Affandi No.106-84, Awipari, Kec. Cibeureum, Kab. Tasikmalaya, Jawa Barat 46196";"Awipari, Kec. Cibeureum, Kab. Tasikmalaya";"JAWA BARAT";"46196";"Indonesia";" 085222695007";"";"";"-7.35394";"108.265455";"https://maps.google.com/?cid=0x0:0x3aa77f35e492be26";""
"mall";"Penginapan";"pasar karangsambung";"J7VC+P8P, Ciherang, Kec. Cibeureum, Kab. Tasikmalaya, Jawa Barat 46196";"Ciherang, Kec. Cibeureum, Kab. Tasikmalaya";"JAWA BARAT";"46196";"Indonesia";"";"";"";"-7.3556723";"108.2708247";"https://maps.google.com/?cid=0x0:0x10bc6c2dc1d9b861";""
"mall";"Pusat Perbelanjaan";"Warung usa";"Jl. Rajawali No.16, Setiaratu, Kec. Cibeureum, Kab. Tasikmalaya, Jawa Barat 46196";"Setiaratu, Kec. Cibeureum, Kab. Tasikmalaya";"JAWA BARAT";"46196";"Indonesia";" 085287447856";"";"";"-7.3431681";"108.2413852";"https://maps.google.com/?cid=0x0:0x6a8ba5b7756c26f4";""
"mall";"Pusat Perbelanjaan";"TKR sinergi";"M73H+683, Margabakti, Kec. Cibeureum, Kab. Tasikmalaya, Jawa Barat 46196";"Margabakti, Kec. Cibeureum, Kab. Tasikmalaya";"JAWA BARAT";"46196";"Indonesia";" 081389659898";"";"";"-7.3469972";"108.2782902";"https://maps.google.com/?cid=0x0:0x926f46d0bdce7e7d";""
"mall";"Pusat Perbelanjaan";"ZAYYILA Collection";"J6PW+H8F, Kp, Cieurih, Kec. Cibeureum, Kab. Tasikmalaya, Jawa Barat 46196";"Kp, Cieurih, Kec. Cibeureum, Kab. Tasikmalaya";"JAWA BARAT";"46196";"Indonesia";" 082310372126";"";"";"-7.3635582";"108.2457862";"https://maps.google.com/?cid=0x0:0xca69e71629a55c35";""
"mall";"";"Dievani CELL";"Kotabaru, Kec. Cibeureum, Kab. Tasikmalaya, Jawa Barat 46196";"Kec. Cibeureum, Kab. Tasikmalaya";"JAWA BARAT";"46196";"Indonesia";" 082317333033";"";"";"-7.3518569";"108.2603372";"https://maps.google.com/?cid=0x0:0x6a902b5014762f84";""
"mall";"Toko Mebel";"Mebel Koleksi";"J6VQ+5VQ, Unnamed Road, Setiajaya, Kec. Cibeureum, Kab. Tasikmalaya, Jawa Barat 46196";"Unnamed Road, Setiajaya, Kec. Cibeureum, Kab. Tasikmalaya";"JAWA BARAT";"46196";"Indonesia";" 082214154929";"";"";"-7.3570253";"108.2397499";"https://maps.google.com/?cid=0x0:0x4a2b4c47f277050b";""
"mall";"mall";"Kec. Cibeureum";"Kab. Tasikmalaya, Jawa Barat";"Kab. Tasikmalaya, Jawa Barat";"JAWA BARAT";"";"Indonesia";"";"";"";"-7.3547786";"108.2717898";"https://maps.google.com/?cid=0x0:0x80fe2406f6e223ff";""
"mall";"Toko Perlengkapan Rumah";"Bagja Mebeul";"J6QM+PWW, Kersanagara, Kec. Cibeureum, Kab. Tasikmalaya, Jawa Barat 46196";"Kersanagara, Kec. Cibeureum, Kab. Tasikmalaya";"JAWA BARAT";"46196";"Indonesia";" 081323700742";"";"";"-7.360647";"108.234819";"https://maps.google.com/?cid=0x0:0x2d4c03acfbd1e3dd";""
"mall";"";"Eco Racing Cibeureum";"M63R+337, Jl. Rajawali, gn Kialir, Setiajaya, Kec. Cibeureum, Kab. Tasikmalaya, Jawa Barat 46196";"Jl. Rajawali, gn Kialir, Setiajaya, Kec. Cibeureum, Kab. Tasikmalaya";"JAWA BARAT";"46196";"Indonesia";" 085321815815";"";"/url?q>>u003dhttp://www.masteragenecoracing.blogspot.com/>>u0026opi>>u003d79508299>>u0026sa>>u003dU>>u0026ved>>u003d0ahUKEwittYqUpvyLAxXnSGwGHb5UBMsQ61gIFSgR>>u0026usg>>u003dAOvVaw3rFThe6q2MibVDc90vyOC_";"-7.3473381";"108.2401585";"https://maps.google.com/?cid=0x0:0x99a2f343476c4c12";""
"mall";"Toko Benang";"Gudang Atha";"Unnamed Road, Ciherang, Kec. Cibeureum, Kab. Tasikmalaya, Jawa Barat 46196";"Ciherang, Kec. Cibeureum, Kab. Tasikmalaya";"JAWA BARAT";"46196";"Indonesia";" 085216316838";"";"";"-7.3616006";"108.2670549";"https://maps.google.com/?cid=0x0:0xe054fb6281534a40";""
"mall";"Pusat Perbelanjaan";"Toko Baru AcessoriesToy's (AgenEceran)";"J7H9+644, Jl. Padati, Ciakar, Kec. Cibeureum, Kab. Tasikmalaya, Jawa Barat 46196";"Jl. Padati, Ciakar, Kec. Cibeureum, Kab. Tasikmalaya";"JAWA BARAT";"46196";"Indonesia";" 081563761280";"";"";"-7.3719997";"108.2678367";"https://maps.google.com/?cid=0x0:0xa98e558599c387f6";""
"mall";"Pusat Perbelanjaan";"nes37MaticShopProject";"Unnamed Road, Setianagara, Kec. Cibeureum, Kab. Tasikmalaya, Jawa Barat 46196";"Setianagara, Kec. Cibeureum, Kab. Tasikmalaya";"JAWA BARAT";"46196";"Indonesia";"";"";"";"-7.3427387";"108.2591476";"https://maps.google.com/?cid=0x0:0x2b7907dab35feaa7";""
"mall";"Perancang busana";"RNI Boutique  Diana Furniture";"Margabakti, Kec. Cibeureum, Kab. Tasikmalaya, Jawa Barat 46196";"Kec. Cibeureum, Kab. Tasikmalaya";"JAWA BARAT";"46196";"Indonesia";" 085723809929";"";"";"-7.3538016";"108.2795067";"https://maps.google.com/?cid=0x0:0xcc0c31244fdf1a55";""
"mall";"Toko Elektronik";"MiShop";"J7P5+GX4, Jl. Cisangkir, RT.03/RW.06, Kotabaru, Kec. Cibeureum, Kab. Tasikmalaya, Jawa Barat 46196";"Jl. Cisangkir, RT.03/RW.06, Kotabaru, Kec. Cibeureum, Kab. Tasikmalaya";"JAWA BARAT";"46196";"Indonesia";" 085320634029";"";"";"-7.363727";"108.2599402";"https://maps.google.com/?cid=0x0:0x607d0071a684623d";""
"mall";"Toko bahan makanan";"Toko ND Jaya";"kota baru kencana jalan sumedang blok 3 mesjid al, Kersanagara, Kec. Cibeureum, Kab. Tasikmalaya, Jawa Barat 46196";"Kersanagara, Kec. Cibeureum, Kab. Tasikmalaya";"JAWA BARAT";"46196";"Indonesia";" 081222824088";"";"";"-7.3656744";"108.2495921";"https://maps.google.com/?cid=0x0:0x190c672157b9ae";""
"mall";"Kios";"REST AREA KM.80";"Jalan Raya Anggraeni, Citeko, Kec. Cisarua, Kabupaten Bogor, Jawa Barat";"Kabupaten Bogor, Jawa Barat";"JAWA BARAT";"";"Indonesia";" 085695662186";"";"";"-6.6761539";"106.9287833";"https://maps.google.com/?cid=0x0:0xc529a6e2c356a486";""
"mall";"Pusat Perbelanjaan";"Cibinong Mall";"Jl. Raya Mayor Oking Jaya Atmaja No.11, Cibinong, Kec. Cibinong, Kabupaten Bogor, Jawa Barat 16911";"Cibinong, Kec. Cibinong, Kabupaten Bogor";"JAWA BARAT";"16911";"Indonesia";" 02187920069";"";"/url?q>>u003dhttps://www.facebook.com/CibinongMallOfficial/>>u0026opi>>u003d79508299>>u0026sa>>u003dU>>u0026ved>>u003d0ahUKEwiAq_ClpvyLAxXSzTgGHTI3Bf4Q61gIFigS>>u0026usg>>u003dAOvVaw1kcef3ApkEjnE4opWTSgs8";"-6.4799006";"106.8631444";"https://maps.google.com/?cid=0x0:0x1170ccef2de94639";""
"mall";"Pusat Perbelanjaan";"TOKO ALMUJABIEN";"Jln. Taman Safari, Kp. baru Tegal Kecamatan No.Rt.001/008, Cibeureum, Kec. Cisarua, Kabupaten Bogor, Jawa Barat 16750";"Kp. baru Tegal Kecamatan No.Rt.001/008, Cibeureum, Kec. Cisarua, Kabupaten Bogor";"JAWA BARAT";"16750";"Indonesia";" 085891528265";"";"/url?q>>u003dhttps://shopee.co.id/toko_almujabien1>>u0026opi>>u003d79508299>>u0026sa>>u003dU>>u0026ved>>u003d0ahUKEwi604WmpvyLAxViwjgGHewjMngQ61gIFigS>>u0026usg>>u003dAOvVaw2t2jkfS0sAF7JNrpSX6r_z";"-6.6970835";"106.9482495";"https://maps.google.com/?cid=0x0:0x9bf039fc1b038547";""
"mall";"Toko Swalayan";"Cilendek";"Jl. Cilendek No.1-19, Kotabaru, Kec. Cibeureum, Kab. Tasikmalaya, Jawa Barat 46196";"Kotabaru, Kec. Cibeureum, Kab. Tasikmalaya";"JAWA BARAT";"46196";"Indonesia";"";"";"";"-7.3515354";"108.2604192";"https://maps.google.com/?cid=0x0:0xefd52980c0875fad";""
"mall";"Pusat Perbelanjaan";"MILAGROS CIBEUREUM";"RM3C+752, Cibeureum, Kec. Kertasari, Kabupaten Bandung, Jawa Barat 40386";"Cibeureum, Kec. Kertasari, Kabupaten Bandung";"JAWA BARAT";"40386";"Indonesia";" 085320379094";"";"";"-7.1968707";"107.6703779";"https://maps.google.com/?cid=0x0:0x3b35459cf79a161b";""
"mall";"Pusat Perbelanjaan";"Botani Square";"Jl. Raya Pajajaran No.40, Tugu Kujang, Kecamatan Bogor Tengah, Kota Bogor, Jawa Barat 16127";"Tugu Kujang, Kecamatan Bogor Tengah, Kota Bogor";"JAWA BARAT";"16127";"Indonesia";" 02518386658";"";"";"-6.6014221";"106.8071254";"https://maps.google.com/?cid=0x0:0x9edb391e7c74be19";""
"mall";"Pusat Perbelanjaan";"Lapak bp.hendi";"Jl. Wulung No.80, Cibeureum, Kec. Cisarua, Kabupaten Bogor, Jawa Barat 16750";"Cibeureum, Kec. Cisarua, Kabupaten Bogor";"JAWA BARAT";"16750";"Indonesia";" 085884894561";"";"";"-6.6948686";"106.9414608";"https://maps.google.com/?cid=0x0:0x16862c1dc6d0009";""
"mall";"Pusat Perbelanjaan";"Faridacake";"8W7V+CXV, Cibeureum, Kec. Cisarua, Kabupaten Bogor, Jawa Barat 16750";"Cibeureum, Kec. Cisarua, Kabupaten Bogor";"JAWA BARAT";"16750";"Indonesia";" 085811259109";"";"";"-6.686392";"106.9449177";"https://maps.google.com/?cid=0x0:0x32cc98b4476227dd";""
"mall";"Taman Hiburan";"Coboy Show Taman Safari";"7XF2+6W7, Jl. Taman Safari Indonesia, Cibeureum, Kec. Cisarua, Kabupaten Bogor, Jawa Barat 16750";"Jl. Taman Safari Indonesia, Cibeureum, Kec. Cisarua, Kabupaten Bogor";"JAWA BARAT";"16750";"Indonesia";"";"";"";"-6.7269504";"106.9523054";"https://maps.google.com/?cid=0x0:0x1ff4425fd94d3e77";""
"mall";"Pusat Perbelanjaan";"Sari Barokah Oleh-Oleh - Taman Safari";"8W5V+F49, Jl. Taman Safari, Cibeureum, Kec. Cisarua, Kabupaten Bogor, Jawa Barat 16750";"Jl. Taman Safari, Cibeureum, Kec. Cisarua, Kabupaten Bogor";"JAWA BARAT";"16750";"Indonesia";"";"";"";"-6.6913656";"106.9427788";"https://maps.google.com/?cid=0x0:0x825b2ccae94aa680";""
"mall";"Pusat Perbelanjaan";"فيلا زهير";"8WCF+QGQ, Kopo, Kec. Cisarua, Kabupaten Bogor, Jawa Barat 16750";"Kopo, Kec. Cisarua, Kabupaten Bogor";"JAWA BARAT";"16750";"Indonesia";" 085894496548";"";"";"-6.678027";"106.9238441";"https://maps.google.com/?cid=0x0:0x80b16eb5e38ec46";""
"mall";"Pusat Perbelanjaan";"SR (Sentra Ramos) Store";"8W6R+V4X, Cibeureum, Kec. Cisarua, Kabupaten Bogor, Jawa Barat 16750";"Cibeureum, Kec. Cisarua, Kabupaten Bogor";"JAWA BARAT";"16750";"Indonesia";" 085883332693";"";"";"-6.6877652";"106.9403594";"https://maps.google.com/?cid=0x0:0xbb48b8f3cbda67d7";""
"mall";"Toko Suvenir";"Pusat Oleh Oleh Cisarua";"Jl. Raya Puncak - Cianjur No.566, Cisarua, Kec. Cisarua, Kabupaten Bogor, Jawa Barat 16750";"Cisarua, Kec. Cisarua, Kabupaten Bogor";"JAWA BARAT";"16750";"Indonesia";"";"";"";"-6.6757997";"106.9284199";"https://maps.google.com/?cid=0x0:0xb964e6bd9d8fcdfa";""
"mall";"Pusat Perbelanjaan";"Al-Najah Oud";"8X84+VMX Coklat, Jl. Ciburial, North Tugu, Cisarua, Bogor Regency, West Java 16750";"Jl. Ciburial, North Tugu, Cisarua, Bogor Regency";"JAWA BARAT";"16750";"Indonesia";" 081999115743";"";"";"-6.6827673";"106.9567226";"https://maps.google.com/?cid=0x0:0x696a3eef8169d56";""
"mall";"Pusat Perbelanjaan";"Kisell";"Jl. Sule Setianegara No.33, Setiaratu, Kec. Cibeureum, Kab. Tasikmalaya, Jawa Barat 46196";"Setiaratu, Kec. Cibeureum, Kab. Tasikmalaya";"JAWA BARAT";"46196";"Indonesia";" 085318888901";"";"";"-7.3412661";"108.2383255";"https://maps.google.com/?cid=0x0:0x979d3a757283c847";""
"mall";"Toko umum";"WARUNG82";"Kp.cieurih, RT.02/RW.07, Kersanagara, Kec. Cibeureum, Kab. Tasikmalaya, Jawa Barat 46196";"RT.02/RW.07, Kersanagara, Kec. Cibeureum, Kab. Tasikmalaya";"JAWA BARAT";"46196";"Indonesia";" 082240655400";"";"";"-7.3653613";"108.2452883";"https://maps.google.com/?cid=0x0:0xce87dba7c2710171";""
"mall";"Pusat Perbelanjaan";"Warung sahlla";"7XX3+9V2, Jl.Gandamanah, RT.02/RW.12, Tugu Sel., Kec. Cisarua, Kabupaten Bogor, Jawa Barat 16750";"Jl.Gandamanah, RT.02/RW.12, Tugu Sel., Kec. Cisarua, Kabupaten Bogor";"JAWA BARAT";"16750";"Indonesia";"";"";"";"-6.7016576";"106.9542294";"https://maps.google.com/?cid=0x0:0xe209cf61a77e98ab";""
"mall";"Pusat Perbelanjaan";"مهتاب رحمة العود";"Jl. Raya Puncak - Cianjur No.12, Tugu Utara, Kec. Cisarua, Kabupaten Bogor, Jawa Barat 16750";"Tugu Utara, Kec. Cisarua, Kabupaten Bogor";"JAWA BARAT";"16750";"Indonesia";" 08128262494";"";"";"-6.68429";"106.9524762";"https://maps.google.com/?cid=0x0:0x9bd5d30a434e6a11";""
"mall";"Pusat Perbelanjaan";"Bani mansyur almubarok";"8XC3+8H2, Jl. Citra, Batu Layang, Kec. Cisarua, Kabupaten Bogor, Jawa Barat 16750";"Jl. Citra, Batu Layang, Kec. Cisarua, Kabupaten Bogor";"JAWA BARAT";"16750";"Indonesia";" 085778477776";"";"";"-6.6792469";"106.9539051";"https://maps.google.com/?cid=0x0:0x1f00479685177eae";""
"mall";"mall";"Jawa Barat 46416";"Kec. Singaparna, Kabupaten Tasikmalaya, Jawa Barat";"Kabupaten Tasikmalaya, Jawa Barat";"JAWA BARAT";"";"Indonesia";"";"";"";"-7.3505206";"108.1176678";"https://maps.google.com/?cid=0x0:0x9b8f2fb0f16267a2";""
"mall";"Pusat Perbelanjaan";"MargoCity";"Jl. Margonda Raya No.358, Kemiri Muka, Kecamatan Beji, Kota Depok, Jawa Barat 16423";"Kemiri Muka, Kecamatan Beji, Kota Depok";"JAWA BARAT";"16423";"Indonesia";" 02178870888";"";"/url?q>>u003dhttp://margocity.com/>>u0026opi>>u003d79508299>>u0026sa>>u003dU>>u0026ved>>u003d0ahUKEwjb2f6qpvyLAxXc1DgGHTCcK0IQ61gIFigS>>u0026usg>>u003dAOvVaw3Ff8w8L384r0XAKNXAt2yC";"-6.372967";"106.8344235";"https://maps.google.com/?cid=0x0:0xd3365350a2ebe2f";""
"mall";"Pusat Perbelanjaan";"Cibinong City Mall 2";"Cibinong City Mall, Jl. Tegar Beriman, Pakansari, Kec. Cibinong, Kabupaten Bogor, Jawa Barat 16915";"Jl. Tegar Beriman, Pakansari, Kec. Cibinong, Kabupaten Bogor";"JAWA BARAT";"16915";"Indonesia";"";"";"";"-6.4845863";"106.841003";"https://maps.google.com/?cid=0x0:0x6b2e5cd439fbb5c";""
"mall";"Pusat Perbelanjaan";"Rest Area Bang Ben";"Jl. Raya Puncak No.Km.79, Kopo, Kec. Cisarua, Kabupaten Bogor, Jawa Barat 16750";"Kopo, Kec. Cisarua, Kabupaten Bogor";"JAWA BARAT";"16750";"Indonesia";" 081380486282";"";"";"-6.6683005";"106.9249737";"https://maps.google.com/?cid=0x0:0x1635ddcb583e3b89";""
"mall";"Pusat Perbelanjaan";"Grand Pafesta";"Jl. Raya Puncak - Gadog No.KM.81 No.20, Cisarua, Kec. Cisarua, Kabupaten Bogor, Jawa Barat 16750";"Cisarua, Kec. Cisarua, Kabupaten Bogor";"JAWA BARAT";"16750";"Indonesia";" 085776959778";"";"";"-6.6805462";"106.9323414";"https://maps.google.com/?cid=0x0:0x71231670b91d8b5";""
"mall";"Pasar";"PASAR TAMAN SAFARI";"7WRW+JF5, Jl. Taman Safari, Cibeureum, Kec. Cisarua, Kabupaten Bogor, Jawa Barat 16750";"Jl. Taman Safari, Cibeureum, Kec. Cisarua, Kabupaten Bogor";"JAWA BARAT";"16750";"Indonesia";"";"";"";"-6.7084758";"106.9462382";"https://maps.google.com/?cid=0x0:0x5c86fe7a9d44f6f5";""
"mall";"Pusat Perbelanjaan";"Pafesta Cisarua";"Jl. Labuan - Cianjur No.103, Cisarua, Kec. Cisarua, Kabupaten Bogor, Jawa Barat 16750";"Cisarua, Kec. Cisarua, Kabupaten Bogor";"JAWA BARAT";"16750";"Indonesia";" 0251824144";"";"";"-6.6798646";"106.931921";"https://maps.google.com/?cid=0x0:0x440ff78c73269767";""
"mall";"Pusat Perbelanjaan";"اطياب الركن اليماني (PT ATYAB ALROKN AYAMNI )";"8X65+W9H, Tugu Utara, Kec. Cisarua, Kabupaten Bogor, Jawa Barat 16750";"Tugu Utara, Kec. Cisarua, Kabupaten Bogor";"JAWA BARAT";"16750";"Indonesia";" 0811136111";"";"";"-6.687687";"106.9584767";"https://maps.google.com/?cid=0x0:0x726b1161b4d50bf3";""
"mall";"Pusat Perbelanjaan";"Cimahi Mall";"Cimahi Mall, Jl. Gandawijaya, Setiamanah, Kec. Cimahi Tengah, Kota Cimahi, Jawa Barat 40524";"Jl. Gandawijaya, Setiamanah, Kec. Cimahi Tengah, Kota Cimahi";"JAWA BARAT";"40524";"Indonesia";" 081122335546";"";"";"-6.8782602";"107.5396055";"https://maps.google.com/?cid=0x0:0x277aab6fe377a757";""
"mall";"Penginapan";"Amaliamaryamcollection";"3HR4+HQ9, Gg. Bhakti 3, Cibeureum, Kec. Cimahi Sel., Kota Cimahi, Jawa Barat 40535";"Gg. Bhakti 3, Cibeureum, Kec. Cimahi Sel., Kota Cimahi";"JAWA BARAT";"40535";"Indonesia";" 085722405081";"";"";"-6.9085808";"107.5569784";"https://maps.google.com/?cid=0x0:0xa99cd043bd0ba177";""
"mall";"Maskapai Penerbangan";"Citimall Sukabumi";"Jl. A. Yani No.121-127, Gunungparang, Kec. Cikole, Kota Sukabumi, Jawa Barat 43111";"Gunungparang, Kec. Cikole, Kota Sukabumi";"JAWA BARAT";"43111";"Indonesia";" 0266232820";"";"";"-6.9216947";"106.9286093";"https://maps.google.com/?cid=0x0:0x25d779dd316516f7";""
"mall";"Taman";"Triloka Dago Sukabumi";"Jl. Ir. H. Juanda, Cikole, Kec. Cikole, Kota Sukabumi, Jawa Barat 43111";"Cikole, Kec. Cikole, Kota Sukabumi";"JAWA BARAT";"43111";"Indonesia";" 085624575859";"";"";"-6.9202373";"106.931252";"https://maps.google.com/?cid=0x0:0xb7c38166ec4a79a3";""
"mall";"Toko Ponsel";"Erafone Megastore Sukabumi";"Jl. A. Yani No.130, Gunungparang, Kec. Cikole, Kota Sukabumi, Jawa Barat 43111";"Gunungparang, Kec. Cikole, Kota Sukabumi";"JAWA BARAT";"43111";"Indonesia";" 02666225944";"";"/url?q>>u003dhttp://erafone.com/>>u0026opi>>u003d79508299>>u0026sa>>u003dU>>u0026ved>>u003d0ahUKEwjrkOu8pvyLAxWZyDgGHU3PMncQ61gIFigS>>u0026usg>>u003dAOvVaw2GdrpAUmFRUQBRrk5UBTyP";"-6.9225051";"106.929651";"https://maps.google.com/?cid=0x0:0x168ef686e81c4d90";""
"mall";"Pusat Perbelanjaan";"Mall";"Jl. Surya Kencana No.39, Selabatu, Kec. Cikole, Kota Sukabumi, Jawa Barat 43114";"Selabatu, Kec. Cikole, Kota Sukabumi";"JAWA BARAT";"43114";"Indonesia";"";"";"";"-6.9165906";"106.9313505";"https://maps.google.com/?cid=0x0:0xda7389e503ea1218";""
"mall";"Restoran";"Toserba Selamat";"Jl. R. E. Martadinata No.67-515, Kebonjati, Kec. Cikole, Kota Sukabumi, Jawa Barat 43113";"Kebonjati, Kec. Cikole, Kota Sukabumi";"JAWA BARAT";"43113";"Indonesia";" 0266243734";"";"/url?q>>u003dhttp://www.toserbaselamat.id/>>u0026opi>>u003d79508299>>u0026sa>>u003dU>>u0026ved>>u003d0ahUKEwj_qLq9pvyLAxWAxDgGHdJJEJ8Q61gIFigS>>u0026usg>>u003dAOvVaw15o4hE6LslHyaTEJ1XA2b6";"-6.9210805";"106.9348566";"https://maps.google.com/?cid=0x0:0x116464f8e24a0e41";""
"mall";"Toko Sepatu";"Authentic";"Jl. A. Yani No.92, Gunungparang, Kec. Cikole, Kota Sukabumi, Jawa Barat 43111";"Gunungparang, Kec. Cikole, Kota Sukabumi";"JAWA BARAT";"43111";"Indonesia";" 085624001572";"";"";"-6.9221576";"106.9287099";"https://maps.google.com/?cid=0x0:0x20c324065429feca";""
"mall";"Toko Pakaian";"Matahari Departement Store";"Citimall Sukabumi Lt. 1- 2, Jl. A. Yani No.125-127, Gunungparang, Kec. Cikole, Kota Sukabumi, Jawa Barat 43111";"Jl. A. Yani No.125-127, Gunungparang, Kec. Cikole, Kota Sukabumi";"JAWA BARAT";"43111";"Indonesia";" 0266232816";"";"/url?q>>u003dhttp://www.matahari.co.id/>>u0026opi>>u003d79508299>>u0026sa>>u003dU>>u0026ved>>u003d0ahUKEwiukqG-pvyLAxWezjgGHS0KMPMQ61gIFigS>>u0026usg>>u003dAOvVaw1VT_RDDAGkvKeooPrhlYbv";"-6.9218068";"106.9288177";"https://maps.google.com/?cid=0x0:0xce2be0afaff8de48";""
"mall";"Pusat Perbelanjaan";"Lejel Sukabumi";"3WGQ+QPG, Gg. Mahmud, Cisarua, Kec. Cikole, Kota Sukabumi, Jawa Barat 43115";"Gg. Mahmud, Cisarua, Kec. Cikole, Kota Sukabumi";"JAWA BARAT";"43115";"Indonesia";" 0266229911";"";"";"-6.9230571";"106.9393218";"https://maps.google.com/?cid=0x0:0xef6819e540c543d3";""
"mall";"Pusat Perbelanjaan";"Toserba Yogya Sukabumi";"Jl. R. E. Martadinata No.3, Gunungparang, Kec. Cikole, Kota Sukabumi, Jawa Barat 43111";"Gunungparang, Kec. Cikole, Kota Sukabumi";"JAWA BARAT";"43111";"Indonesia";" 0266221177";"";"/url?q>>u003dhttps://yogyagroup.com/>>u0026opi>>u003d79508299>>u0026sa>>u003dU>>u0026ved>>u003d0ahUKEwjI5-i-pvyLAxVMzDgGHRTLCswQ61gIFigS>>u0026usg>>u003dAOvVaw3X1FG-ajwu3nFfhRcK-Hhi";"-6.9200478";"106.9283485";"https://maps.google.com/?cid=0x0:0x43b5fb53a14d309e";""
"mall";"Pasar";"#Fokus Online#";"3WHH+R8M, Gunungparang, Kec. Cikole, Kota Sukabumi, Jawa Barat 43111";"Gunungparang, Kec. Cikole, Kota Sukabumi";"JAWA BARAT";"43111";"Indonesia";" 081563365653";"";"";"-6.9204091";"106.9283045";"https://maps.google.com/?cid=0x0:0x12e86f7524ecb418";""
"mall";"Pusat Perbelanjaan";"PASAR ATAS VS EVERYBODY";"3WMJ+4CW, Jl. Dewi Sartika, Cikole, Kec. Cikole, Kota Sukabumi, Jawa Barat 43113";"Jl. Dewi Sartika, Cikole, Kec. Cikole, Kota Sukabumi";"JAWA BARAT";"43113";"Indonesia";"";"";"";"-6.9171438";"106.9310759";"https://maps.google.com/?cid=0x0:0x84f7eb80d58d3f37";""
"mall";"Toko bahan makanan";"Warung Karoehun Abah Kole";"Jl. Rumah Sakit Belakang Jl. Cikole Dalam No.rt 04/07, Cikole, Kec. Cikole, Kota Sukabumi, Jawa Barat 43113";"Cikole, Kec. Cikole, Kota Sukabumi";"JAWA BARAT";"43113";"Indonesia";" 081278757219";"";"";"-6.9175045";"106.9332639";"https://maps.google.com/?cid=0x0:0xe87dd6353d55df9";""
"mall";"Pusat Perbelanjaan";"game store yogya";"GF , Yogya Sukabumi, Jl. R. E. Martadinata, Gunungparang, Cikole, Sukabumi City, West Java 43111";"Yogya Sukabumi, Jl. R. E. Martadinata, Gunungparang, Cikole, Sukabumi City";"JAWA BARAT";"43111";"Indonesia";" 081563365653";"";"";"-6.9198282";"106.9286006";"https://maps.google.com/?cid=0x0:0x1b7e933c67d8e3d0";""
"mall";"Toko Pakaian dan Peralatan Luar Ruangan";"MOUNTAIN ROUTE SUKABUMI";"Jl. Ciwangi, Gunungparang, Kec. Cikole, Kota Sukabumi, Jawa Barat";"Kota Sukabumi, Jawa Barat";"JAWA BARAT";"";"Indonesia";" 081333253258";"";"/url?q>>u003dhttps://heylink.me/areistoresukabumi>>u0026opi>>u003d79508299>>u0026sa>>u003dU>>u0026ved>>u003d0ahUKEwiNo5rApvyLAxWkxDgGHTTsHqAQ61gIFigS>>u0026usg>>u003dAOvVaw0hSIxmgsb5jTlIwqmoYCwp";"-6.9207271";"106.9280307";"https://maps.google.com/?cid=0x0:0x9750b09d004abf3e";""
"mall";"Pusat Perbelanjaan";"Kayonna Store";"3WGP+C55, Jl. Cimandiri, Kebonjati, Kec. Cikole, Kota Sukabumi, Jawa Barat 43113";"Jl. Cimandiri, Kebonjati, Kec. Cikole, Kota Sukabumi";"JAWA BARAT";"43113";"Indonesia";" 085722865697";"";"";"-6.9239866";"106.9354822";"https://maps.google.com/?cid=0x0:0x330378be08d2c10";""
"mall";"Pusat Perbelanjaan";"Lobby Utama Citymal Sukabumi";"3WHH+3GV, Jl. A. Yani, Gunungparang, Kec. Cikole, Kota Sukabumi, Jawa Barat 43131";"Jl. A. Yani, Gunungparang, Kec. Cikole, Kota Sukabumi";"JAWA BARAT";"43131";"Indonesia";" 083819935432";"";"";"-6.9222508";"106.9288125";"https://maps.google.com/?cid=0x0:0x741b464229dc65eb";""
"mall";"Toko Swalayan";"Halte Yogya Sukabumi";"3WHH+VCC, Gunungparang, Kec. Cikole, Kota Sukabumi, Jawa Barat 43111";"Gunungparang, Kec. Cikole, Kota Sukabumi";"JAWA BARAT";"43111";"Indonesia";"";"";"";"-6.9203164";"106.9285047";"https://maps.google.com/?cid=0x0:0x784ebf1076844300";""
"mall";"Toko";"LUCKYMERCHSTOCK";"luckymerchstock Jl.Mayawati,Capitol Plaza, Lantai Dasar, Gunungparang, Kec. Cikole, Kota Sukabumi, Jawa Barat 43111";"Lantai Dasar, Gunungparang, Kec. Cikole, Kota Sukabumi";"JAWA BARAT";"43111";"Indonesia";" 087828947112";"";"";"-6.9219869";"106.9270207";"https://maps.google.com/?cid=0x0:0xa72bb6fd994c83d7";""
"mall";"Toko bahan makanan";"Toko NS";"100 meter dari Titik Nol, Jl. A. Yani No.142, Gunungparang, Kec. Cikole, Kota Sukabumi, Jawa Barat 43111";"Jl. A. Yani No.142, Gunungparang, Kec. Cikole, Kota Sukabumi";"JAWA BARAT";"43111";"Indonesia";" 081385012021";"";"";"-6.9225374";"106.9299608";"https://maps.google.com/?cid=0x0:0xa73c7e69f8df97e1";""
"mall";"mall";"Jawa Barat 43111";"Kec. Cikole, Kota Sukabumi, Jawa Barat";"Kota Sukabumi, Jawa Barat";"JAWA BARAT";"";"Indonesia";"";"";"";"-6.9219517";"106.92922";"https://maps.google.com/?cid=0x0:0x1c00c5eb568ecf40";""
"mall";"Pusat Perbelanjaan";"toko umm geledog";"Jl. Dewi Sartika, Cikole, Kec. Cikole, Kota Sukabumi, Jawa Barat 43113";"Cikole, Kec. Cikole, Kota Sukabumi";"JAWA BARAT";"43113";"Indonesia";" 0811115040";"";"";"-6.9170164";"106.9308871";"https://maps.google.com/?cid=0x0:0xddce8b6f2b0a33a5";""
"mall";"Penerbit";"Pameran Buku Virion";"Jl. R. E. Martadinata No.3, Gunungparang, Kec. Cikole, Kota Sukabumi, Jawa Barat 43111";"Gunungparang, Kec. Cikole, Kota Sukabumi";"JAWA BARAT";"43111";"Indonesia";" 083837777729";"";"";"-6.9200458";"106.9284745";"https://maps.google.com/?cid=0x0:0x12269bcb8ce04208";""
"mall";"Maskapai Penerbangan";"Citimall Sukabumi";"Jl. A. Yani No.121-127, Gunungparang, Kec. Cikole, Kota Sukabumi, Jawa Barat 43111";"Gunungparang, Kec. Cikole, Kota Sukabumi";"JAWA BARAT";"43111";"Indonesia";" 0266232820";"";"";"-6.9216947";"106.9286093";"https://maps.google.com/?cid=0x0:0x25d779dd316516f7";""
"mall";"Pusat Perbelanjaan";"Mall";"Jl. Surya Kencana No.39, Selabatu, Kec. Cikole, Kota Sukabumi, Jawa Barat 43114";"Selabatu, Kec. Cikole, Kota Sukabumi";"JAWA BARAT";"43114";"Indonesia";"";"";"";"-6.9165906";"106.9313505";"https://maps.google.com/?cid=0x0:0xda7389e503ea1218";""
"mall";"Taman";"Triloka Dago Sukabumi";"Jl. Ir. H. Juanda, Cikole, Kec. Cikole, Kota Sukabumi, Jawa Barat 43111";"Cikole, Kec. Cikole, Kota Sukabumi";"JAWA BARAT";"43111";"Indonesia";" 085624575859";"";"";"-6.9202373";"106.931252";"https://maps.google.com/?cid=0x0:0xb7c38166ec4a79a3";""
"mall";"Toko Sepatu";"Authentic";"Jl. A. Yani No.92, Gunungparang, Kec. Cikole, Kota Sukabumi, Jawa Barat 43111";"Gunungparang, Kec. Cikole, Kota Sukabumi";"JAWA BARAT";"43111";"Indonesia";" 085624001572";"";"";"-6.9221576";"106.9287099";"https://maps.google.com/?cid=0x0:0x20c324065429feca";""
"mall";"Toko Ponsel";"Erafone Megastore Sukabumi";"Jl. A. Yani No.130, Gunungparang, Kec. Cikole, Kota Sukabumi, Jawa Barat 43111";"Gunungparang, Kec. Cikole, Kota Sukabumi";"JAWA BARAT";"43111";"Indonesia";" 02666225944";"";"/url?q>>u003dhttp://erafone.com/>>u0026opi>>u003d79508299>>u0026sa>>u003dU>>u0026ved>>u003d0ahUKEwi2hdrTpvyLAxV89zgGHQXlHpAQ61gIFigS>>u0026usg>>u003dAOvVaw3oYgrWfMSUJYYBIgmBryDJ";"-6.9225051";"106.929651";"https://maps.google.com/?cid=0x0:0x168ef686e81c4d90";""
"mall";"Toko Swalayan";"Coms Cell Car";"Jl. A. Yani No.212/232, Kebonjati, Kec. Cikole, Kota Sukabumi, Jawa Barat 43111";"Kebonjati, Kec. Cikole, Kota Sukabumi";"JAWA BARAT";"43111";"Indonesia";" 085659511969";"";"";"-6.9228705";"106.9329148";"https://maps.google.com/?cid=0x0:0x8e2004b0998623c1";""
"mall";"Pasar";"Sekar Wangi PT";"Jl. Siliwangi No.76, Cikole, Kec. Cikole, Kota Sukabumi, Jawa Barat 43113";"Cikole, Kec. Cikole, Kota Sukabumi";"JAWA BARAT";"43113";"Indonesia";" 0266531603";"";"";"-6.9180814";"106.9364349";"https://maps.google.com/?cid=0x0:0x34879541185edea8";""
"mall";"Pusat Perbelanjaan";"Lejel Sukabumi";"3WGQ+QPG, Gg. Mahmud, Cisarua, Kec. Cikole, Kota Sukabumi, Jawa Barat 43115";"Gg. Mahmud, Cisarua, Kec. Cikole, Kota Sukabumi";"JAWA BARAT";"43115";"Indonesia";" 0266229911";"";"/url?q>>u003dhttps://lejel.co.id/>>u0026opi>>u003d79508299>>u0026sa>>u003dU>>u0026ved>>u003d0ahUKEwj7urvUpvyLAxUTzjgGHcHUAU8Q61gIFSgR>>u0026usg>>u003dAOvVaw1p2wk0lPPlrmeFHbMn_8Rx";"-6.9230571";"106.9393218";"https://maps.google.com/?cid=0x0:0xef6819e540c543d3";""
"mall";"Toko Pakaian";"Matahari Departement Store";"Citimall Sukabumi Lt. 1- 2, Jl. A. Yani No.125-127, Gunungparang, Kec. Cikole, Kota Sukabumi, Jawa Barat 43111";"Jl. A. Yani No.125-127, Gunungparang, Kec. Cikole, Kota Sukabumi";"JAWA BARAT";"43111";"Indonesia";" 0266232816";"";"/url?q>>u003dhttp://www.matahari.co.id/>>u0026opi>>u003d79508299>>u0026sa>>u003dU>>u0026ved>>u003d0ahUKEwiNkN_UpvyLAxVBcGwGHWtIBcoQ61gIFigS>>u0026usg>>u003dAOvVaw2IN5-GJB6_reR4KyBynjOx";"-6.9218068";"106.9288177";"https://maps.google.com/?cid=0x0:0xce2be0afaff8de48";""
"mall";"Pusat Perbelanjaan";"WMS SUKABUMI";"Gunungparang, Kec. Cikole, Kota Sukabumi, Jawa Barat";"Kota Sukabumi, Jawa Barat";"JAWA BARAT";"";"Indonesia";" 085640470315";"";"";"-6.9236725";"106.9280822";"https://maps.google.com/?cid=0x0:0xb6c03d90079b1fd1";""
"mall";"";"Grosir Berkah";"3WGQ+V6P, Jl. R.A. Kosasih gang Juli, Cisarua, Kec. Cikole, Kota Sukabumi, Jawa Barat";"Kota Sukabumi, Jawa Barat";"JAWA BARAT";"";"Indonesia";" 087786919994";"";"/url?q>>u003dhttps://www.instagram.com/gb_grosirberkah%3Figsh%3DMTU2Nmp3N2FmeGxkdg%3D%3D>>u0026opi>>u003d79508299>>u0026sa>>u003dU>>u0026ved>>u003d0ahUKEwio-5zVpvyLAxXSSGwGHVPUO6EQ61gIFSgR>>u0026usg>>u003dAOvVaw3GgBqADe5ACW75Oxg6gPl3";"-6.9227997";"106.9380778";"https://maps.google.com/?cid=0x0:0x1393995ec0c2f102";""
"mall";"Pasar";"#Fokus Online#";"3WHH+R8M, Gunungparang, Kec. Cikole, Kota Sukabumi, Jawa Barat 43111";"Gunungparang, Kec. Cikole, Kota Sukabumi";"JAWA BARAT";"43111";"Indonesia";" 081563365653";"";"";"-6.9204091";"106.9283045";"https://maps.google.com/?cid=0x0:0x12e86f7524ecb418";""
"mall";"Toko Pakaian dan Peralatan Luar Ruangan";"MOUNTAIN ROUTE SUKABUMI";"Jl. Ciwangi, Gunungparang, Kec. Cikole, Kota Sukabumi, Jawa Barat";"Kota Sukabumi, Jawa Barat";"JAWA BARAT";"";"Indonesia";" 081333253258";"";"/url?q>>u003dhttps://heylink.me/areistoresukabumi>>u0026opi>>u003d79508299>>u0026sa>>u003dU>>u0026ved>>u003d0ahUKEwj82vDVpvyLAxU2zjgGHWdOBL8Q61gIFigS>>u0026usg>>u003dAOvVaw1FXVCF4ruLHZEviiZkq6T2";"-6.9207271";"106.9280307";"https://maps.google.com/?cid=0x0:0x9750b09d004abf3e";""
"mall";"Pusat Perbelanjaan";"Lobby Utama Citymal Sukabumi";"3WHH+3GV, Jl. A. Yani, Gunungparang, Kec. Cikole, Kota Sukabumi, Jawa Barat 43131";"Jl. A. Yani, Gunungparang, Kec. Cikole, Kota Sukabumi";"JAWA BARAT";"43131";"Indonesia";" 083819935432";"";"";"-6.9222508";"106.9288125";"https://maps.google.com/?cid=0x0:0x741b464229dc65eb";""
"mall";"Perancang Grafis";"Dapur Cetak";"Jl. R. E. Martadinata No.44, Cikole, Kec. Cikole, Kota Sukabumi, Jawa Barat 43113";"Cikole, Kec. Cikole, Kota Sukabumi";"JAWA BARAT";"43113";"Indonesia";" 085860173456";"";"";"-6.9206728";"106.9304786";"https://maps.google.com/?cid=0x0:0xe10698c16a06cfb5";""
"mall";"Pusat Perbelanjaan";"Kayonna Store";"3WGP+C55, Jl. Cimandiri, Kebonjati, Kec. Cikole, Kota Sukabumi, Jawa Barat 43113";"Jl. Cimandiri, Kebonjati, Kec. Cikole, Kota Sukabumi";"JAWA BARAT";"43113";"Indonesia";" 085722865697";"";"/url?q>>u003dhttp://instagram.com/kayonna.store_>>u0026opi>>u003d79508299>>u0026sa>>u003dU>>u0026ved>>u003d0ahUKEwiT9tLWpvyLAxXPzzgGHSKrIgoQ61gIFSgR>>u0026usg>>u003dAOvVaw3RZ7_ep3DwTb8pgFILEWaJ";"-6.9239866";"106.9354822";"https://maps.google.com/?cid=0x0:0x330378be08d2c10";""
"mall";"Ahli tembakau";"EL NINO TOBACCO";"Jl. R.A. Kosasih No.397 RT 05 / 07, Kebonjati, Kec. Cikole, Kota Sukabumi, Jawa Barat 43113";"Kebonjati, Kec. Cikole, Kota Sukabumi";"JAWA BARAT";"43113";"Indonesia";" 085722511014";"";"";"-6.9228895";"106.9369527";"https://maps.google.com/?cid=0x0:0x6e71e85ad1f6e26b";""
"mall";"Pusat Perbelanjaan";"toko umm geledog";"Jl. Dewi Sartika, Cikole, Kec. Cikole, Kota Sukabumi, Jawa Barat 43113";"Cikole, Kec. Cikole, Kota Sukabumi";"JAWA BARAT";"43113";"Indonesia";" 0811115040";"";"";"-6.9170164";"106.9308871";"https://maps.google.com/?cid=0x0:0xddce8b6f2b0a33a5";""
"mall";"Toko bahan makanan";"Toko NS";"100 meter dari Titik Nol, Jl. A. Yani No.142, Gunungparang, Kec. Cikole, Kota Sukabumi, Jawa Barat 43111";"Jl. A. Yani No.142, Gunungparang, Kec. Cikole, Kota Sukabumi";"JAWA BARAT";"43111";"Indonesia";" 081385012021";"";"";"-6.9225374";"106.9299608";"https://maps.google.com/?cid=0x0:0xa73c7e69f8df97e1";""
"mall";"mall";"Jawa Barat 43112";"Kebonjati, Kec. Cikole, Kota Sukabumi, Jawa Barat";"Kota Sukabumi, Jawa Barat";"JAWA BARAT";"";"Indonesia";"";"";"";"-6.9214845";"106.9353993";"https://maps.google.com/?cid=0x0:0x6183dc416b547c58";""
"mall";"Toko bahan makanan";"Warung Karoehun Abah Kole";"Jl. Rumah Sakit Belakang Jl. Cikole Dalam No.rt 04/07, Cikole, Kec. Cikole, Kota Sukabumi, Jawa Barat 43113";"Cikole, Kec. Cikole, Kota Sukabumi";"JAWA BARAT";"43113";"Indonesia";" 081278757219";"";"";"-6.9175045";"106.9332639";"https://maps.google.com/?cid=0x0:0xe87dd6353d55df9";""
"mall";"Ruang Kerja Bersama";"Bumi Arsa Creative Space";"Jl. RH. Didi Sukardi No.37, Gedongpanjang, Kec. Citamiang, Kota Sukabumi, Jawa Barat 43143";"Gedongpanjang, Kec. Citamiang, Kota Sukabumi";"JAWA BARAT";"43143";"Indonesia";" 081386095151";"";"";"-6.93405";"106.93194";"https://maps.google.com/?cid=0x0:0x177857d23615d9b2";""
"mall";"Pusat Perbelanjaan";"PASAR ATAS VS EVERYBODY";"3WMJ+4CW, Jl. Dewi Sartika, Cikole, Kec. Cikole, Kota Sukabumi, Jawa Barat 43113";"Jl. Dewi Sartika, Cikole, Kec. Cikole, Kota Sukabumi";"JAWA BARAT";"43113";"Indonesia";"";"";"";"-6.9171438";"106.9310759";"https://maps.google.com/?cid=0x0:0x84f7eb80d58d3f37";""
"mall";"Toko Pakaian";"SOPHIE PARIS BC. Deden Deni Idris";"Jl. RA Kosasih No.11 Pintuhek, Kebonjati, Kec. Cikole, Kota Sukabumi, Jawa Barat 43112";"Kebonjati, Kec. Cikole, Kota Sukabumi";"JAWA BARAT";"43112";"Indonesia";" 08154639898";"";"";"-6.9229529";"106.9358494";"https://maps.google.com/?cid=0x0:0x5eefc8166de1ad89";""
"mall";"Maskapai Penerbangan";"Citimall Sukabumi";"Jl. A. Yani No.121-127, Gunungparang, Kec. Cikole, Kota Sukabumi, Jawa Barat 43111";"Gunungparang, Kec. Cikole, Kota Sukabumi";"JAWA BARAT";"43111";"Indonesia";" 0266232820";"";"";"-6.9216947";"106.9286093";"https://maps.google.com/?cid=0x0:0x25d779dd316516f7";""
"mall";"Taman";"Triloka Dago Sukabumi";"Jl. Ir. H. Juanda, Cikole, Kec. Cikole, Kota Sukabumi, Jawa Barat 43111";"Cikole, Kec. Cikole, Kota Sukabumi";"JAWA BARAT";"43111";"Indonesia";" 085624575859";"";"";"-6.9202373";"106.931252";"https://maps.google.com/?cid=0x0:0xb7c38166ec4a79a3";""
"mall";"Restoran";"Toserba Selamat";"Jl. R. E. Martadinata No.67-515, Kebonjati, Kec. Cikole, Kota Sukabumi, Jawa Barat 43113";"Kebonjati, Kec. Cikole, Kota Sukabumi";"JAWA BARAT";"43113";"Indonesia";" 0266243734";"";"/url?q>>u003dhttp://www.toserbaselamat.id/>>u0026opi>>u003d79508299>>u0026sa>>u003dU>>u0026ved>>u003d0ahUKEwj3jdnppvyLAxVyxzgGHZerJskQ61gIFigS>>u0026usg>>u003dAOvVaw3rV7P5WtJlR0hte-jjX4ho";"-6.9210805";"106.9348566";"https://maps.google.com/?cid=0x0:0x116464f8e24a0e41";""
"mall";"Toko bahan makanan";"Warung Karoehun Abah Kole";"Jl. Rumah Sakit Belakang Jl. Cikole Dalam No.rt 04/07, Cikole, Kec. Cikole, Kota Sukabumi, Jawa Barat 43113";"Cikole, Kec. Cikole, Kota Sukabumi";"JAWA BARAT";"43113";"Indonesia";" 081278757219";"";"";"-6.9175045";"106.9332639";"https://maps.google.com/?cid=0x0:0xe87dd6353d55df9";""
"mall";"Pasar";"Sekar Wangi PT";"Jl. Siliwangi No.76, Cikole, Kec. Cikole, Kota Sukabumi, Jawa Barat 43113";"Cikole, Kec. Cikole, Kota Sukabumi";"JAWA BARAT";"43113";"Indonesia";" 0266531603";"";"";"-6.9180814";"106.9364349";"https://maps.google.com/?cid=0x0:0x34879541185edea8";""
"mall";"Pusat Perbelanjaan";"Mall";"Jl. Surya Kencana No.39, Selabatu, Kec. Cikole, Kota Sukabumi, Jawa Barat 43114";"Selabatu, Kec. Cikole, Kota Sukabumi";"JAWA BARAT";"43114";"Indonesia";"";"";"";"-6.9165906";"106.9313505";"https://maps.google.com/?cid=0x0:0xda7389e503ea1218";""
"mall";"Pusat Perbelanjaan";"PASAR ATAS VS EVERYBODY";"3WMJ+4CW, Jl. Dewi Sartika, Cikole, Kec. Cikole, Kota Sukabumi, Jawa Barat 43113";"Jl. Dewi Sartika, Cikole, Kec. Cikole, Kota Sukabumi";"JAWA BARAT";"43113";"Indonesia";"";"";"";"-6.9171438";"106.9310759";"https://maps.google.com/?cid=0x0:0x84f7eb80d58d3f37";""
"mall";"Pusat Perbelanjaan";"toko umm geledog";"Jl. Dewi Sartika, Cikole, Kec. Cikole, Kota Sukabumi, Jawa Barat 43113";"Cikole, Kec. Cikole, Kota Sukabumi";"JAWA BARAT";"43113";"Indonesia";" 0811115040";"";"";"-6.9170164";"106.9308871";"https://maps.google.com/?cid=0x0:0xddce8b6f2b0a33a5";""
"mall";"Pusat Perbelanjaan";"Lejel Sukabumi";"3WGQ+QPG, Gg. Mahmud, Cisarua, Kec. Cikole, Kota Sukabumi, Jawa Barat 43115";"Gg. Mahmud, Cisarua, Kec. Cikole, Kota Sukabumi";"JAWA BARAT";"43115";"Indonesia";" 0266229911";"";"/url?q>>u003dhttps://lejel.co.id/>>u0026opi>>u003d79508299>>u0026sa>>u003dU>>u0026ved>>u003d0ahUKEwiS_prrpvyLAxVc3jgGHXY_JMcQ61gIFSgR>>u0026usg>>u003dAOvVaw0kwb52yatGvZZ53GOsucUm";"-6.9230571";"106.9393218";"https://maps.google.com/?cid=0x0:0xef6819e540c543d3";""
"mall";"Toko Pakaian";"Matahari Departement Store";"Citimall Sukabumi Lt. 1- 2, Jl. A. Yani No.125-127, Gunungparang, Kec. Cikole, Kota Sukabumi, Jawa Barat 43111";"Jl. A. Yani No.125-127, Gunungparang, Kec. Cikole, Kota Sukabumi";"JAWA BARAT";"43111";"Indonesia";" 0266232816";"";"/url?q>>u003dhttp://www.matahari.co.id/>>u0026opi>>u003d79508299>>u0026sa>>u003dU>>u0026ved>>u003d0ahUKEwjJ29PrpvyLAxVZXGwGHdcLM3oQ61gIFigS>>u0026usg>>u003dAOvVaw26rTLfs0DNXUXljMVin_3e";"-6.9218068";"106.9288177";"https://maps.google.com/?cid=0x0:0xce2be0afaff8de48";""
"mall";"Toko Ponsel";"Erafone Megastore Sukabumi";"Jl. A. Yani No.130, Gunungparang, Kec. Cikole, Kota Sukabumi, Jawa Barat 43111";"Gunungparang, Kec. Cikole, Kota Sukabumi";"JAWA BARAT";"43111";"Indonesia";" 02666225944";"";"/url?q>>u003dhttp://erafone.com/>>u0026opi>>u003d79508299>>u0026sa>>u003dU>>u0026ved>>u003d0ahUKEwifqu_rpvyLAxXjxzgGHdj4DTMQ61gIFigS>>u0026usg>>u003dAOvVaw1Ommb0Gmp64DJveVqL-Qkb";"-6.9225051";"106.929651";"https://maps.google.com/?cid=0x0:0x168ef686e81c4d90";""
"mall";"";"Grosir Berkah";"3WGQ+V6P, Jl. R.A. Kosasih gang Juli, Cisarua, Kec. Cikole, Kota Sukabumi, Jawa Barat";"Kota Sukabumi, Jawa Barat";"JAWA BARAT";"";"Indonesia";" 087786919994";"";"/url?q>>u003dhttps://www.instagram.com/gb_grosirberkah%3Figsh%3DMTU2Nmp3N2FmeGxkdg%3D%3D>>u0026opi>>u003d79508299>>u0026sa>>u003dU>>u0026ved>>u003d0ahUKEwibmvzrpvyLAxWfUGcHHV_rLUEQ61gIFSgR>>u0026usg>>u003dAOvVaw37_HEu8L4BNgPPUDE4R4WT";"-6.9227997";"106.9380778";"https://maps.google.com/?cid=0x0:0x1393995ec0c2f102";""
"mall";"Pusat Perbelanjaan";"Lobby Utama Citymal Sukabumi";"3WHH+3GV, Jl. A. Yani, Gunungparang, Kec. Cikole, Kota Sukabumi, Jawa Barat 43131";"Jl. A. Yani, Gunungparang, Kec. Cikole, Kota Sukabumi";"JAWA BARAT";"43131";"Indonesia";" 083819935432";"";"";"-6.9222508";"106.9288125";"https://maps.google.com/?cid=0x0:0x741b464229dc65eb";""
"mall";"Ahli tembakau";"EL NINO TOBACCO";"Jl. R.A. Kosasih No.397 RT 05 / 07, Kebonjati, Kec. Cikole, Kota Sukabumi, Jawa Barat 43113";"Kebonjati, Kec. Cikole, Kota Sukabumi";"JAWA BARAT";"43113";"Indonesia";" 085722511014";"";"";"-6.9228895";"106.9369527";"https://maps.google.com/?cid=0x0:0x6e71e85ad1f6e26b";""
