Category;Real Category;Business Name;Address;City;State;Postal Code;Country;Phone;Email;Website;Latitude;Longitude;Map Link;Details Link
"komplek housing";"komplek housing";"Panggul";"Kec. Panggul, Kabupaten Trenggalek, Jawa Timur";"Kabupaten Trenggalek, Jawa Timur";"JAWA TIMUR";"";"Indonesia";"";"";"";"-8.2246452";"111.46038";"https://maps.google.com/?cid=0x0:0x47219209696c41cc";""
"komplek housing";"komplek housing";"Jawa Timur 66364";"Kabupaten Trenggalek, Jawa Timur";"Kabupaten Trenggalek, Jawa Timur";"JAWA TIMUR";"";"Indonesia";"";"";"";"-8.2122771";"111.4514369";"https://maps.google.com/?cid=0x0:0x1c00c5eb5b541ac0";""
"komplek housing";"komplek housing";"Linda's House";"QCW9+V9G, Ngromo, Terbis, Kec. Panggul, Kabupaten Trenggalek, Jawa Timur 66364";"Ngromo, Terbis, Kec. Panggul, Kabupaten Trenggalek";"JAWA TIMUR";"66364";"Indonesia";"";"";"";"-8.2028107";"111.4184428";"https://maps.google.com/?cid=0x0:0x623ddef99ae90e58";""
"komplek housing";"Komplek perumahan";"RUROH's House";"QFPQ+PPV, Krajan, Sawahan, Kec. Panggul, Kabupaten Trenggalek, Jawa Timur 66364";"Krajan, Sawahan, Kec. Panggul, Kabupaten Trenggalek";"JAWA TIMUR";"66364";"Indonesia";"";"";"";"-8.2131415";"111.4893049";"https://maps.google.com/?cid=0x0:0xac0bdb70c056dc30";""
"komplek housing";"komplek housing";"Pusuk al home";"QCPX+8F2, Krajan, Kertosono, Kec. Panggul, Kabupaten Trenggalek, Jawa Timur 66364";"Krajan, Kertosono, Kec. Panggul, Kabupaten Trenggalek";"JAWA TIMUR";"66364";"Indonesia";"";"";"";"-8.214232";"111.4486291";"https://maps.google.com/?cid=0x0:0x3f91f52a57dab26e";""
"komplek housing";"Pembangunan Perumahan";"TanHar5";"QF56+C9P, Jl. Panggul-Dongko, Slorok, Nglebeng, Kec. Panggul, Kabupaten Trenggalek, Jawa Timur 66364";"Jl. Panggul-Dongko, Slorok, Nglebeng, Kec. Panggul, Kabupaten Trenggalek";"JAWA TIMUR";"66364";"Indonesia";"";"";"";"-8.240898";"111.460693";"https://maps.google.com/?cid=0x0:0xc88cda6398610145";""
"komplek housing";"Perhimpunan Pengembang Perumahan";"Home";"QF86+J5G, Wonogondo, Ngrencak, Kec. Panggul, Kabupaten Trenggalek, Jawa Timur 66364";"Wonogondo, Ngrencak, Kec. Panggul, Kabupaten Trenggalek";"JAWA TIMUR";"66364";"Indonesia";"";"";"";"-8.2334412";"111.4604529";"https://maps.google.com/?cid=0x0:0x1c8cbf054402cc1c";""
"komplek housing";"Komplek perumahan";"Rumah pak kampek";"QFG6+45R, Madatan, Panggul, Kec. Panggul, Kabupaten Trenggalek, Jawa Timur 66364";"Madatan, Panggul, Kec. Panggul, Kabupaten Trenggalek";"JAWA TIMUR";"66364";"Indonesia";" 085231305506";"";"";"-8.2353173";"111.4568815";"https://maps.google.com/?cid=0x0:0x93c60fbbeb6d42d0";""
"komplek housing";"Komplek perumahan";"rumah Eka Julia";"RFG4+F6R, Krajan, Depok, Kec. Panggul, Kabupaten Trenggalek, Jawa Timur 66364";"Krajan, Depok, Kec. Panggul, Kabupaten Trenggalek";"JAWA TIMUR";"66364";"Indonesia";"";"";"";"-8.1737691";"111.4555029";"https://maps.google.com/?cid=0x0:0xff3f35bbb95e23a7";""
"komplek housing";"Komplek perumahan";"Bojone krisna";"RF52+HW3, Depok, Kec. Panggul, Kabupaten Trenggalek, Jawa Timur 66364";"Depok, Kec. Panggul, Kabupaten Trenggalek";"JAWA TIMUR";"66364";"Indonesia";"";"";"";"-8.1911085";"111.4522914";"https://maps.google.com/?cid=0x0:0x531a1e33fb3c3188";""
"komplek housing";"Komplek perumahan";"Rumah Frendi";"QFC5+QG5, Madatan, Panggul, Kec. Panggul, Kabupaten Trenggalek, Jawa Timur 66364";"Madatan, Panggul, Kec. Panggul, Kabupaten Trenggalek";"JAWA TIMUR";"66364";"Indonesia";"";"";"";"-8.2279402";"111.4584325";"https://maps.google.com/?cid=0x0:0xbf849e9c21619cf4";""
"komplek housing";"Komplek perumahan";"Mbah somuno";"RC2G+F5M, Jompong, Karangtengah, Kec. Panggul, Kabupaten Trenggalek, Jawa Timur 66364";"Jompong, Karangtengah, Kec. Panggul, Kabupaten Trenggalek";"JAWA TIMUR";"66364";"Indonesia";"";"";"";"-8.1988585";"111.42433";"https://maps.google.com/?cid=0x0:0x4fdb294c28129c97";""
"komplek housing";"Komplek perumahan";"omah mak iyah";"QCF7+Q3Q, Kebonduren, Besuki, Kec. Panggul, Kabupaten Trenggalek, Jawa Timur 66364";"Kebonduren, Besuki, Kec. Panggul, Kabupaten Trenggalek";"JAWA TIMUR";"66364";"Indonesia";"";"";"";"-8.2257731";"111.4139012";"https://maps.google.com/?cid=0x0:0x22aefde6e3044c2c";""
"komplek housing";"Komplek perumahan";"Villa H. Sunarto Harjo Kasdi";"Jl. Raya Manggis - Panggul, Salam, Sawahan, Kec. Panggul, Kabupaten Trenggalek, Jawa Timur 66364";"Salam, Sawahan, Kec. Panggul, Kabupaten Trenggalek";"JAWA TIMUR";"66364";"Indonesia";"";"";"";"-8.2134859";"111.474977";"https://maps.google.com/?cid=0x0:0xa9e964431b7c9933";""
"komplek housing";"komplek housing";"Vidshome";"QCMJ+H6W, Karangtengah, Kec. Panggul, Kabupaten Trenggalek, Jawa Timur 66364";"Karangtengah, Kec. Panggul, Kabupaten Trenggalek";"JAWA TIMUR";"66364";"Indonesia";"";"";"";"-8.216009";"111.4305698";"https://maps.google.com/?cid=0x0:0xe7b6b66527c0e9a6";""
"komplek housing";"Komplek perumahan";"Atoshouse";"Jl. MT. Haryono No.90, Karang, Wonocoyo, Kec. Panggul, Kabupaten Trenggalek, Jawa Timur 66364";"Karang, Wonocoyo, Kec. Panggul, Kabupaten Trenggalek";"JAWA TIMUR";"66364";"Indonesia";"";"";"";"-8.2492482";"111.4485451";"https://maps.google.com/?cid=0x0:0x2d1b9591f3d9227e";""
"komplek housing";"komplek housing";"Posko KKN 12 UBHI";"QFPJ+J4R, Krajan, Sawahan, Kec. Panggul, Kabupaten Trenggalek, Jawa Timur 66364";"Krajan, Sawahan, Kec. Panggul, Kabupaten Trenggalek";"JAWA TIMUR";"66364";"Indonesia";"";"";"";"-8.2133944";"111.4802798";"https://maps.google.com/?cid=0x0:0x73343eddb511cb7c";""
"komplek housing";"komplek housing";"Vitaa🔥";"QCWR+GCR, Gebang, Kertosono, Kec. Panggul, Kabupaten Trenggalek, Jawa Timur 66364";"Gebang, Kertosono, Kec. Panggul, Kabupaten Trenggalek";"JAWA TIMUR";"66364";"Indonesia";"";"";"";"-8.20376";"111.440814";"https://maps.google.com/?cid=0x0:0x4d923ade56fbabaa";""
"komplek housing";"Komplek perumahan";"KAZE";"Gebang, Kertosono, Kec. Panggul, Kabupaten Trenggalek, Jawa Timur 66364";"Kertosono, Kec. Panggul, Kabupaten Trenggalek";"JAWA TIMUR";"66364";"Indonesia";" 083866122546";"";"";"-8.2008146";"111.4456158";"https://maps.google.com/?cid=0x0:0xb161f61aec900e86";""
"komplek housing";"komplek housing";"Home - Dimas -";"QFGP+648, Pager, Sawahan, Kec. Panggul, Kabupaten Trenggalek, Jawa Timur 66364";"Pager, Sawahan, Kec. Panggul, Kabupaten Trenggalek";"JAWA TIMUR";"66364";"Indonesia";"";"";"";"-8.2254011";"111.4864469";"https://maps.google.com/?cid=0x0:0x98bf59ec89b78dd2";""
"komplek housing";"komplek housing";"Rumah yunda";"QF9G+95G, RT.19/RW.07, Dusun kasihan, Ngrencak, Kec. Panggul, Kabupaten Trenggalek, Jawa Timur 66364";"RT.19/RW.07, Dusun kasihan, Ngrencak, Kec. Panggul, Kabupaten Trenggalek";"JAWA TIMUR";"66364";"Indonesia";"";"";"";"-8.2315654";"111.4754495";"https://maps.google.com/?cid=0x0:0x98bd7d5d104d514c";""
"komplek housing";"Komplek perumahan";"Rumah Ekhsannudin";"PCWP+3MQ, Unnamed Road, Bendogolor, Wonocoyo, Panggul, Trenggalek Regency, East Java 66364";"Unnamed Road, Bendogolor, Wonocoyo, Panggul, Trenggalek Regency";"JAWA TIMUR";"66364";"Indonesia";" 085232591132";"";"/url?q>>u003dhttp://alkhazny.blogspot.com/>>u0026opi>>u003d79508299>>u0026sa>>u003dU>>u0026ved>>u003d0ahUKEwiY-oi9rs6LAxWBQ2cHHTUmCMQQ61gIFSgR>>u0026usg>>u003dAOvVaw1AMhdfRaXRAnmAJSp4ksZJ";"-8.2547936";"111.4367495";"https://maps.google.com/?cid=0x0:0xcb6b90dabaf60860";""
"komplek housing";"Komplek perumahan";"Aulia";"PFJ4+CH8, RT.21/RW.07, Sukorejo, Nglebeng, Kec. Panggul, Kabupaten Trenggalek, Jawa Timur 66364";"RT.21/RW.07, Sukorejo, Nglebeng, Kec. Panggul, Kabupaten Trenggalek";"JAWA TIMUR";"66364";"Indonesia";"";"";"";"-8.2689573";"111.4564567";"https://maps.google.com/?cid=0x0:0x2bbac42bebfc67ee";""
"komplek housing";"Pembangunan Perumahan";"Bayu Home";"QFF2+H79, Krajan, Kertosono, Kec. Panggul, Kabupaten Trenggalek, Jawa Timur 66364";"Krajan, Kertosono, Kec. Panggul, Kabupaten Trenggalek";"JAWA TIMUR";"66364";"Indonesia";"";"";"";"-8.2260856";"111.450721";"https://maps.google.com/?cid=0x0:0xf572be8a2b594108";""
"komplek housing";"komplek housing";"My home (ROKHIM_POGO)";"QFGP+648, Pager, Sawahan, Kec. Panggul, Kabupaten Trenggalek, Jawa Timur 66364";"Pager, Sawahan, Kec. Panggul, Kabupaten Trenggalek";"JAWA TIMUR";"66364";"Indonesia";"";"";"";"-8.224456";"111.4853334";"https://maps.google.com/?cid=0x0:0xb39fe002807c3301";""
"komplek housing";"Perhimpunan Pengembang Perumahan";"Perumahan";"QCRG+XC9, Tanjung, Karangtengah, Kec. Panggul, Kabupaten Trenggalek, Jawa Timur 66364";"Tanjung, Karangtengah, Kec. Panggul, Kabupaten Trenggalek";"JAWA TIMUR";"66364";"Indonesia";"";"";"";"-8.2075972";"111.4261176";"https://maps.google.com/?cid=0x0:0x46fe10ee1958eafc";""
"komplek housing";"komplek housing";"Mbakalan squad";"QFM2+96F, Norejo, Kertosono, Kec. Panggul, Kabupaten Trenggalek, Jawa Timur 66364";"Norejo, Kertosono, Kec. Panggul, Kabupaten Trenggalek";"JAWA TIMUR";"66364";"Indonesia";"";"";"";"-8.2165641";"111.4505535";"https://maps.google.com/?cid=0x0:0xa99907b3a713618f";""
"komplek housing";"Pasar";"Munjungan";"MHWG+QVQ, Munjungan, Kec. Munjungan, Kabupaten Trenggalek, Jawa Timur 66365";"Munjungan, Kec. Munjungan, Kabupaten Trenggalek";"JAWA TIMUR";"66365";"Indonesia";"";"";"";"-8.3030436";"111.5772342";"https://maps.google.com/?cid=0x0:0xcfbb2b3dcc64fd5e";""
"komplek housing";"komplek housing";"Mohammad sholikin";"MJW2+RQX, RT.26/RW.06, Gabahan, Tawing, Kec. Munjungan, Kabupaten Trenggalek, Jawa Timur 66365";"RT.26/RW.06, Gabahan, Tawing, Kec. Munjungan, Kabupaten Trenggalek";"JAWA TIMUR";"66365";"Indonesia";"";"";"";"-8.302882";"111.6019958";"https://maps.google.com/?cid=0x0:0xe209ac72d5b55f92";""
"komplek housing";"Perumahan";"Rmh mbah No";"MGX4+325, Weru, Ngulungkulon, Kec. Munjungan, Kabupaten Trenggalek, Jawa Timur 66365";"Weru, Ngulungkulon, Kec. Munjungan, Kabupaten Trenggalek";"JAWA TIMUR";"66365";"Indonesia";"";"";"";"-8.301972";"111.503548";"https://maps.google.com/?cid=0x0:0xd718e76770fb26be";""
"komplek housing";"Komplek perumahan";"Home Ojan";"MJX9+458, Botorawe, Bendoroto, Kec. Munjungan, Kabupaten Trenggalek, Jawa Timur 66365";"Botorawe, Bendoroto, Kec. Munjungan, Kabupaten Trenggalek";"JAWA TIMUR";"66365";"Indonesia";"";"";"";"-8.3022202";"111.6179642";"https://maps.google.com/?cid=0x0:0x30e96f776cf69300";""
"komplek housing";"Komplek perumahan";"Home";"PJ7M+C2G, RT.10/RW.04, Ngrampal, Bangun, Kec. Munjungan, Kabupaten Trenggalek, Jawa Timur 66365";"RT.10/RW.04, Ngrampal, Bangun, Kec. Munjungan, Kabupaten Trenggalek";"JAWA TIMUR";"66365";"Indonesia";"";"";"";"-8.2864439";"111.6325748";"https://maps.google.com/?cid=0x0:0x385b705fd2e13b5d";""
"komplek housing";"komplek housing";"Esmoni HOME";"PHJG+RPW, Kebonsari, Karangturi, Kec. Munjungan, Kabupaten Trenggalek, Jawa Timur 66365";"Kebonsari, Karangturi, Kec. Munjungan, Kabupaten Trenggalek";"JAWA TIMUR";"66365";"Indonesia";"";"";"";"-8.2681258";"111.5767458";"https://maps.google.com/?cid=0x0:0x845096ab8dab1b43";""
"komplek housing";"Komplek perumahan";"Rumah noviana candra";"PHC6+VGV, RT.52/RW.12, Gembes, Masaran, Kec. Munjungan, Kabupaten Trenggalek, Jawa Timur 66365";"RT.52/RW.12, Gembes, Masaran, Kec. Munjungan, Kabupaten Trenggalek";"JAWA TIMUR";"66365";"Indonesia";"";"";"";"-8.2777629";"111.5612902";"https://maps.google.com/?cid=0x0:0xf675ad38baa2adcc";""
"komplek housing";"Komplek perumahan";"Widha's House";"Rt 56, Rw 12 Desa Masaran Munjungan, Kec. Dongko";"Kabupaten Trenggalek, Jawa Timur";"JAWA TIMUR";"";"Indonesia";"";"";"";"-8.2772581";"111.5599051";"https://maps.google.com/?cid=0x0:0x8037e52be9db7904";""
"komplek housing";"Komplek perumahan";"Trans darat";"PHFJ+6X5, Jl. Raya Kampak-Munjungan, Karangturi, Kec. Munjungan, Kabupaten Trenggalek, Jawa Timur 66365";"Jl. Raya Kampak-Munjungan, Karangturi, Kec. Munjungan, Kabupaten Trenggalek";"JAWA TIMUR";"66365";"Indonesia";"";"";"";"-8.2769826";"111.5824968";"https://maps.google.com/?cid=0x0:0x991e8b747dff0e09";""
"komplek housing";"Komplek perumahan";"Masjudin";"Rt10, RW.02, Karanglo, Masaran, Kec. Munjungan, Kabupaten Trenggalek, Jawa Timur 66365";"RW.02, Karanglo, Masaran, Kec. Munjungan, Kabupaten Trenggalek";"JAWA TIMUR";"66365";"Indonesia";"";"";"";"-8.2934382";"111.5647165";"https://maps.google.com/?cid=0x0:0xf29ee26ff843d615";""
"komplek housing";"Perhimpunan Pengembang Perumahan";"Mbah.gini home";"PJ8G+W33, Parang, Bangun, Kec. Munjungan, Kabupaten Trenggalek, Jawa Timur 66365";"Parang, Bangun, Kec. Munjungan, Kabupaten Trenggalek";"JAWA TIMUR";"66365";"Indonesia";"";"";"";"-8.2827456";"111.6251637";"https://maps.google.com/?cid=0x0:0xb049450133ea8f8";""
"komplek housing";"Komplek perumahan";"Muhamad Alfarizi";"Krajan Karangturi, Karangturi, Kec. Munjungan, Kabupaten Trenggalek, Jawa Timur 66365";"Karangturi, Kec. Munjungan, Kabupaten Trenggalek";"JAWA TIMUR";"66365";"Indonesia";"";"";"";"-8.2796976";"111.5803443";"https://maps.google.com/?cid=0x0:0xa429c17a0ba63564";""
"komplek housing";"Komplek perumahan";"indah olshop";"PJQ2+858, Kebon, Besuki, Kec. Munjungan, Kabupaten Trenggalek, Jawa Timur 66365";"Kebon, Besuki, Kec. Munjungan, Kabupaten Trenggalek";"JAWA TIMUR";"66365";"Indonesia";"";"";"";"-8.2619368";"111.60103";"https://maps.google.com/?cid=0x0:0x9acb944aec07c15f";""
"komplek housing";"Komplek perumahan";"Ikra Home";"MJW3+H39, Gabahan, Tawing, Kec. Munjungan, Kabupaten Trenggalek, Jawa Timur 66365";"Gabahan, Tawing, Kec. Munjungan, Kabupaten Trenggalek";"JAWA TIMUR";"66365";"Indonesia";"";"";"";"-8.3035948";"111.6027451";"https://maps.google.com/?cid=0x0:0xb072cb915a0831d4";""
"komplek housing";"Komplek perumahan";"Xyxzx";"MHVJ+9FX, Munjungan, Kec. Munjungan, Kabupaten Trenggalek, Jawa Timur 66365";"Munjungan, Kec. Munjungan, Kabupaten Trenggalek";"JAWA TIMUR";"66365";"Indonesia";"";"";"";"-8.3065125";"111.5812344";"https://maps.google.com/?cid=0x0:0xd0514a32d27bba22";""
"komplek housing";"Pembangunan Perumahan";"Rumah nuha";"Rt12, RW.04, Ludelep, Craken, Kec. Munjungan, Kabupaten Trenggalek, Jawa Timur 66365";"RW.04, Ludelep, Craken, Kec. Munjungan, Kabupaten Trenggalek";"JAWA TIMUR";"66365";"Indonesia";"";"";"";"-8.2954545";"111.5289438";"https://maps.google.com/?cid=0x0:0xbc9bb75db688a6d2";""
"komplek housing";"Komplek perumahan";"Lokananta intertaiment";"RT.41/RW.09, Gn. Kembar, Tawing, Kec. Munjungan, Kabupaten Trenggalek, Jawa Timur 66365";"Gn. Kembar, Tawing, Kec. Munjungan, Kabupaten Trenggalek";"JAWA TIMUR";"66365";"Indonesia";"";"";"";"-8.3108333";"111.5912332";"https://maps.google.com/?cid=0x0:0xd371fb363eb4e0ca";""
"komplek housing";"Komplek perumahan";"TUMARNI HOME";"PG74+29W, RT.15/RW.03, Dsn.ngledok, Sobo, Kec. Munjungan, Kabupaten Trenggalek, Jawa Timur 66365";"RT.15/RW.03, Dsn.ngledok, Sobo, Kec. Munjungan, Kabupaten Trenggalek";"JAWA TIMUR";"66365";"Indonesia";"";"";"";"-8.287397";"111.5059567";"https://maps.google.com/?cid=0x0:0x743b0491877c5436";""
"komplek housing";"Komplek perumahan";"Lawiyah Family";"PH68+5WR, Gembes, Masaran, Kec. Munjungan, Kabupaten Trenggalek, Jawa Timur 66365";"Gembes, Masaran, Kec. Munjungan, Kabupaten Trenggalek";"JAWA TIMUR";"66365";"Indonesia";"";"";"";"-8.2895049";"111.567256";"https://maps.google.com/?cid=0x0:0xdb1d8a24baf43431";""
"komplek housing";"komplek housing";"Kec. Munjungan";"Kabupaten Trenggalek, Jawa Timur";"Kabupaten Trenggalek, Jawa Timur";"JAWA TIMUR";"";"Indonesia";"";"";"";"-8.3027751";"111.5765404";"https://maps.google.com/?cid=0x0:0x4027a76e3531eb0";""
"komplek housing";"komplek housing";"Dhentra Pande Muda";"PG67+HJF, RT.01/RW.01, dusun ngondo, Sobo, Kec. Munjungan, Kabupaten Trenggalek, Jawa Timur 66365";"RT.01/RW.01, dusun ngondo, Sobo, Kec. Munjungan, Kabupaten Trenggalek";"JAWA TIMUR";"66365";"Indonesia";"";"";"";"-8.2885687";"111.5140386";"https://maps.google.com/?cid=0x0:0xfcabbeb613512aa9";""
"komplek housing";"Komplek perumahan";"OMAH E KIKIS";"PG5W+2J8, Ngaliran, Masaran, Kec. Munjungan, Kabupaten Trenggalek, Jawa Timur 66365";"Ngaliran, Masaran, Kec. Munjungan, Kabupaten Trenggalek";"JAWA TIMUR";"66365";"Indonesia";"";"";"";"-8.2925618";"111.5484558";"https://maps.google.com/?cid=0x0:0x40fc188337defb61";""
"komplek housing";"komplek housing";"Rumah Khotim";"PHMW+92W, Kayuputih, Besuki, Kec. Munjungan, Kabupaten Trenggalek, Jawa Timur 66365";"Kayuputih, Besuki, Kec. Munjungan, Kabupaten Trenggalek";"JAWA TIMUR";"66365";"Indonesia";"";"";"";"-8.2657786";"111.5937638";"https://maps.google.com/?cid=0x0:0x1771cb82f3ff954d";""
"komplek housing";"Komplek perumahan";"Dea";"PH6J+748, Bungur, Munjungan, Kec. Munjungan, Kabupaten Trenggalek, Jawa Timur 66365";"Bungur, Munjungan, Kec. Munjungan, Kabupaten Trenggalek";"JAWA TIMUR";"66365";"Indonesia";"";"";"";"-8.289918";"111.580556";"https://maps.google.com/?cid=0x0:0x237ba4fa0aa799cd";""
"komplek housing";"Perumahan";"Rumah";"MJW2+RQX, Gabahan, Tawing, Kec. Munjungan, Kabupaten Trenggalek, Jawa Timur 66365";"Gabahan, Tawing, Kec. Munjungan, Kabupaten Trenggalek";"JAWA TIMUR";"66365";"Indonesia";"";"";"";"-8.302882";"111.6019958";"https://maps.google.com/?cid=0x0:0x14f25d5a10360593";""
"komplek housing";"Otoritas Perumahan";"Rumah dastian";"PH4C+F3W, Karangnongko, Masaran, Kec. Munjungan, Kabupaten Trenggalek, Jawa Timur 66365";"Karangnongko, Masaran, Kec. Munjungan, Kabupaten Trenggalek";"JAWA TIMUR";"66365";"Indonesia";" 082228804613";"";"";"-8.294049";"111.570063";"https://maps.google.com/?cid=0x0:0x547cd0b669c648f0";""
"komplek housing";"Komplek perumahan";"Rumah nuha";"MGQF+4HF, Ngadipuro, Craken, Kec. Munjungan, Kabupaten Trenggalek, Jawa Timur 66365";"Ngadipuro, Craken, Kec. Munjungan, Kabupaten Trenggalek";"JAWA TIMUR";"66365";"Indonesia";"";"";"";"-8.312078";"111.5240575";"https://maps.google.com/?cid=0x0:0xcf1a0d2e53eed316";""
"komplek housing";"Bed >>u0026 Breakfast";"RumahHanny";"PH58+837, Karanglo, Masaran, Kec. Munjungan, Kabupaten Trenggalek, Jawa Timur 66365";"Karanglo, Masaran, Kec. Munjungan, Kabupaten Trenggalek";"JAWA TIMUR";"66365";"Indonesia";"";"";"";"-8.2915878";"111.5650198";"https://maps.google.com/?cid=0x0:0xca79675d78d5ab21";""
"komplek housing";"Komplek perumahan";"Rumahku";"PH3H+63M, Krangtewa, Munjungan, Kec. Munjungan, Kabupaten Trenggalek, Jawa Timur 66365";"Krangtewa, Munjungan, Kec. Munjungan, Kabupaten Trenggalek";"JAWA TIMUR";"66365";"Indonesia";"";"";"";"-8.2968198";"111.5776842";"https://maps.google.com/?cid=0x0:0x56beee31fbb3dc45";""
"komplek housing";"Komplek perumahan";"Della Home";"WG8W+QCR, Krajan, Tanggaran, Kec. Pule, Kabupaten Trenggalek, Jawa Timur 66362";"Krajan, Tanggaran, Kec. Pule, Kabupaten Trenggalek";"JAWA TIMUR";"66362";"Indonesia";"";"";"";"-8.0831002";"111.5463319";"https://maps.google.com/?cid=0x0:0xa17329fe18ec6190";""
"komplek housing";"Komplek perumahan";"MUKRI HOME";"Jl. Pule-Tugu, Depok, Pule, Kec. Pule, Kabupaten Trenggalek, Jawa Timur 66362";"Depok, Pule, Kec. Pule, Kabupaten Trenggalek";"JAWA TIMUR";"66362";"Indonesia";"";"";"";"-8.1105684";"111.5670083";"https://maps.google.com/?cid=0x0:0x34f910f2152d0651";""
"komplek housing";"Perhimpunan Pengembang Perumahan";"K.Sudarno Home";"Ngrandu, Joho, Kec. Pule, Kabupaten Trenggalek, Jawa Timur 66362";"Joho, Kec. Pule, Kabupaten Trenggalek";"JAWA TIMUR";"66362";"Indonesia";"";"";"";"-8.1541255";"111.5332588";"https://maps.google.com/?cid=0x0:0x102cb8bd83079213";""
"komplek housing";"komplek housing";"𝓡𝓽 𝓱𝓸𝓶𝓮";"RGRP+9G6, Ngrandu, Joho, Kec. Pule, Kabupaten Trenggalek, Jawa Timur 66362";"Ngrandu, Joho, Kec. Pule, Kabupaten Trenggalek";"JAWA TIMUR";"66362";"Indonesia";"";"";"";"-8.1594984";"111.5362746";"https://maps.google.com/?cid=0x0:0xc28f65f861eb53ac";""
"komplek housing";"komplek housing";"Ganesa home";"Rt21, RW.11, Gugur, Pule, Trenggalek Regency, East Java 66362";"RW.11, Gugur, Pule, Trenggalek Regency";"JAWA TIMUR";"66362";"Indonesia";"";"";"";"-8.1111801";"111.5460667";"https://maps.google.com/?cid=0x0:0xedd0d7337e01ae46";""
"komplek housing";"Pembangunan Perumahan";"Abi home";"VHV7+9J4, Depok, Pule, Kec. Pule, Kabupaten Trenggalek, Jawa Timur 66362";"Depok, Pule, Kec. Pule, Kabupaten Trenggalek";"JAWA TIMUR";"66362";"Indonesia";"";"";"";"-8.106201";"111.56342";"https://maps.google.com/?cid=0x0:0x5126cade4ba32f25";""
"komplek housing";"Pembangunan Perumahan";"Pertigaan Bangunsari - Pule";"VH83+G6W, Jalan Raya, Bangunsari, Pule, Trenggalek Regency, East Java 66362";"Jalan Raya, Bangunsari, Pule, Trenggalek Regency";"JAWA TIMUR";"66362";"Indonesia";"";"";"";"-8.1336449";"111.5530902";"https://maps.google.com/?cid=0x0:0x93e9d12a1d2d0800";""
"komplek housing";"Perhimpunan Pengembang Perumahan";"Puyung ,pule kab trenggalek";"VGC7+GM8, Rt18 rw09 pojok, RT.15/RW.08, Sendang, Puyung, Kec. Pule, Kabupaten Trenggalek, Jawa Timur 66362";"Rt18 rw09 pojok, RT.15/RW.08, Sendang, Puyung, Kec. Pule, Kabupaten Trenggalek";"JAWA TIMUR";"66362";"Indonesia";"";"";"";"-8.1402475";"111.5113354";"https://maps.google.com/?cid=0x0:0x34410bfd1985ee4";""
"komplek housing";"komplek housing";"Rumah Pak Siswoyo";"VH64+QCV, Bangunsari, Pule, Kec. Pule, Kabupaten Trenggalek, Jawa Timur 66362";"Bangunsari, Pule, Kec. Pule, Kabupaten Trenggalek";"JAWA TIMUR";"66362";"Indonesia";"";"";"";"-8.1381525";"111.55562";"https://maps.google.com/?cid=0x0:0x7f239b7bba9efce1";""
"komplek housing";"Perhimpunan Pengembang Perumahan";"Babe Nano Home";"VG6G+HF, Krajan, Pakel, Kec. Pule, Kabupaten Trenggalek, Jawa Timur 66362";"Krajan, Pakel, Kec. Pule, Kabupaten Trenggalek";"JAWA TIMUR";"66362";"Indonesia";"";"";"";"-8.1385";"111.5261483";"https://maps.google.com/?cid=0x0:0xfbdd17520dbd97d";""
"komplek housing";"komplek housing";"MAYA HOME";"VH53+GQM, Bangunsari, Pule, Kec. Pule, Kabupaten Trenggalek, Jawa Timur 66362";"Bangunsari, Pule, Kec. Pule, Kabupaten Trenggalek";"JAWA TIMUR";"66362";"Indonesia";"";"";"";"-8.1410576";"111.5543948";"https://maps.google.com/?cid=0x0:0x9536ca611082f9f9";""
"komplek housing";"Komplek perumahan";"Pertigaan Tempel - Sodo";"VG3C+RMW, Krajan, Kembangan, Kec. Pule, Kabupaten Trenggalek, Jawa Timur 66362";"Krajan, Kembangan, Kec. Pule, Kabupaten Trenggalek";"JAWA TIMUR";"66362";"Indonesia";"";"";"";"-8.1453962";"111.5216967";"https://maps.google.com/?cid=0x0:0x9f8b3a3679ea687e";""
"komplek housing";"komplek housing";"Rumah Boss muda";"VG4M+F76, Turi, Kembangan, Kec. Pule, Kabupaten Trenggalek, Jawa Timur 66362";"Turi, Kembangan, Kec. Pule, Kabupaten Trenggalek";"JAWA TIMUR";"66362";"Indonesia";"";"";"";"-8.1438359";"111.5331498";"https://maps.google.com/?cid=0x0:0x5f54949c5589fcf8";""
"komplek housing";"komplek housing";"ZK CCTV";"VHC7+J76, Bangunsari, Pule, Kec. Pule, Kabupaten Trenggalek, Jawa Timur 66362";"Bangunsari, Pule, Kec. Pule, Kabupaten Trenggalek";"JAWA TIMUR";"66362";"Indonesia";" 085259896439";"";"";"-8.1284579";"111.5631523";"https://maps.google.com/?cid=0x0:0x833af229381f8bbf";""
"komplek housing";"Pembangunan Perumahan";"Nininhome";"VG4M+GC8, Turi, Kembangan, Kec. Pule, Kabupaten Trenggalek, Jawa Timur 66362";"Turi, Kembangan, Kec. Pule, Kabupaten Trenggalek";"JAWA TIMUR";"66362";"Indonesia";"";"";"";"-8.143121";"111.5336128";"https://maps.google.com/?cid=0x0:0xe345c793ef8449f2";""
"komplek housing";"Pembangunan Perumahan";"Dimaz home";"VHH8+2FW, Krajan, Pule, Kec. Pule, Kabupaten Trenggalek, Jawa Timur";"Kabupaten Trenggalek, Jawa Timur";"JAWA TIMUR";"";"Indonesia";"";"";"";"-8.1223791";"111.566207";"https://maps.google.com/?cid=0x0:0xd14694222559b231";""
"komplek housing";"komplek housing";"Hapid home";"RGQH+8HG, Ngrandu, Joho, Kec. Pule, Kabupaten Trenggalek, Jawa Timur 66362";"Ngrandu, Joho, Kec. Pule, Kabupaten Trenggalek";"JAWA TIMUR";"66362";"Indonesia";"";"";"";"-8.1616905";"111.5289438";"https://maps.google.com/?cid=0x0:0xcf74b06feaf274a2";""
"komplek housing";"Komplek perumahan";"Mampiro Lek";"VG5X+659, Nggladak, Pakel, Kec. Pule, Kabupaten Trenggalek, Jawa Timur 66362";"Nggladak, Pakel, Kec. Pule, Kabupaten Trenggalek";"JAWA TIMUR";"66362";"Indonesia";"";"";"";"-8.14204";"111.548065";"https://maps.google.com/?cid=0x0:0x6a0577a7541fe6a";""
"komplek housing";"Perhimpunan Pengembang Perumahan";"Pandu purwanto chanel";"RT.037/RW.11, Ngrandu, Joho, Kec. Pule, Kabupaten Trenggalek, Jawa Timur 66362";"Ngrandu, Joho, Kec. Pule, Kabupaten Trenggalek";"JAWA TIMUR";"66362";"Indonesia";" 082244654690";"";"";"-8.1546313";"111.5323381";"https://maps.google.com/?cid=0x0:0xfe2f102a09fadc1a";""
"komplek housing";"komplek housing";"Kec. Pule";"Kabupaten Trenggalek, Jawa Timur";"Kabupaten Trenggalek, Jawa Timur";"JAWA TIMUR";"";"Indonesia";"";"";"";"-8.1336233";"111.5530333";"https://maps.google.com/?cid=0x0:0x4027a76e3531e90";""
"komplek housing";"komplek housing";"Happy";"Rt55, RW.15, Sidem, Jombok, Kec. Pule, Kabupaten Trenggalek, Jawa Timur 66362";"RW.15, Sidem, Jombok, Kec. Pule, Kabupaten Trenggalek";"JAWA TIMUR";"66362";"Indonesia";"";"";"";"-8.0973792";"111.5788563";"https://maps.google.com/?cid=0x0:0x18fdb9f6e4e83987";""
"komplek housing";"Perhimpunan Pengembang Perumahan";"Home stay" POER"";"WH6J+HGC, RT.39/RW.11, Bakalan, Jombok, Kec. Pule, Kabupaten Trenggalek, Jawa Timur 66362";"RT.39/RW.11, Bakalan, Jombok, Kec. Pule, Kabupaten Trenggalek";"JAWA TIMUR";"66362";"Indonesia";"";"";"";"-8.088574";"111.581277";"https://maps.google.com/?cid=0x0:0x90516dfcd202ab98";""
"komplek housing";"Pembangunan Perumahan";"PAIMUN HOME";"WH6H+RQX, RT.39/RW.11, Bakalan, Jombok, Kec. Pule, Kabupaten Trenggalek, Jawa Timur 66362";"RT.39/RW.11, Bakalan, Jombok, Kec. Pule, Kabupaten Trenggalek";"JAWA TIMUR";"66362";"Indonesia";"";"";"";"-8.0878978";"111.5794991";"https://maps.google.com/?cid=0x0:0xa043b0f651121a33";""
"komplek housing";"Komplek perumahan";"Ditto home";"VGGV+WW8, Tirisan, Pule, Kec. Pule, Kabupaten Trenggalek, Jawa Timur 66362";"Tirisan, Pule, Kec. Pule, Kabupaten Trenggalek";"JAWA TIMUR";"66362";"Indonesia";"";"";"";"-8.1227036";"111.5448381";"https://maps.google.com/?cid=0x0:0x8102e599f8e522f9";""
"komplek housing";"Komplek perumahan";"Sidoel Home";"VH83+G6W, RT.65/RW.09, Bangunsari, Pule, Kec. Pule, Kabupaten Trenggalek, Jawa Timur 66362";"RT.65/RW.09, Bangunsari, Pule, Kec. Pule, Kabupaten Trenggalek";"JAWA TIMUR";"66362";"Indonesia";"";"";"";"-8.1336469";"111.5530896";"https://maps.google.com/?cid=0x0:0x173028f3e2984663";""
"komplek housing";"Komplek perumahan";"Azhiz Home";"VGC7+GM8, RT.15/RW.08, Sendang, Puyung, Kec. Pule, Kabupaten Trenggalek, Jawa Timur 66362";"RT.15/RW.08, Sendang, Puyung, Kec. Pule, Kabupaten Trenggalek";"JAWA TIMUR";"66362";"Indonesia";"";"";"";"-8.1287052";"111.514201";"https://maps.google.com/?cid=0x0:0x12c84eb72fe0064";""
"komplek housing";"komplek housing";"Griyodalem🙏";"RGRQ+G5R, Ngrandu, Joho, Kec. Pule, Kabupaten Trenggalek, Jawa Timur 66362";"Ngrandu, Joho, Kec. Pule, Kabupaten Trenggalek";"JAWA TIMUR";"66362";"Indonesia";"";"";"";"-8.158625";"111.537887";"https://maps.google.com/?cid=0x0:0x85fe5ed53ffbfa55";""
"komplek housing";"Pembangunan Perumahan";"Rumah pak Dikin dagang sapi";"VHH6+R2G, Jalan Raya, Krajan, Pule, Kec. Pule, Kabupaten Trenggalek, Jawa Timur 66362";"Jalan Raya, Krajan, Pule, Kec. Pule, Kabupaten Trenggalek";"JAWA TIMUR";"66362";"Indonesia";" 082338655251";"";"";"-8.1203108";"111.5598401";"https://maps.google.com/?cid=0x0:0x5018be68534a638";""
"komplek housing";"Komplek perumahan";"zazame bajita";"VHF6+V5W, Bangunsari, Pule, Kec. Pule, Kabupaten Trenggalek, Jawa Timur 66362";"Bangunsari, Pule, Kec. Pule, Kabupaten Trenggalek";"JAWA TIMUR";"66362";"Indonesia";"";"";"";"-8.1252663";"111.5604679";"https://maps.google.com/?cid=0x0:0x3e825e22053408c";""
"komplek housing";"Komplek perumahan";"exodus";"Unnamed Road, Talun, Pandean, Kec. Dongko, Kabupaten Trenggalek, Jawa Timur 66363";"Talun, Pandean, Kec. Dongko, Kabupaten Trenggalek";"JAWA TIMUR";"66363";"Indonesia";"";"";"";"-8.2441812";"111.5560749";"https://maps.google.com/?cid=0x0:0xbc8b7b8d5c119f6b";""
"komplek housing";"komplek housing";"Kampexhome";"QHH8+G8V, Salamwates, Kec. Dongko, Kabupaten Trenggalek, Jawa Timur 66363";"Salamwates, Kec. Dongko, Kabupaten Trenggalek";"JAWA TIMUR";"66363";"Indonesia";"";"";"";"-8.2211476";"111.5668686";"https://maps.google.com/?cid=0x0:0x2728f2df02ca870d";""
"komplek housing";"Perhimpunan Pengembang Perumahan";"Mejikom sakti";"RH6G+2MR, RT.17/RW.4, Sumbang, Dongko, Kec. Dongko, Kabupaten Trenggalek, Jawa Timur 66363";"RT.17/RW.4, Sumbang, Dongko, Kec. Dongko, Kabupaten Trenggalek";"JAWA TIMUR";"66363";"Indonesia";"";"";"";"-8.1898793";"111.5766407";"https://maps.google.com/?cid=0x0:0xd94e8f87daa00cc4";""
"komplek housing";"Komplek perumahan";"Cak Yanto ETHEK";"RHC6+W9M, Premban, Dongko, Kec. Dongko, Kabupaten Trenggalek, Jawa Timur 66363";"Premban, Dongko, Kec. Dongko, Kabupaten Trenggalek";"JAWA TIMUR";"66363";"Indonesia";"";"";"";"-8.177652";"111.5609288";"https://maps.google.com/?cid=0x0:0xb7da1e493093085e";""
"komplek housing";"Pembangunan Perumahan";"Home mbajeng gopel";"QHRX+FWM, Area Sawah, Ngerdani, Kec. Dongko, Kabupaten Trenggalek, Jawa Timur 66363";"Area Sawah, Ngerdani, Kec. Dongko, Kabupaten Trenggalek";"JAWA TIMUR";"66363";"Indonesia";"";"";"";"-8.2087832";"111.5997997";"https://maps.google.com/?cid=0x0:0xb1cb803c10ff7c15";""
"komplek housing";"Komplek perumahan";"Ganyokx";"RH48+CQ4, RT.16/RW.04, Sumbang, Blimbing, Kec. Dongko, Kabupaten Trenggalek, Jawa Timur 66363";"RT.16/RW.04, Sumbang, Blimbing, Kec. Dongko, Kabupaten Trenggalek";"JAWA TIMUR";"66363";"Indonesia";"";"";"";"-8.1939921";"111.5669633";"https://maps.google.com/?cid=0x0:0x65f4b6aff3102a4";""
"komplek housing";"Komplek perumahan";"mbok yem houses";"RHH6+Q6H, Jajar, Dongko, Kec. Dongko, Kabupaten Trenggalek, Jawa Timur 66363";"Jajar, Dongko, Kec. Dongko, Kabupaten Trenggalek";"JAWA TIMUR";"66363";"Indonesia";"";"";"";"-8.1705599";"111.5606062";"https://maps.google.com/?cid=0x0:0x88fd3a54b95dea31";""
"komplek housing";"Komplek perumahan";"Seredek";"RHF7+845, Premban, Dongko, Kec. Dongko, Kabupaten Trenggalek, Jawa Timur 66363";"Premban, Dongko, Kec. Dongko, Kabupaten Trenggalek";"JAWA TIMUR";"66363";"Indonesia";"";"";"";"-8.1764018";"111.5628821";"https://maps.google.com/?cid=0x0:0x4af09cf822fa9eac";""
"komplek housing";"Komplek perumahan";"dames";"QHG3+26P, RT.50/RW.18, Salamwates, Pandean, Kec. Dongko, Kabupaten Trenggalek, Jawa Timur 66363";"RT.50/RW.18, Salamwates, Pandean, Kec. Dongko, Kabupaten Trenggalek";"JAWA TIMUR";"66363";"Indonesia";"";"";"";"-8.2249049";"111.5530935";"https://maps.google.com/?cid=0x0:0x7c1f9bb371f91e8";""
"komplek housing";"Komplek perumahan";"RUMAH Bpk Sadi_jaya";"RHC6+R4R, Premban, Dongko, Kec. Dongko, Kabupaten Trenggalek, Jawa Timur 66363";"Premban, Dongko, Kec. Dongko, Kabupaten Trenggalek";"JAWA TIMUR";"66363";"Indonesia";"";"";"";"-8.1778879";"111.5602515";"https://maps.google.com/?cid=0x0:0x96a5f8bb181e6042";""
"komplek housing";"Komplek perumahan";"Rumah Wahyudi";"QG9X+RV, Jogadi, Pandean, Kec. Dongko, Kabupaten Trenggalek, Jawa Timur 66363";"Jogadi, Pandean, Kec. Dongko, Kabupaten Trenggalek";"JAWA TIMUR";"66363";"Indonesia";"";"";"";"-8.2301933";"111.5496313";"https://maps.google.com/?cid=0x0:0x27dbdcb1696e863";""
"komplek housing";"Komplek perumahan";"Home ekodok";"Rt32 rw10, Belang, Salamwates, Kec. Dongko, Kabupaten Trenggalek, Jawa Timur 66363";"Belang, Salamwates, Kec. Dongko, Kabupaten Trenggalek";"JAWA TIMUR";"66363";"Indonesia";"";"";"";"-8.2288105";"111.5930365";"https://maps.google.com/?cid=0x0:0x11930cdf1cd34243";""
"komplek housing";"Komplek perumahan";"Rumah Chyka  Fara";"RG8W+C7V, Area Sawah, Siki, Kec. Dongko, Kabupaten Trenggalek, Jawa Timur 66363";"Area Sawah, Siki, Kec. Dongko, Kabupaten Trenggalek";"JAWA TIMUR";"66363";"Indonesia";"";"";"";"-8.1840048";"111.5451141";"https://maps.google.com/?cid=0x0:0xb01067615e2a8788";""
"komplek housing";"Komplek perumahan";"Alam_gank";"RHCG+MH5, Kasihan, Dongko, Kec. Dongko, Kabupaten Trenggalek, Jawa Timur 66363";"Kasihan, Dongko, Kec. Dongko, Kabupaten Trenggalek";"JAWA TIMUR";"66363";"Indonesia";"";"";"";"-8.1783667";"111.576469";"https://maps.google.com/?cid=0x0:0x73ad30e4f9b6e797";""
"komplek housing";"Komplek perumahan";"Gang dobos";"RHM3+8RP, Jajar, Dongko, Kec. Dongko, Kabupaten Trenggalek, Jawa Timur 66363";"Jajar, Dongko, Kec. Dongko, Kabupaten Trenggalek";"JAWA TIMUR";"66363";"Indonesia";"";"";"";"-8.166663";"111.5545662";"https://maps.google.com/?cid=0x0:0xe1f1cbe672fa6308";""
"komplek housing";"Komplek perumahan";"Yulia novita home";"QGHQ+9G, Jogadi, Pandean, Kec. Dongko, Kabupaten Trenggalek, Jawa Timur 66363";"Jogadi, Pandean, Kec. Dongko, Kabupaten Trenggalek";"JAWA TIMUR";"66363";"Indonesia";"";"";"";"-8.2214205";"111.5383238";"https://maps.google.com/?cid=0x0:0xc3aef4b93f7467c1";""
"komplek housing";"Komplek perumahan";"Tanggung mberuk";"QGQC+H23, Nglangon, Cakul, Kec. Dongko, Kabupaten Trenggalek, Jawa Timur 66363";"Nglangon, Cakul, Kec. Dongko, Kabupaten Trenggalek";"JAWA TIMUR";"66363";"Indonesia";"";"";"";"-8.2111023";"111.520045";"https://maps.google.com/?cid=0x0:0x482c5fc6553be1f2";""
"komplek housing";"Pembangunan Perumahan";"Rumah pak yatno";"QGMV+H76, Jogadi, Pandean, Kec. Dongko, Kabupaten Trenggalek, Jawa Timur 66363";"Jogadi, Pandean, Kec. Dongko, Kabupaten Trenggalek";"JAWA TIMUR";"66363";"Indonesia";"";"";"";"-8.216077";"111.5431534";"https://maps.google.com/?cid=0x0:0x8de273e603e1492b";""
"komplek housing";"Komplek perumahan";"Menot home";"RG6P+8R8, Area Sawah, Siki, Kec. Dongko, Kabupaten Trenggalek, Jawa Timur 66363";"Area Sawah, Siki, Kec. Dongko, Kabupaten Trenggalek";"JAWA TIMUR";"66363";"Indonesia";"";"";"";"-8.1883";"111.537117";"https://maps.google.com/?cid=0x0:0x618a280b7a335df9";""
"komplek housing";"komplek housing";"Jawa Timur 66363";"Kec. Dongko, Kabupaten Trenggalek, Jawa Timur";"Kabupaten Trenggalek, Jawa Timur";"JAWA TIMUR";"";"Indonesia";"";"";"";"-8.2069665";"111.5468301";"https://maps.google.com/?cid=0x0:0x1c00c5eb5b541ab0";""
"komplek housing";"Komplek perumahan";"Rumah Naza";"QFGW+724, RT.50/RW.25, Pager, Cakul, Kec. Dongko, Kabupaten Trenggalek, Jawa Timur 66363";"RT.50/RW.25, Pager, Cakul, Kec. Dongko, Kabupaten Trenggalek";"JAWA TIMUR";"66363";"Indonesia";" 081358423398";"";"";"-8.2243608";"111.4950638";"https://maps.google.com/?cid=0x0:0xfd6f9a5a52bacf30";""
"komplek housing";"Komplek perumahan";"Rumah Asbi";"RH67+JPX, Premban, Dongko, Kec. Dongko, Kabupaten Trenggalek, Jawa Timur 66363";"Premban, Dongko, Kec. Dongko, Kabupaten Trenggalek";"JAWA TIMUR";"66363";"Indonesia";"";"";"";"-8.1883875";"111.5643612";"https://maps.google.com/?cid=0x0:0xdbd64ab631aee2b9";""
"komplek housing";"Komplek perumahan";"Rumah bpk mungadiono";"QGXH+JGJ, Weru, Cakul, Kec. Dongko, Kabupaten Trenggalek, Jawa Timur 66363";"Weru, Cakul, Kec. Dongko, Kabupaten Trenggalek";"JAWA TIMUR";"66363";"Indonesia";"";"";"";"-8.2009017";"111.5287623";"https://maps.google.com/?cid=0x0:0x7f2ac7df4e12397f";""
"komplek housing";"Rumah Kaca";"Rumahku";"RHRG+9MJ, RT.09/RW.02, petung, Sumberbening, Kec. Dongko, Kabupaten Trenggalek, Jawa Timur 66363";"RT.09/RW.02, petung, Sumberbening, Kec. Dongko, Kabupaten Trenggalek";"JAWA TIMUR";"66363";"Indonesia";"";"";"";"-8.1590435";"111.5766407";"https://maps.google.com/?cid=0x0:0x8dd66b6df74370b7";""
"komplek housing";"komplek housing";"Edyresta";"RJP8+2RQ, Dawung, Pringapus, Kec. Dongko, Kabupaten Trenggalek, Jawa Timur 66363";"Dawung, Pringapus, Kec. Dongko, Kabupaten Trenggalek";"JAWA TIMUR";"66363";"Indonesia";"";"";"";"-8.165493";"111.617854";"https://maps.google.com/?cid=0x0:0x8d9a087eaaecde31";""
"komplek housing";"Komplek perumahan";"Rumah en_zy";"RHVJ+Q59, Bawangan, Sumberbening, Kec. Dongko, Kabupaten Trenggalek, Jawa Timur 66363";"Bawangan, Sumberbening, Kec. Dongko, Kabupaten Trenggalek";"JAWA TIMUR";"66363";"Indonesia";"";"";"";"-8.1561195";"111.5805894";"https://maps.google.com/?cid=0x0:0xdf92aa841b6b90d9";""
"komplek housing";"Komplek perumahan";"Rumah danu";"QJR4+6G9, Sampung, Ngerdani, Kec. Dongko, Kabupaten Trenggalek, Jawa Timur 66363";"Sampung, Ngerdani, Kec. Dongko, Kabupaten Trenggalek";"JAWA TIMUR";"66363";"Indonesia";" 082311734755";"";"";"-8.2094606";"111.606365";"https://maps.google.com/?cid=0x0:0x4caed46033fa35a7";""
"komplek housing";"Kompleks Kondominium";"NGEPRING ELITE CS";"RHM5+QP8, RT.51/RW.12, Jajar, Dongko, Kec. Dongko, Kabupaten Trenggalek, Jawa Timur 66363";"RT.51/RW.12, Jajar, Dongko, Kec. Dongko, Kabupaten Trenggalek";"JAWA TIMUR";"66363";"Indonesia";"";"";"";"-8.1655034";"111.5593599";"https://maps.google.com/?cid=0x0:0x838669241355bed7";""
"komplek housing";"Pembangunan Perumahan";"GRIYA HARKAMULYAN";"RH9Q+R5W, RT.29/RW.08, Karang Tengah, Dongko, Kec. Dongko, Kabupaten Trenggalek, Jawa Timur 66363";"RT.29/RW.08, Karang Tengah, Dongko, Kec. Dongko, Kabupaten Trenggalek";"JAWA TIMUR";"66363";"Indonesia";"";"";"";"-8.1803952";"111.5879537";"https://maps.google.com/?cid=0x0:0x5b16be1a6ad0f682";""
"komplek housing";"Perhimpunan Pengembang Perumahan";"House";"Jl. Padma Boulevard Utara Jl. Padma Boulevard No.22, Jrakah, Kec. Tugu, Kota Semarang, Jawa Tengah 50151";"Jrakah, Kec. Tugu, Kota Semarang";"JAWA TIMUR";"50151";"Indonesia";"";"";"";"-6.9718732";"110.3658084";"https://maps.google.com/?cid=0x0:0x679e7516a146bab9";""
"komplek housing";"Komplek perumahan";"Musyarofah Family";"2987+668, Jl. Stasiun Jerakah, Gg. IV Gang Makam, RT.06/RW02, Jrakah, Kec. Tugu, Kota Semarang, Jawa Tengah 50151";"Jl. Stasiun Jerakah, Gg. IV Gang Makam, RT.06/RW02, Jrakah, Kec. Tugu, Kota Semarang";"JAWA TIMUR";"50151";"Indonesia";"";"";"";"-6.9844625";"110.3630631";"https://maps.google.com/?cid=0x0:0x84aef7df3a57731d";""
"komplek housing";"komplek housing";"Home";"29G7+94X, Jrakah, Kec. Tugu, Kota Semarang, Jawa Tengah 50151";"Jrakah, Kec. Tugu, Kota Semarang";"JAWA TIMUR";"50151";"Indonesia";"";"";"";"-6.9740207";"110.3628608";"https://maps.google.com/?cid=0x0:0x3b5b4f095a81f07b";""
"komplek housing";"komplek housing";"Thecasestories home";"Jl. Taman Raflesia VII No.8, Jrakah, Kec. Tugu, Kota Semarang, Jawa Tengah 50151";"Jrakah, Kec. Tugu, Kota Semarang";"JAWA TIMUR";"50151";"Indonesia";"";"";"";"-6.9742889";"110.3634167";"https://maps.google.com/?cid=0x0:0xf8c6ba4752372d3b";""
"komplek housing";"Komplek perumahan";"Rumah ibu nur cholisoh";"2976+JRH, Gg. 1, RT.:02 RW:02, Jrakah, Kec. Tugu, Kota Semarang, Jawa Tengah 50151";"Gg. 1, RT.:02 RW:02, Jrakah, Kec. Tugu, Kota Semarang";"JAWA TIMUR";"50151";"Indonesia";"";"";"";"-6.9859494";"110.3621166";"https://maps.google.com/?cid=0x0:0x5843cb7b2b950f2e";""
"komplek housing";"Komplek perumahan";"POJOK EKSPRESI CHIRDAM";"CQHQ+6W2, Gg. Pahlawan, RT.01/RW.07, Kedung Jaya, Kec. Tanah Sereal, Kota Bogor, Jawa Barat";"Kota Bogor, Jawa Barat";"JAWA TIMUR";"";"Indonesia";"";"";"";"-6.5719905";"106.7897804";"https://maps.google.com/?cid=0x0:0xfc9dc30041332ee1";""
"komplek housing";"Komplek perumahan";"Pondok Gede Housing 1";"Jl. Cipta Raya No.45-3, RT.001/RW.003, Jatirahayu, Kec. Pd. Melati, Kota Bks, Jawa Barat 17414";"RT.001/RW.003, Jatirahayu, Kec. Pd. Melati, Kota Bks";"JAWA TIMUR";"17414";"Indonesia";"";"";"";"-6.2852504";"106.9163397";"https://maps.google.com/?cid=0x0:0x3132afedbf38cd61";""
"komplek housing";"Komplek perumahan";"Pondok Gede Housing II";"Housing II, Jl. Raya Hankam, RT.001/RW.004, Jatirahayu, Pondok Gede, Bekasi, West Java";"Kota Bks, Jawa Barat";"JAWA TIMUR";"";"Indonesia";"";"";"";"-6.2876701";"106.9147674";"https://maps.google.com/?cid=0x0:0x2a52e601c20d18f2";""
"komplek housing";"Komplek perumahan";"Rumah Tutas";"Gg. Mantri Guru No.26, RT.04/RW.01, Kedung Jaya, Kec. Tanah Sereal, Kota Bogor, Jawa Barat 16124";"RT.04/RW.01, Kedung Jaya, Kec. Tanah Sereal, Kota Bogor";"JAWA TIMUR";"16124";"Indonesia";"";"";"";"-6.5737872";"106.7894774";"https://maps.google.com/?cid=0x0:0xdab3b5e63c8be887";""
"komplek housing";"Komplek perumahan";"HomeCimol";"Jl. Tentara Pelajar No.28, RT.01/RW.016, Kedung Waringin, Kec. Tanah Sereal, Kota Bogor, Jawa Barat";"Kota Bogor, Jawa Barat";"JAWA TIMUR";"";"Indonesia";"";"";"";"-6.570467";"106.7872946";"https://maps.google.com/?cid=0x0:0x246ee3e44c57d712";""
"komplek housing";"Perumahan";"Perumahan Villa Merdeka";"CQGP+V7G, Jl. Pesantren No.13, RT.02/RW.07, Kedung Waringin, Kec. Tanah Sereal, Kota Bogor, Jawa Barat 16164";"Jl. Pesantren No.13, RT.02/RW.07, Kedung Waringin, Kec. Tanah Sereal, Kota Bogor";"JAWA TIMUR";"16164";"Indonesia";"";"";"";"-6.5726685";"106.785675";"https://maps.google.com/?cid=0x0:0x412542e4c1d0a3a9";""
"komplek housing";"Komplek perumahan";"Kavling 165";"JL. Tentara Pelajar KAV 165 , RT 001/016, Kedung Waringin, Kec. Tanah Sereal, Kota Bogor";"Kota Bogor, Jawa Barat";"JAWA TIMUR";"";"Indonesia";"";"";"";"-6.5735683";"106.7880055";"https://maps.google.com/?cid=0x0:0xd06c669536dc96ff";""
"komplek housing";"Komplek perumahan";"Rasyid house";"Jl. Tentara Pelajar No.Pasama, RT.01/RW.01 No. 58, Kedung Jaya, Kota Bogor, Jawa Barat";"Kota Bogor, Jawa Barat";"JAWA TIMUR";"";"Indonesia";"";"";"";"-6.574469";"106.7891867";"https://maps.google.com/?cid=0x0:0x3207c2721194d177";""
"komplek housing";"Komplek perumahan";"Fathur";"Jl. Tentara Pelajar Gg. Hateup No.54, RT.01/RW.01, Kedung Jaya, Kec. Tanah Sereal, Kota Bogor, Jawa Barat 16124";"RT.01/RW.01, Kedung Jaya, Kec. Tanah Sereal, Kota Bogor";"JAWA TIMUR";"16124";"Indonesia";"";"";"";"-6.5743698";"106.7892549";"https://maps.google.com/?cid=0x0:0x3d5dbfcdb28baf38";""
"komplek housing";"Komplek perumahan";"Jalan Cikago";"CQHQ+949, Jl. Tentara Pelajar, RT.02/RW.01, Kedung Waringin, Kec. Tanah Sereal, Kota Bogor, Jawa Barat 16164";"Jl. Tentara Pelajar, RT.02/RW.01, Kedung Waringin, Kec. Tanah Sereal, Kota Bogor";"JAWA TIMUR";"16164";"Indonesia";"";"";"";"-6.571576";"106.7878607";"https://maps.google.com/?cid=0x0:0x2a266c581e01d4d";""
"komplek housing";"Komplek perumahan";"Naura House's";"Jl. Tentara Pelajar No.20, RT.01/RW.16, Kedung Waringin, Kec. Tanah Sereal, Kota Bogor, Jawa Barat 16164";"RT.01/RW.16, Kedung Waringin, Kec. Tanah Sereal, Kota Bogor";"JAWA TIMUR";"16164";"Indonesia";" 087780033760";"";"";"-6.571401";"106.7873221";"https://maps.google.com/?cid=0x0:0x8576448c6fbe749b";""
"komplek housing";"Komplek perumahan";"Perumahan Tugu Indah B60";"JRJR+7Q6, Jl. Tugu Residence, Tugu, Kec. Cimanggis, Kota Depok, Jawa Barat 16451";"Jl. Tugu Residence, Tugu, Kec. Cimanggis, Kota Depok";"JAWA TIMUR";"16451";"Indonesia";"";"";"";"-6.3693428";"106.8418905";"https://maps.google.com/?cid=0x0:0x303c9680bed3b264";""
"komplek housing";"Komplek perumahan";"Munajat House";"Mantri Guru, Gg. Mantri Guru No.95, RT.01/RW.2, Kedung Jaya, Kec. Tanah Sereal, Kota Bogor, Jawa Barat 16124";"Gg. Mantri Guru No.95, RT.01/RW.2, Kedung Jaya, Kec. Tanah Sereal, Kota Bogor";"JAWA TIMUR";"16124";"Indonesia";"";"";"";"-6.573847";"106.7902956";"https://maps.google.com/?cid=0x0:0x312473aae8a7a2e5";""
"komplek housing";"Komplek perumahan";"Perumahan Tugu Indah B10";"JRJR+4HJ, Jl. Klp. Dua Raya, Tugu, Kec. Cimanggis, Kota Depok, Jawa Barat";"Kota Depok, Jawa Barat";"JAWA TIMUR";"";"Indonesia";"";"";"";"-6.3696674";"106.8414053";"https://maps.google.com/?cid=0x0:0x89ef94dfafb60051";""
"komplek housing";"Komplek perumahan";"Rumah Kemal";"Gg. H. Enung No.49, RT.01/RW.02, Kedung Jaya, Kec. Tanah Sereal, Kota Bogor, Jawa Barat 16162";"RT.01/RW.02, Kedung Jaya, Kec. Tanah Sereal, Kota Bogor";"JAWA TIMUR";"16162";"Indonesia";"";"";"";"-6.5724539";"106.7893383";"https://maps.google.com/?cid=0x0:0x3d0788c2b078a67c";""
"komplek housing";"komplek housing";"Rumah Bi Entin";"Jl. Tembakang Bawah Gg. Pahlawan No.75/77, RT.01/RW.02, Kedung Jaya, Kec. Tanah Sereal, Kota Bogor, Jawa Barat 16162";"RT.01/RW.02, Kedung Jaya, Kec. Tanah Sereal, Kota Bogor";"JAWA TIMUR";"16162";"Indonesia";"";"";"";"-6.5714867";"106.7902791";"https://maps.google.com/?cid=0x0:0x2928c0c57f84b45c";""
"komplek housing";"Komplek perumahan";"Gg Cikago";"CQHP+8XJ, Jl. Tentara Pelajar, RT.02/RW.01, Kedung Waringin, Kec. Tanah Sereal, Kota Bogor, Jawa Barat 16164";"Jl. Tentara Pelajar, RT.02/RW.01, Kedung Waringin, Kec. Tanah Sereal, Kota Bogor";"JAWA TIMUR";"16164";"Indonesia";"";"";"";"-6.5716639";"106.7873969";"https://maps.google.com/?cid=0x0:0xc05f5da2d74f7b75";""
"komplek housing";"komplek housing";"Imah aryarayyan";"CQHR+468, Gg. Pahlawan, RT.02/RW.07, Kedung Jaya, Kec. Tanah Sereal, Kota Bogor, Jawa Barat 16162";"Gg. Pahlawan, RT.02/RW.07, Kedung Jaya, Kec. Tanah Sereal, Kota Bogor";"JAWA TIMUR";"16162";"Indonesia";"";"";"";"-6.5722068";"106.7905761";"https://maps.google.com/?cid=0x0:0xa32819e615d50b08";""
"komplek housing";"Komplek perumahan";"My First Home";"Jl. Perikanan Darat No.7, RT.01/RW.01, Kedung Waringin, Kec. Tanah Sereal, Kota Bogor, Jawa Barat 16164";"RT.01/RW.01, Kedung Waringin, Kec. Tanah Sereal, Kota Bogor";"JAWA TIMUR";"16164";"Indonesia";"";"";"";"-6.5700295";"106.7874165";"https://maps.google.com/?cid=0x0:0xaeb02dcc918b24b";""
"komplek housing";"Pembangunan Perumahan";"rumah yakub";"Gg. Mantri Guru Blok Mantri Guru No.32, RT.04/RW.01, Kedung Jaya, Kec. Tanah Sereal, Kota Bogor, Jawa Barat 16162";"RT.04/RW.01, Kedung Jaya, Kec. Tanah Sereal, Kota Bogor";"JAWA TIMUR";"16162";"Indonesia";"";"";"";"-6.5733827";"106.7892286";"https://maps.google.com/?cid=0x0:0xa6e99e35dbaca507";""
"komplek housing";"Komplek perumahan";"Markas 2";"Jln tugu No.27, Tugu, Sukorejo, Kec. Gandusari, Kabupaten Trenggalek, Jawa Timur 66372";"Tugu, Sukorejo, Kec. Gandusari, Kabupaten Trenggalek";"JAWA TIMUR";"66372";"Indonesia";"";"";"";"-8.1270149";"111.6955137";"https://maps.google.com/?cid=0x0:0xb8ed5a3f0a955a02";""
"komplek housing";"Komplek perumahan";"Mahku";"VMCQ+C72, Trenggalek, Tugu, Tugu, Sukorejo, Kec. Gandusari, Kabupaten Trenggalek, Jawa Timur 66372";"Trenggalek, Tugu, Tugu, Sukorejo, Kec. Gandusari, Kabupaten Trenggalek";"JAWA TIMUR";"66372";"Indonesia";"";"";"";"-8.128991";"111.6881352";"https://maps.google.com/?cid=0x0:0x7cffaf286e8f6ec4";""
"komplek housing";"Komplek perumahan";"Pondok Gede Housing II";"Housing II, Jl. Raya Hankam, RT.001/RW.004, Jatirahayu, Pondok Gede, Bekasi, West Java";"Kota Bks, Jawa Barat";"JAWA TIMUR";"";"Indonesia";"";"";"";"-6.2876701";"106.9147674";"https://maps.google.com/?cid=0x0:0x2a52e601c20d18f2";""
"komplek housing";"Komplek perumahan";"Rumah Tutas";"Gg. Mantri Guru No.26, RT.04/RW.01, Kedung Jaya, Kec. Tanah Sereal, Kota Bogor, Jawa Barat 16124";"RT.04/RW.01, Kedung Jaya, Kec. Tanah Sereal, Kota Bogor";"JAWA TIMUR";"16124";"Indonesia";"";"";"";"-6.5737872";"106.7894774";"https://maps.google.com/?cid=0x0:0xdab3b5e63c8be887";""
"komplek housing";"Perumahan";"Perumahan Villa Merdeka";"CQGP+V7G, Jl. Pesantren No.13, RT.02/RW.07, Kedung Waringin, Kec. Tanah Sereal, Kota Bogor, Jawa Barat 16164";"Jl. Pesantren No.13, RT.02/RW.07, Kedung Waringin, Kec. Tanah Sereal, Kota Bogor";"JAWA TIMUR";"16164";"Indonesia";"";"";"";"-6.5726685";"106.785675";"https://maps.google.com/?cid=0x0:0x412542e4c1d0a3a9";""
"komplek housing";"Komplek perumahan";"HomeCimol";"Jl. Tentara Pelajar No.28, RT.01/RW.016, Kedung Waringin, Kec. Tanah Sereal, Kota Bogor, Jawa Barat";"Kota Bogor, Jawa Barat";"JAWA TIMUR";"";"Indonesia";"";"";"";"-6.570467";"106.7872946";"https://maps.google.com/?cid=0x0:0x246ee3e44c57d712";""
"komplek housing";"Komplek perumahan";"Rasyid house";"Jl. Tentara Pelajar No.Pasama, RT.01/RW.01 No. 58, Kedung Jaya, Kota Bogor, Jawa Barat";"Kota Bogor, Jawa Barat";"JAWA TIMUR";"";"Indonesia";"";"";"";"-6.574469";"106.7891867";"https://maps.google.com/?cid=0x0:0x3207c2721194d177";""
"komplek housing";"Komplek perumahan";"Naura House's";"Jl. Tentara Pelajar No.20, RT.01/RW.16, Kedung Waringin, Kec. Tanah Sereal, Kota Bogor, Jawa Barat 16164";"RT.01/RW.16, Kedung Waringin, Kec. Tanah Sereal, Kota Bogor";"JAWA TIMUR";"16164";"Indonesia";" 087780033760";"";"";"-6.571401";"106.7873221";"https://maps.google.com/?cid=0x0:0x8576448c6fbe749b";""
"komplek housing";"Komplek perumahan";"Perumahan Tugu Indah B60";"JRJR+7Q6, Jl. Tugu Residence, Tugu, Kec. Cimanggis, Kota Depok, Jawa Barat 16451";"Jl. Tugu Residence, Tugu, Kec. Cimanggis, Kota Depok";"JAWA TIMUR";"16451";"Indonesia";"";"";"";"-6.3693428";"106.8418905";"https://maps.google.com/?cid=0x0:0x303c9680bed3b264";""
"komplek housing";"Komplek perumahan";"Munajat House";"Mantri Guru, Gg. Mantri Guru No.95, RT.01/RW.2, Kedung Jaya, Kec. Tanah Sereal, Kota Bogor, Jawa Barat 16124";"Gg. Mantri Guru No.95, RT.01/RW.2, Kedung Jaya, Kec. Tanah Sereal, Kota Bogor";"JAWA TIMUR";"16124";"Indonesia";"";"";"";"-6.573847";"106.7902956";"https://maps.google.com/?cid=0x0:0x312473aae8a7a2e5";""
"komplek housing";"Pembangunan Perumahan";"Imah ce oong";"CQHR+856, Jl. Cimanggu Ciereng, RT.02/RW.07, Kedung Jaya, Kec. Tanah Sereal, Kota Bogor, Jawa Barat 16162";"Jl. Cimanggu Ciereng, RT.02/RW.07, Kedung Jaya, Kec. Tanah Sereal, Kota Bogor";"JAWA TIMUR";"16162";"Indonesia";"";"";"";"-6.5717077";"106.7904017";"https://maps.google.com/?cid=0x0:0xca72800112570d4c";""
"komplek housing";"Komplek perumahan";"Kavling 165";"JL. Tentara Pelajar KAV 165 , RT 001/016, Kedung Waringin, Kec. Tanah Sereal, Kota Bogor";"Kota Bogor, Jawa Barat";"JAWA TIMUR";"";"Indonesia";"";"";"";"-6.5735683";"106.7880055";"https://maps.google.com/?cid=0x0:0xd06c669536dc96ff";""
"komplek housing";"Komplek perumahan";"Jalan Cikago";"CQHQ+949, Jl. Tentara Pelajar, RT.02/RW.01, Kedung Waringin, Kec. Tanah Sereal, Kota Bogor, Jawa Barat 16164";"Jl. Tentara Pelajar, RT.02/RW.01, Kedung Waringin, Kec. Tanah Sereal, Kota Bogor";"JAWA TIMUR";"16164";"Indonesia";"";"";"";"-6.571576";"106.7878607";"https://maps.google.com/?cid=0x0:0x2a266c581e01d4d";""
"komplek housing";"komplek housing";"Rumah Bi Entin";"Jl. Tembakang Bawah Gg. Pahlawan No.75/77, RT.01/RW.02, Kedung Jaya, Kec. Tanah Sereal, Kota Bogor, Jawa Barat 16162";"RT.01/RW.02, Kedung Jaya, Kec. Tanah Sereal, Kota Bogor";"JAWA TIMUR";"16162";"Indonesia";"";"";"";"-6.5714867";"106.7902791";"https://maps.google.com/?cid=0x0:0x2928c0c57f84b45c";""
"komplek housing";"Komplek perumahan";"Fathur";"Jl. Tentara Pelajar Gg. Hateup No.54, RT.01/RW.01, Kedung Jaya, Kec. Tanah Sereal, Kota Bogor, Jawa Barat 16124";"RT.01/RW.01, Kedung Jaya, Kec. Tanah Sereal, Kota Bogor";"JAWA TIMUR";"16124";"Indonesia";"";"";"";"-6.5743698";"106.7892549";"https://maps.google.com/?cid=0x0:0x3d5dbfcdb28baf38";""
"komplek housing";"Komplek perumahan";"Rumah Tingkat Mul  Vindi";"Jl. Tentara Pelajar Gg. Mantri Guru No.25, RT.05/RW.01, Kedung Jaya, Kec. Tanah Sereal, Kota Bogor, Jawa Barat 16162";"RT.05/RW.01, Kedung Jaya, Kec. Tanah Sereal, Kota Bogor";"JAWA TIMUR";"16162";"Indonesia";" 081384711613";"";"";"-6.5733228";"106.7896069";"https://maps.google.com/?cid=0x0:0x7e783bd79ec68579";""
"komplek housing";"Pembangunan Perumahan";"rumah yakub";"Gg. Mantri Guru Blok Mantri Guru No.32, RT.04/RW.01, Kedung Jaya, Kec. Tanah Sereal, Kota Bogor, Jawa Barat 16162";"RT.04/RW.01, Kedung Jaya, Kec. Tanah Sereal, Kota Bogor";"JAWA TIMUR";"16162";"Indonesia";"";"";"";"-6.5733827";"106.7892286";"https://maps.google.com/?cid=0x0:0xa6e99e35dbaca507";""
"komplek housing";"Komplek perumahan";"Rumah Kemal";"Gg. H. Enung No.49, RT.01/RW.02, Kedung Jaya, Kec. Tanah Sereal, Kota Bogor, Jawa Barat 16162";"RT.01/RW.02, Kedung Jaya, Kec. Tanah Sereal, Kota Bogor";"JAWA TIMUR";"16162";"Indonesia";"";"";"";"-6.5724539";"106.7893383";"https://maps.google.com/?cid=0x0:0x3d0788c2b078a67c";""
"komplek housing";"Komplek perumahan";"HAMD Residence";"Gg. Anggrek 4 No.Rt. 004/008, Tugu, Kec. Cimanggis, Kota Depok, Jawa Barat 16451";"Tugu, Kec. Cimanggis, Kota Depok";"JAWA TIMUR";"16451";"Indonesia";" 02148678731";"";"";"-6.3645101";"106.8522619";"https://maps.google.com/?cid=0x0:0xe6e9e6c6c72c268e";""
"komplek housing";"Komplek perumahan";"Gg Cikago";"CQHP+8XJ, Jl. Tentara Pelajar, RT.02/RW.01, Kedung Waringin, Kec. Tanah Sereal, Kota Bogor, Jawa Barat 16164";"Jl. Tentara Pelajar, RT.02/RW.01, Kedung Waringin, Kec. Tanah Sereal, Kota Bogor";"JAWA TIMUR";"16164";"Indonesia";"";"";"";"-6.5716639";"106.7873969";"https://maps.google.com/?cid=0x0:0xc05f5da2d74f7b75";""
"komplek housing";"Komplek perumahan";"Rumah Kosner";"CQHP+FC6, RT.01/RW.16, Kedung Waringin, Kec. Tanah Sereal, Kota Bogor, Jawa Barat 16111";"RT.01/RW.16, Kedung Waringin, Kec. Tanah Sereal, Kota Bogor";"JAWA TIMUR";"16111";"Indonesia";"";"";"";"-6.5713366";"106.786004";"https://maps.google.com/?cid=0x0:0xfbee8b5b18e0a6cb";""
"komplek housing";"komplek housing";"Jawa Timur";"";"Jawa Timur";"JAWA TIMUR";"";"Indonesia";"";"";"";"-7.5360639";"112.2384017";"https://maps.google.com/?cid=0x0:0x1030bfbca7cb850";""
"komplek housing";"Komplek perumahan";"Pondok Gede Housing II";"Housing II, Jl. Raya Hankam, RT.001/RW.004, Jatirahayu, Pondok Gede, Bekasi, West Java";"Kota Bks, Jawa Barat";"JAWA TIMUR";"";"Indonesia";"";"";"";"-6.2876701";"106.9147674";"https://maps.google.com/?cid=0x0:0x2a52e601c20d18f2";""
"komplek housing";"Komplek perumahan";"POJOK EKSPRESI CHIRDAM";"CQHQ+6W2, Gg. Pahlawan, RT.01/RW.07, Kedung Jaya, Kec. Tanah Sereal, Kota Bogor, Jawa Barat";"Kota Bogor, Jawa Barat";"JAWA TIMUR";"";"Indonesia";"";"";"";"-6.5719905";"106.7897804";"https://maps.google.com/?cid=0x0:0xfc9dc30041332ee1";""
"komplek housing";"Komplek perumahan";"HomeCimol";"Jl. Tentara Pelajar No.28, RT.01/RW.016, Kedung Waringin, Kec. Tanah Sereal, Kota Bogor, Jawa Barat";"Kota Bogor, Jawa Barat";"JAWA TIMUR";"";"Indonesia";"";"";"";"-6.570467";"106.7872946";"https://maps.google.com/?cid=0x0:0x246ee3e44c57d712";""
"komplek housing";"Komplek perumahan";"Kavling 165";"JL. Tentara Pelajar KAV 165 , RT 001/016, Kedung Waringin, Kec. Tanah Sereal, Kota Bogor";"Kota Bogor, Jawa Barat";"JAWA TIMUR";"";"Indonesia";"";"";"";"-6.5735683";"106.7880055";"https://maps.google.com/?cid=0x0:0xd06c669536dc96ff";""
"komplek housing";"Komplek perumahan";"Rasyid house";"Jl. Tentara Pelajar No.Pasama, RT.01/RW.01 No. 58, Kedung Jaya, Kota Bogor, Jawa Barat";"Kota Bogor, Jawa Barat";"JAWA TIMUR";"";"Indonesia";"";"";"";"-6.574469";"106.7891867";"https://maps.google.com/?cid=0x0:0x3207c2721194d177";""
"komplek housing";"Komplek perumahan";"Naura House's";"Jl. Tentara Pelajar No.20, RT.01/RW.16, Kedung Waringin, Kec. Tanah Sereal, Kota Bogor, Jawa Barat 16164";"RT.01/RW.16, Kedung Waringin, Kec. Tanah Sereal, Kota Bogor";"JAWA TIMUR";"16164";"Indonesia";" 087780033760";"";"";"-6.571401";"106.7873221";"https://maps.google.com/?cid=0x0:0x8576448c6fbe749b";""
"komplek housing";"Pembangunan Perumahan";"Imah ce oong";"CQHR+856, Jl. Cimanggu Ciereng, RT.02/RW.07, Kedung Jaya, Kec. Tanah Sereal, Kota Bogor, Jawa Barat 16162";"Jl. Cimanggu Ciereng, RT.02/RW.07, Kedung Jaya, Kec. Tanah Sereal, Kota Bogor";"JAWA TIMUR";"16162";"Indonesia";"";"";"";"-6.5717077";"106.7904017";"https://maps.google.com/?cid=0x0:0xca72800112570d4c";""
"komplek housing";"Komplek perumahan";"Munajat House";"Mantri Guru, Gg. Mantri Guru No.95, RT.01/RW.2, Kedung Jaya, Kec. Tanah Sereal, Kota Bogor, Jawa Barat 16124";"Gg. Mantri Guru No.95, RT.01/RW.2, Kedung Jaya, Kec. Tanah Sereal, Kota Bogor";"JAWA TIMUR";"16124";"Indonesia";"";"";"";"-6.573847";"106.7902956";"https://maps.google.com/?cid=0x0:0x312473aae8a7a2e5";""
"komplek housing";"komplek housing";"Rumah Bi Entin";"Jl. Tembakang Bawah Gg. Pahlawan No.75/77, RT.01/RW.02, Kedung Jaya, Kec. Tanah Sereal, Kota Bogor, Jawa Barat 16162";"RT.01/RW.02, Kedung Jaya, Kec. Tanah Sereal, Kota Bogor";"JAWA TIMUR";"16162";"Indonesia";"";"";"";"-6.5714867";"106.7902791";"https://maps.google.com/?cid=0x0:0x2928c0c57f84b45c";""
"komplek housing";"Komplek perumahan";"Rumah Kemal";"Gg. H. Enung No.49, RT.01/RW.02, Kedung Jaya, Kec. Tanah Sereal, Kota Bogor, Jawa Barat 16162";"RT.01/RW.02, Kedung Jaya, Kec. Tanah Sereal, Kota Bogor";"JAWA TIMUR";"16162";"Indonesia";"";"";"";"-6.5724539";"106.7893383";"https://maps.google.com/?cid=0x0:0x3d0788c2b078a67c";""
"komplek housing";"Komplek perumahan";"Jalan Cikago";"CQHQ+949, Jl. Tentara Pelajar, RT.02/RW.01, Kedung Waringin, Kec. Tanah Sereal, Kota Bogor, Jawa Barat 16164";"Jl. Tentara Pelajar, RT.02/RW.01, Kedung Waringin, Kec. Tanah Sereal, Kota Bogor";"JAWA TIMUR";"16164";"Indonesia";"";"";"";"-6.571576";"106.7878607";"https://maps.google.com/?cid=0x0:0x2a266c581e01d4d";""
"komplek housing";"Komplek perumahan";"Gg Cikago";"CQHP+8XJ, Jl. Tentara Pelajar, RT.02/RW.01, Kedung Waringin, Kec. Tanah Sereal, Kota Bogor, Jawa Barat 16164";"Jl. Tentara Pelajar, RT.02/RW.01, Kedung Waringin, Kec. Tanah Sereal, Kota Bogor";"JAWA TIMUR";"16164";"Indonesia";"";"";"";"-6.5716639";"106.7873969";"https://maps.google.com/?cid=0x0:0xc05f5da2d74f7b75";""
"komplek housing";"Komplek perumahan";"My First Home";"Jl. Perikanan Darat No.7, RT.01/RW.01, Kedung Waringin, Kec. Tanah Sereal, Kota Bogor, Jawa Barat 16164";"RT.01/RW.01, Kedung Waringin, Kec. Tanah Sereal, Kota Bogor";"JAWA TIMUR";"16164";"Indonesia";"";"";"";"-6.5700295";"106.7874165";"https://maps.google.com/?cid=0x0:0xaeb02dcc918b24b";""
"komplek housing";"Pembangunan Perumahan";"rumah yakub";"Gg. Mantri Guru Blok Mantri Guru No.32, RT.04/RW.01, Kedung Jaya, Kec. Tanah Sereal, Kota Bogor, Jawa Barat 16162";"RT.04/RW.01, Kedung Jaya, Kec. Tanah Sereal, Kota Bogor";"JAWA TIMUR";"16162";"Indonesia";"";"";"";"-6.5733827";"106.7892286";"https://maps.google.com/?cid=0x0:0xa6e99e35dbaca507";""
"komplek housing";"Komplek perumahan";"Rumah Tingkat Mul  Vindi";"Jl. Tentara Pelajar Gg. Mantri Guru No.25, RT.05/RW.01, Kedung Jaya, Kec. Tanah Sereal, Kota Bogor, Jawa Barat 16162";"RT.05/RW.01, Kedung Jaya, Kec. Tanah Sereal, Kota Bogor";"JAWA TIMUR";"16162";"Indonesia";" 081384711613";"";"";"-6.5733228";"106.7896069";"https://maps.google.com/?cid=0x0:0x7e783bd79ec68579";""
"komplek housing";"komplek housing";"Imah aryarayyan";"CQHR+468, Gg. Pahlawan, RT.02/RW.07, Kedung Jaya, Kec. Tanah Sereal, Kota Bogor, Jawa Barat 16162";"Gg. Pahlawan, RT.02/RW.07, Kedung Jaya, Kec. Tanah Sereal, Kota Bogor";"JAWA TIMUR";"16162";"Indonesia";"";"";"";"-6.5722068";"106.7905761";"https://maps.google.com/?cid=0x0:0xa32819e615d50b08";""
"komplek housing";"Komplek perumahan";"Fathur";"Jl. Tentara Pelajar Gg. Hateup No.54, RT.01/RW.01, Kedung Jaya, Kec. Tanah Sereal, Kota Bogor, Jawa Barat 16124";"RT.01/RW.01, Kedung Jaya, Kec. Tanah Sereal, Kota Bogor";"JAWA TIMUR";"16124";"Indonesia";"";"";"";"-6.5743698";"106.7892549";"https://maps.google.com/?cid=0x0:0x3d5dbfcdb28baf38";""
"komplek housing";"Komplek perumahan";"Perumahan Tugu Indah B60";"JRJR+7Q6, Jl. Tugu Residence, Tugu, Kec. Cimanggis, Kota Depok, Jawa Barat 16451";"Jl. Tugu Residence, Tugu, Kec. Cimanggis, Kota Depok";"JAWA TIMUR";"16451";"Indonesia";"";"";"";"-6.3693428";"106.8418905";"https://maps.google.com/?cid=0x0:0x303c9680bed3b264";""
"komplek housing";"komplek housing";"Ratu mutiara fishing";"Perum situ endah Jl. Ikan Mas No.11, Kedung Waringin, Kec. Tanah Sereal, Kota Bogor, Jawa Barat 16164";"Kedung Waringin, Kec. Tanah Sereal, Kota Bogor";"JAWA TIMUR";"16164";"Indonesia";"";"";"";"-6.5716361";"106.7863675";"https://maps.google.com/?cid=0x0:0xe806cbbabefe5ba1";""
"komplek housing";"komplek housing";"Jawa Timur";"";"Jawa Timur";"JAWA TIMUR";"";"Indonesia";"";"";"";"-7.5360639";"112.2384017";"https://maps.google.com/?cid=0x0:0x1030bfbca7cb850";""
"komplek housing";"Komplek perumahan";"House";"XJ6X+RQ3, Sanggrahan, Sukorejo, Kec. Tugu, Kabupaten Trenggalek, Jawa Timur 66352";"Sanggrahan, Sukorejo, Kec. Tugu, Kabupaten Trenggalek";"JAWA TIMUR";"66352";"Indonesia";"";"";"";"-8.0379775";"111.6494081";"https://maps.google.com/?cid=0x0:0xb92fe15cfa68cacd";""
"komplek housing";"Komplek perumahan";"Markas 2";"Jln tugu No.27, Tugu, Sukorejo, Kec. Gandusari, Kabupaten Trenggalek, Jawa Timur 66372";"Tugu, Sukorejo, Kec. Gandusari, Kabupaten Trenggalek";"JAWA TIMUR";"66372";"Indonesia";"";"";"";"-8.1270149";"111.6955137";"https://maps.google.com/?cid=0x0:0xb8ed5a3f0a955a02";""
"komplek housing";"Komplek perumahan";"Pondok Gede Housing II";"Housing II, Jl. Raya Hankam, RT.001/RW.004, Jatirahayu, Pondok Gede, Bekasi, West Java";"Kota Bks, Jawa Barat";"JAWA TIMUR";"";"Indonesia";"";"";"";"-6.2876701";"106.9147674";"https://maps.google.com/?cid=0x0:0x2a52e601c20d18f2";""
"komplek housing";"Perumahan";"Perumahan Villa Merdeka";"CQGP+V7G, Jl. Pesantren No.13, RT.02/RW.07, Kedung Waringin, Kec. Tanah Sereal, Kota Bogor, Jawa Barat 16164";"Jl. Pesantren No.13, RT.02/RW.07, Kedung Waringin, Kec. Tanah Sereal, Kota Bogor";"JAWA TIMUR";"16164";"Indonesia";"";"";"";"-6.5726685";"106.785675";"https://maps.google.com/?cid=0x0:0x412542e4c1d0a3a9";""
"komplek housing";"Komplek perumahan";"Pondok Gede Housing 1";"Jl. Cipta Raya No.45-3, RT.001/RW.003, Jatirahayu, Kec. Pd. Melati, Kota Bks, Jawa Barat 17414";"RT.001/RW.003, Jatirahayu, Kec. Pd. Melati, Kota Bks";"JAWA TIMUR";"17414";"Indonesia";"";"";"";"-6.2852504";"106.9163397";"https://maps.google.com/?cid=0x0:0x3132afedbf38cd61";""
"komplek housing";"Komplek perumahan";"HomeCimol";"Jl. Tentara Pelajar No.28, RT.01/RW.016, Kedung Waringin, Kec. Tanah Sereal, Kota Bogor, Jawa Barat";"Kota Bogor, Jawa Barat";"JAWA TIMUR";"";"Indonesia";"";"";"";"-6.570467";"106.7872946";"https://maps.google.com/?cid=0x0:0x246ee3e44c57d712";""
"komplek housing";"Komplek perumahan";"Kavling 165";"JL. Tentara Pelajar KAV 165 , RT 001/016, Kedung Waringin, Kec. Tanah Sereal, Kota Bogor";"Kota Bogor, Jawa Barat";"JAWA TIMUR";"";"Indonesia";"";"";"";"-6.5735683";"106.7880055";"https://maps.google.com/?cid=0x0:0xd06c669536dc96ff";""
"komplek housing";"Komplek perumahan";"Rasyid house";"Jl. Tentara Pelajar No.Pasama, RT.01/RW.01 No. 58, Kedung Jaya, Kota Bogor, Jawa Barat";"Kota Bogor, Jawa Barat";"JAWA TIMUR";"";"Indonesia";"";"";"";"-6.574469";"106.7891867";"https://maps.google.com/?cid=0x0:0x3207c2721194d177";""
"komplek housing";"Komplek perumahan";"Fathur";"Jl. Tentara Pelajar Gg. Hateup No.54, RT.01/RW.01, Kedung Jaya, Kec. Tanah Sereal, Kota Bogor, Jawa Barat 16124";"RT.01/RW.01, Kedung Jaya, Kec. Tanah Sereal, Kota Bogor";"JAWA TIMUR";"16124";"Indonesia";"";"";"";"-6.5743698";"106.7892549";"https://maps.google.com/?cid=0x0:0x3d5dbfcdb28baf38";""
"komplek housing";"Pembangunan Perumahan";"Imah ce oong";"CQHR+856, Jl. Cimanggu Ciereng, RT.02/RW.07, Kedung Jaya, Kec. Tanah Sereal, Kota Bogor, Jawa Barat 16162";"Jl. Cimanggu Ciereng, RT.02/RW.07, Kedung Jaya, Kec. Tanah Sereal, Kota Bogor";"JAWA TIMUR";"16162";"Indonesia";"";"";"";"-6.5717077";"106.7904017";"https://maps.google.com/?cid=0x0:0xca72800112570d4c";""
"komplek housing";"Komplek perumahan";"Naura House's";"Jl. Tentara Pelajar No.20, RT.01/RW.16, Kedung Waringin, Kec. Tanah Sereal, Kota Bogor, Jawa Barat 16164";"RT.01/RW.16, Kedung Waringin, Kec. Tanah Sereal, Kota Bogor";"JAWA TIMUR";"16164";"Indonesia";" 087780033760";"";"";"-6.571401";"106.7873221";"https://maps.google.com/?cid=0x0:0x8576448c6fbe749b";""
"komplek housing";"Komplek perumahan";"Perumahan Tugu Indah B60";"JRJR+7Q6, Jl. Tugu Residence, Tugu, Kec. Cimanggis, Kota Depok, Jawa Barat 16451";"Jl. Tugu Residence, Tugu, Kec. Cimanggis, Kota Depok";"JAWA TIMUR";"16451";"Indonesia";"";"";"";"-6.3693428";"106.8418905";"https://maps.google.com/?cid=0x0:0x303c9680bed3b264";""
"komplek housing";"Komplek perumahan";"Jalan Cikago";"CQHQ+949, Jl. Tentara Pelajar, RT.02/RW.01, Kedung Waringin, Kec. Tanah Sereal, Kota Bogor, Jawa Barat 16164";"Jl. Tentara Pelajar, RT.02/RW.01, Kedung Waringin, Kec. Tanah Sereal, Kota Bogor";"JAWA TIMUR";"16164";"Indonesia";"";"";"";"-6.571576";"106.7878607";"https://maps.google.com/?cid=0x0:0x2a266c581e01d4d";""
"komplek housing";"Komplek perumahan";"GRAHA MANDIRI";"Jl. Utama No.19, Tugu, Kec. Cimanggis, Kota Depok, Jawa Barat 16451";"Tugu, Kec. Cimanggis, Kota Depok";"JAWA TIMUR";"16451";"Indonesia";"";"";"";"-6.3665013";"106.850777";"https://maps.google.com/?cid=0x0:0x83e3b9df4240cf9c";""
"komplek housing";"Komplek perumahan";"Munajat House";"Mantri Guru, Gg. Mantri Guru No.95, RT.01/RW.2, Kedung Jaya, Kec. Tanah Sereal, Kota Bogor, Jawa Barat 16124";"Gg. Mantri Guru No.95, RT.01/RW.2, Kedung Jaya, Kec. Tanah Sereal, Kota Bogor";"JAWA TIMUR";"16124";"Indonesia";"";"";"";"-6.573847";"106.7902956";"https://maps.google.com/?cid=0x0:0x312473aae8a7a2e5";""
"komplek housing";"Komplek perumahan";"Rumah Tingkat Mul  Vindi";"Jl. Tentara Pelajar Gg. Mantri Guru No.25, RT.05/RW.01, Kedung Jaya, Kec. Tanah Sereal, Kota Bogor, Jawa Barat 16162";"RT.05/RW.01, Kedung Jaya, Kec. Tanah Sereal, Kota Bogor";"JAWA TIMUR";"16162";"Indonesia";" 081384711613";"";"";"-6.5733228";"106.7896069";"https://maps.google.com/?cid=0x0:0x7e783bd79ec68579";""
"komplek housing";"komplek housing";"Ratu mutiara fishing";"Perum situ endah Jl. Ikan Mas No.11, Kedung Waringin, Kec. Tanah Sereal, Kota Bogor, Jawa Barat 16164";"Kedung Waringin, Kec. Tanah Sereal, Kota Bogor";"JAWA TIMUR";"16164";"Indonesia";"";"";"";"-6.5716361";"106.7863675";"https://maps.google.com/?cid=0x0:0xe806cbbabefe5ba1";""
"komplek housing";"Komplek perumahan";"Gg Cikago";"CQHP+8XJ, Jl. Tentara Pelajar, RT.02/RW.01, Kedung Waringin, Kec. Tanah Sereal, Kota Bogor, Jawa Barat 16164";"Jl. Tentara Pelajar, RT.02/RW.01, Kedung Waringin, Kec. Tanah Sereal, Kota Bogor";"JAWA TIMUR";"16164";"Indonesia";"";"";"";"-6.5716639";"106.7873969";"https://maps.google.com/?cid=0x0:0xc05f5da2d74f7b75";""
"komplek housing";"komplek housing";"Rumah Bi Entin";"Jl. Tembakang Bawah Gg. Pahlawan No.75/77, RT.01/RW.02, Kedung Jaya, Kec. Tanah Sereal, Kota Bogor, Jawa Barat 16162";"RT.01/RW.02, Kedung Jaya, Kec. Tanah Sereal, Kota Bogor";"JAWA TIMUR";"16162";"Indonesia";"";"";"";"-6.5714867";"106.7902791";"https://maps.google.com/?cid=0x0:0x2928c0c57f84b45c";""
"komplek housing";"Komplek perumahan";"Rumah Kemal";"Gg. H. Enung No.49, RT.01/RW.02, Kedung Jaya, Kec. Tanah Sereal, Kota Bogor, Jawa Barat 16162";"RT.01/RW.02, Kedung Jaya, Kec. Tanah Sereal, Kota Bogor";"JAWA TIMUR";"16162";"Indonesia";"";"";"";"-6.5724539";"106.7893383";"https://maps.google.com/?cid=0x0:0x3d0788c2b078a67c";""
"komplek housing";"Komplek perumahan";"HAMD Residence";"Gg. Anggrek 4 No.Rt. 004/008, Tugu, Kec. Cimanggis, Kota Depok, Jawa Barat 16451";"Tugu, Kec. Cimanggis, Kota Depok";"JAWA TIMUR";"16451";"Indonesia";" 02148678731";"";"";"-6.3645101";"106.8522619";"https://maps.google.com/?cid=0x0:0xe6e9e6c6c72c268e";""
"komplek housing";"komplek housing";"Jawa Timur";"";"Jawa Timur";"JAWA TIMUR";"";"Indonesia";"";"";"";"-7.5360639";"112.2384017";"https://maps.google.com/?cid=0x0:0x1030bfbca7cb850";""
"komplek housing";"Komplek perumahan";"Pondok Gede Housing II";"Housing II, Jl. Raya Hankam, RT.001/RW.004, Jatirahayu, Pondok Gede, Bekasi, West Java";"Kota Bks, Jawa Barat";"JAWA TIMUR";"";"Indonesia";"";"";"";"-6.2876701";"106.9147674";"https://maps.google.com/?cid=0x0:0x2a52e601c20d18f2";""
"komplek housing";"Komplek perumahan";"Pondok gede housing";"PW69+G6Q, Jl. Teratai, RT.005/RW.003, Jatirahayu, Kec. Pd. Melati, Kota Bks, Jawa Barat 17414";"Jl. Teratai, RT.005/RW.003, Jatirahayu, Kec. Pd. Melati, Kota Bks";"JAWA TIMUR";"17414";"Indonesia";"";"";"";"-6.2886602";"106.9181046";"https://maps.google.com/?cid=0x0:0xe09247830c5049e9";""
"komplek housing";"komplek housing";"Jawa Tengah 50181";"Kabupaten Semarang, Jawa Tengah";"Kabupaten Semarang, Jawa Tengah";"JAWA TIMUR";"";"Indonesia";"";"";"";"-7.2854929";"110.4321671";"https://maps.google.com/?cid=0x0:0x1c00c5eb5b5393e0";""
"komplek housing";"komplek housing";"Jawa Timur";"";"Jawa Timur";"JAWA TIMUR";"";"Indonesia";"";"";"";"-7.5360639";"112.2384017";"https://maps.google.com/?cid=0x0:0x1030bfbca7cb850";""
"komplek housing";"Komplek perumahan";"Rumah adam pradipta husein";"Jl. Shiangrila Sango,BLOK F IV-V no 20, perumahan sangrila sango RW003 No.RT 002, Randu Garut, Kec. Tugu, Kota Semarang, Jawa Tengah 50181";"perumahan sangrila sango RW003 No.RT 002, Randu Garut, Kec. Tugu, Kota Semarang";"JAWA TIMUR";"50181";"Indonesia";"";"";"";"-6.9645898";"110.3276625";"https://maps.google.com/?cid=0x0:0xf4218b155e899ac";""
"komplek housing";"komplek housing";"Rumah Yusup Bachtiyar";"28PH+37X, Randu Garut, Kec. Tugu, Kota Semarang, Jawa Tengah 50181";"Randu Garut, Kec. Tugu, Kota Semarang";"JAWA TIMUR";"50181";"Indonesia";"";"";"";"-6.964732";"110.3281992";"https://maps.google.com/?cid=0x0:0xb0f9acd3db7ca621";""
"komplek housing";"Rumah wisata";"KOS MBAH DARGO";"RT.4/RW.1, Randu Garut, Kec. Tugu, Kota Semarang, Jawa Tengah 50181";"Randu Garut, Kec. Tugu, Kota Semarang";"JAWA TIMUR";"50181";"Indonesia";" 089634886668";"";"";"-6.9728323";"110.3308188";"https://maps.google.com/?cid=0x0:0x4d4e5aec6d26b9a5";""
"komplek housing";"Pembangunan Perumahan";"Perumahan pakis";"Jl. Perum Asrikaton No.24, Bunut Kidul, Asrikaton, Kec. Pakis, Kabupaten Malang, Jawa Timur 65154";"Bunut Kidul, Asrikaton, Kec. Pakis, Kabupaten Malang";"JAWA TIMUR";"65154";"Indonesia";"";"";"";"-7.9461732";"112.7040646";"https://maps.google.com/?cid=0x0:0x18d909db226997e9";""
"komplek housing";"Komplek perumahan";"Mas obet";"28H7+7C3, Jl. Gg. 1 Tikung, Randu Garut, Kec. Tugu, Kota Semarang, Jawa Tengah 50181";"Jl. Gg. 1 Tikung, Randu Garut, Kec. Tugu, Kota Semarang";"JAWA TIMUR";"50181";"Indonesia";"";"";"";"-6.9718046";"110.3135985";"https://maps.google.com/?cid=0x0:0x636273a2671b34d2";""
"komplek housing";"Komplek perumahan";"Rumah Hook";"Perumahan wahana, Blk. C4 No.14, Jatiranggon, Kec. Jatisampurna, Kota Bks, Jawa Barat 17432";"Blk. C4 No.14, Jatiranggon, Kec. Jatisampurna, Kota Bks";"JAWA TIMUR";"17432";"Indonesia";"";"";"";"-6.347432";"106.9344917";"https://maps.google.com/?cid=0x0:0x13a64c0b76a7ff97";""
"komplek housing";"komplek housing";"Kos Walsiyah";"28JH+5JM, Jl. Semarang Mangkang Dpn, Jl. Kawasan Industri Wijaya Kusuma, Randu Garut, Kec. Tugu, Kota Semarang, Jawa Tengah 50181";"Jl. Semarang Mangkang Dpn, Jl. Kawasan Industri Wijaya Kusuma, Randu Garut, Kec. Tugu, Kota Semarang";"JAWA TIMUR";"50181";"Indonesia";"";"";"";"-6.9695287";"110.3290364";"https://maps.google.com/?cid=0x0:0x58e56801c3ce4ba3";""
"komplek housing";"Pembangunan Perumahan";"Akyo";"Jl. Sabin Sari I, Randu Garut, Kec. Tugu, Kota Semarang, Jawa Tengah 50181";"Randu Garut, Kec. Tugu, Kota Semarang";"JAWA TIMUR";"50181";"Indonesia";"";"";"";"-6.9725504";"110.3197416";"https://maps.google.com/?cid=0x0:0xa1bdd83f8e0f7ba6";""
"komplek housing";"komplek housing";"Jawa Tengah 50185";"Tambakaji, Kec. Ngaliyan, Kota Semarang, Jawa Tengah";"Kota Semarang, Jawa Tengah";"JAWA TIMUR";"";"Indonesia";"";"";"";"-6.9917783";"110.3398179";"https://maps.google.com/?cid=0x0:0x1c00c5eb5b539420";""
"komplek housing";"komplek housing";"Jawa Timur";"";"Jawa Timur";"JAWA TIMUR";"";"Indonesia";"";"";"";"-7.5360639";"112.2384017";"https://maps.google.com/?cid=0x0:0x1030bfbca7cb850";""
"komplek housing";"Komplek perumahan";"House";"XJ6X+RQ3, Sanggrahan, Sukorejo, Kec. Tugu, Kabupaten Trenggalek, Jawa Timur 66352";"Sanggrahan, Sukorejo, Kec. Tugu, Kabupaten Trenggalek";"JAWA TIMUR";"66352";"Indonesia";"";"";"";"-8.0379775";"111.6494081";"https://maps.google.com/?cid=0x0:0xb92fe15cfa68cacd";""
"komplek housing";"Komplek perumahan";"POJOK EKSPRESI CHIRDAM";"CQHQ+6W2, Gg. Pahlawan, RT.01/RW.07, Kedung Jaya, Kec. Tanah Sereal, Kota Bogor, Jawa Barat";"Kota Bogor, Jawa Barat";"JAWA TIMUR";"";"Indonesia";"";"";"";"-6.5719905";"106.7897804";"https://maps.google.com/?cid=0x0:0xfc9dc30041332ee1";""
"komplek housing";"Pembangunan Perumahan";"Imah ce oong";"CQHR+856, Jl. Cimanggu Ciereng, RT.02/RW.07, Kedung Jaya, Kec. Tanah Sereal, Kota Bogor, Jawa Barat 16162";"Jl. Cimanggu Ciereng, RT.02/RW.07, Kedung Jaya, Kec. Tanah Sereal, Kota Bogor";"JAWA TIMUR";"16162";"Indonesia";"";"";"";"-6.5717077";"106.7904017";"https://maps.google.com/?cid=0x0:0xca72800112570d4c";""
"komplek housing";"Perumahan";"Perumahan Villa Merdeka";"CQGP+V7G, Jl. Pesantren No.13, RT.02/RW.07, Kedung Waringin, Kec. Tanah Sereal, Kota Bogor, Jawa Barat 16164";"Jl. Pesantren No.13, RT.02/RW.07, Kedung Waringin, Kec. Tanah Sereal, Kota Bogor";"JAWA TIMUR";"16164";"Indonesia";"";"";"";"-6.5726685";"106.785675";"https://maps.google.com/?cid=0x0:0x412542e4c1d0a3a9";""
"komplek housing";"komplek housing";"Rumah Bi Entin";"Jl. Tembakang Bawah Gg. Pahlawan No.75/77, RT.01/RW.02, Kedung Jaya, Kec. Tanah Sereal, Kota Bogor, Jawa Barat 16162";"RT.01/RW.02, Kedung Jaya, Kec. Tanah Sereal, Kota Bogor";"JAWA TIMUR";"16162";"Indonesia";"";"";"";"-6.5714867";"106.7902791";"https://maps.google.com/?cid=0x0:0x2928c0c57f84b45c";""
"komplek housing";"Komplek perumahan";"Kavling 165";"JL. Tentara Pelajar KAV 165 , RT 001/016, Kedung Waringin, Kec. Tanah Sereal, Kota Bogor";"Kota Bogor, Jawa Barat";"JAWA TIMUR";"";"Indonesia";"";"";"";"-6.5735683";"106.7880055";"https://maps.google.com/?cid=0x0:0xd06c669536dc96ff";""
"komplek housing";"Komplek perumahan";"HomeCimol";"Jl. Tentara Pelajar No.28, RT.01/RW.016, Kedung Waringin, Kec. Tanah Sereal, Kota Bogor, Jawa Barat";"Kota Bogor, Jawa Barat";"JAWA TIMUR";"";"Indonesia";"";"";"";"-6.570467";"106.7872946";"https://maps.google.com/?cid=0x0:0x246ee3e44c57d712";""
"komplek housing";"Komplek perumahan";"Naura House's";"Jl. Tentara Pelajar No.20, RT.01/RW.16, Kedung Waringin, Kec. Tanah Sereal, Kota Bogor, Jawa Barat 16164";"RT.01/RW.16, Kedung Waringin, Kec. Tanah Sereal, Kota Bogor";"JAWA TIMUR";"16164";"Indonesia";" 087780033760";"";"";"-6.571401";"106.7873221";"https://maps.google.com/?cid=0x0:0x8576448c6fbe749b";""
"komplek housing";"Komplek perumahan";"Rasyid house";"Jl. Tentara Pelajar No.Pasama, RT.01/RW.01 No. 58, Kedung Jaya, Kota Bogor, Jawa Barat";"Kota Bogor, Jawa Barat";"JAWA TIMUR";"";"Indonesia";"";"";"";"-6.574469";"106.7891867";"https://maps.google.com/?cid=0x0:0x3207c2721194d177";""
"komplek housing";"Komplek perumahan";"Fathur";"Jl. Tentara Pelajar Gg. Hateup No.54, RT.01/RW.01, Kedung Jaya, Kec. Tanah Sereal, Kota Bogor, Jawa Barat 16124";"RT.01/RW.01, Kedung Jaya, Kec. Tanah Sereal, Kota Bogor";"JAWA TIMUR";"16124";"Indonesia";"";"";"";"-6.5743698";"106.7892549";"https://maps.google.com/?cid=0x0:0x3d5dbfcdb28baf38";""
"komplek housing";"Komplek perumahan";"Rumah Kemal";"Gg. H. Enung No.49, RT.01/RW.02, Kedung Jaya, Kec. Tanah Sereal, Kota Bogor, Jawa Barat 16162";"RT.01/RW.02, Kedung Jaya, Kec. Tanah Sereal, Kota Bogor";"JAWA TIMUR";"16162";"Indonesia";"";"";"";"-6.5724539";"106.7893383";"https://maps.google.com/?cid=0x0:0x3d0788c2b078a67c";""
"komplek housing";"Pembangunan Perumahan";"rumah yakub";"Gg. Mantri Guru Blok Mantri Guru No.32, RT.04/RW.01, Kedung Jaya, Kec. Tanah Sereal, Kota Bogor, Jawa Barat 16162";"RT.04/RW.01, Kedung Jaya, Kec. Tanah Sereal, Kota Bogor";"JAWA TIMUR";"16162";"Indonesia";"";"";"";"-6.5733827";"106.7892286";"https://maps.google.com/?cid=0x0:0xa6e99e35dbaca507";""
"komplek housing";"Komplek perumahan";"Perumahan Tugu Indah B60";"JRJR+7Q6, Jl. Tugu Residence, Tugu, Kec. Cimanggis, Kota Depok, Jawa Barat 16451";"Jl. Tugu Residence, Tugu, Kec. Cimanggis, Kota Depok";"JAWA TIMUR";"16451";"Indonesia";"";"";"";"-6.3693428";"106.8418905";"https://maps.google.com/?cid=0x0:0x303c9680bed3b264";""
"komplek housing";"Komplek perumahan";"Pondok Gede Housing II";"Housing II, Jl. Raya Hankam, RT.001/RW.004, Jatirahayu, Pondok Gede, Bekasi, West Java";"Kota Bks, Jawa Barat";"JAWA TIMUR";"";"Indonesia";"";"";"";"-6.2876701";"106.9147674";"https://maps.google.com/?cid=0x0:0x2a52e601c20d18f2";""
"komplek housing";"Komplek perumahan";"Munajat House";"Mantri Guru, Gg. Mantri Guru No.95, RT.01/RW.2, Kedung Jaya, Kec. Tanah Sereal, Kota Bogor, Jawa Barat 16124";"Gg. Mantri Guru No.95, RT.01/RW.2, Kedung Jaya, Kec. Tanah Sereal, Kota Bogor";"JAWA TIMUR";"16124";"Indonesia";"";"";"";"-6.573847";"106.7902956";"https://maps.google.com/?cid=0x0:0x312473aae8a7a2e5";""
"komplek housing";"Komplek perumahan";"Rumah Tingkat Mul  Vindi";"Jl. Tentara Pelajar Gg. Mantri Guru No.25, RT.05/RW.01, Kedung Jaya, Kec. Tanah Sereal, Kota Bogor, Jawa Barat 16162";"RT.05/RW.01, Kedung Jaya, Kec. Tanah Sereal, Kota Bogor";"JAWA TIMUR";"16162";"Indonesia";" 081384711613";"";"";"-6.5733228";"106.7896069";"https://maps.google.com/?cid=0x0:0x7e783bd79ec68579";""
"komplek housing";"Komplek perumahan";"Jalan Cikago";"CQHQ+949, Jl. Tentara Pelajar, RT.02/RW.01, Kedung Waringin, Kec. Tanah Sereal, Kota Bogor, Jawa Barat 16164";"Jl. Tentara Pelajar, RT.02/RW.01, Kedung Waringin, Kec. Tanah Sereal, Kota Bogor";"JAWA TIMUR";"16164";"Indonesia";"";"";"";"-6.571576";"106.7878607";"https://maps.google.com/?cid=0x0:0x2a266c581e01d4d";""
"komplek housing";"Komplek perumahan";"Beskem";"Gg. Madrasah No.1, RT.02/RW.03, Kedung Jaya, Kec. Tanah Sereal, Kota Bogor, Jawa Barat 16164";"RT.02/RW.03, Kedung Jaya, Kec. Tanah Sereal, Kota Bogor";"JAWA TIMUR";"16164";"Indonesia";"";"";"";"-6.5707572";"106.7888625";"https://maps.google.com/?cid=0x0:0x7a14b2ca8452063e";""
"komplek housing";"Komplek perumahan";"Rumah Arlinta";"Jl. Tentara Pelajar No.2, RT.02/RW.01, Kedung Jaya, Kec. Tanah Sereal, Kota Bogor, Jawa Barat 16163";"RT.02/RW.01, Kedung Jaya, Kec. Tanah Sereal, Kota Bogor";"JAWA TIMUR";"16163";"Indonesia";"";"";"";"-6.5727616";"106.7878726";"https://maps.google.com/?cid=0x0:0xe361061c508b018c";""
"komplek housing";"Komplek perumahan";"Gg Cikago";"CQHP+8XJ, Jl. Tentara Pelajar, RT.02/RW.01, Kedung Waringin, Kec. Tanah Sereal, Kota Bogor, Jawa Barat 16164";"Jl. Tentara Pelajar, RT.02/RW.01, Kedung Waringin, Kec. Tanah Sereal, Kota Bogor";"JAWA TIMUR";"16164";"Indonesia";"";"";"";"-6.5716639";"106.7873969";"https://maps.google.com/?cid=0x0:0xc05f5da2d74f7b75";""
"komplek housing";"komplek housing";"Perumahan Tugu Indah B49";"Perumahan Tugu Indah B49, Tugu, Kec. Cimanggis, Kota Depok, Jawa Barat";"Kota Depok, Jawa Barat";"JAWA TIMUR";"";"Indonesia";"";"";"";"-6.3695859";"106.8416551";"https://maps.google.com/?cid=0x0:0x6f6fc0d0bf50a57d";""
"komplek housing";"komplek housing";"Dhony";"XPXQ+3Q8, Cari, Dawuhan, Kec. Trenggalek, Kabupaten Trenggalek, Jawa Timur 66318";"Cari, Dawuhan, Kec. Trenggalek, Kabupaten Trenggalek";"JAWA TIMUR";"66318";"Indonesia";"";"";"";"-8.0025755";"111.7397242";"https://maps.google.com/?cid=0x0:0x2252f88de8c9aaee";""
"komplek housing";"komplek housing";"andeng andeng";"XPP8+56V, RT.6/RW.3, Krajan, Sumberdadi, Kec. Trenggalek, Kabupaten Trenggalek, Jawa Timur 66319";"RT.6/RW.3, Krajan, Sumberdadi, Kec. Trenggalek, Kabupaten Trenggalek";"JAWA TIMUR";"66319";"Indonesia";"";"";"";"-8.0136191";"111.7146428";"https://maps.google.com/?cid=0x0:0xe9d4ca5207c8b464";""
"komplek housing";"Komplek perumahan";"PAGUYUBAN KUSIR ANDONG TRENGGALEK";"Jl. Pakel Lor No.18, Krajan, Banaran, Kec. Tugu, Kabupaten Trenggalek, Jawa Timur 66318";"Krajan, Banaran, Kec. Tugu, Kabupaten Trenggalek";"JAWA TIMUR";"66318";"Indonesia";" 081364034105";"";"";"-8.039943";"111.669572";"https://maps.google.com/?cid=0x0:0x570fd66b4cc8ed9e";""
"komplek housing";"Komplek perumahan";"Rumah Galang mahesa";"XPCM+W9F, Unnamed Rd, Sukosari, Kec. Trenggalek, Kabupaten Trenggalek, Jawa Timur 66318";"Unnamed Rd, Sukosari, Kec. Trenggalek, Kabupaten Trenggalek";"JAWA TIMUR";"66318";"Indonesia";"";"";"";"-8.02768";"111.7334173";"https://maps.google.com/?cid=0x0:0x47efa2bd60ba40a5";""
"komplek housing";"Komplek perumahan";"Rumah pak syahri";"XPVP+2CP, Unnamed Rd, Cari, Dawuhan, Kec. Trenggalek, Kabupaten Trenggalek, Jawa Timur 66318";"Unnamed Rd, Cari, Dawuhan, Kec. Trenggalek, Kabupaten Trenggalek";"JAWA TIMUR";"66318";"Indonesia";"";"";"";"-8.0074149";"111.7360901";"https://maps.google.com/?cid=0x0:0x17ce0c870824b9f1";""
"komplek housing";"Pembangunan Perumahan";"Ucik";"2P3W+9WP, Dawuhan, Kec. Trenggalek, Kabupaten Trenggalek, Jawa Timur 66318";"Dawuhan, Kec. Trenggalek, Kabupaten Trenggalek";"JAWA TIMUR";"66318";"Indonesia";"";"";"";"-7.9965296";"111.7473168";"https://maps.google.com/?cid=0x0:0xba2450f45ce00fb2";""
"komplek housing";"Pembangunan Perumahan";"Mbah Joyo Fams";"2P3V+CQ6, Dawuhan, Kec. Trenggalek, Kabupaten Trenggalek, Jawa Timur 66318";"Dawuhan, Kec. Trenggalek, Kabupaten Trenggalek";"JAWA TIMUR";"66318";"Indonesia";"";"";"";"-7.9960488";"111.7450098";"https://maps.google.com/?cid=0x0:0x3297f6f8d28fe86a";""
"komplek housing";"Pembangunan Perumahan";"Fastabiqul Khoirot";"2P8M+PRC, Joho, Depok, Kec. Bend., Kabupaten Trenggalek, Jawa Timur 66351";"Joho, Depok, Kec. Bend., Kabupaten Trenggalek";"JAWA TIMUR";"66351";"Indonesia";" 083827747973";"";"";"-7.9850362";"111.7341576";"https://maps.google.com/?cid=0x0:0xfb510cf25f401771";""
"komplek housing";"komplek housing";"Ghofir chill house";"RT.14/RW.04, Cari, Dawuhan, Kec. Trenggalek, Kabupaten Trenggalek, Jawa Timur 66318";"Cari, Dawuhan, Kec. Trenggalek, Kabupaten Trenggalek";"JAWA TIMUR";"66318";"Indonesia";" 082139319452";"";"";"-7.9917429";"111.7467255";"https://maps.google.com/?cid=0x0:0x678af44044f9484b";""
"komplek housing";"Pembangunan Perumahan";"RUMAH SAPANGAT (NOVITA)";"2P6X+68P, RT.14/RW.04, Cari, Dawuhan, Kec. Trenggalek, Kabupaten Trenggalek, Jawa Timur";"Kabupaten Trenggalek, Jawa Timur";"JAWA TIMUR";"";"Indonesia";"";"";"";"-7.9894139";"111.7483385";"https://maps.google.com/?cid=0x0:0x3fa6727c54281a22";""
"komplek housing";"komplek housing";"السلام عليكم ورحمة الله وبركاتهُ";"XPCQ+8F, Krajan, Parakan, Kec. Trenggalek, Kabupaten Trenggalek, Jawa Timur";"Kabupaten Trenggalek, Jawa Timur";"JAWA TIMUR";"";"Indonesia";"";"";"";"-8.0292401";"111.7386463";"https://maps.google.com/?cid=0x0:0xc350a9dd875437a4";""
"komplek housing";"Komplek perumahan";"Rumah mak Indun";"2P3V+JCG desa s, Cari, Dawuhan, Kec. Trenggalek, Kabupaten Trenggalek, Jawa Timur 66318";"Cari, Dawuhan, Kec. Trenggalek, Kabupaten Trenggalek";"JAWA TIMUR";"66318";"Indonesia";"";"";"";"-7.9959362";"111.7435799";"https://maps.google.com/?cid=0x0:0xde9a989aae0e63b";""
"komplek housing";"Pembangunan Perumahan";"Bapak Sudjito";"2P4W+CFV, Cari, Dawuhan, Kec. Trenggalek, Kabupaten Trenggalek, Jawa Timur";"Kabupaten Trenggalek, Jawa Timur";"JAWA TIMUR";"";"Indonesia";"";"";"";"-7.9938784";"111.7461839";"https://maps.google.com/?cid=0x0:0xc88b558ca08dd266";""
"komplek housing";"komplek housing";"Rumah Raihan Han";"Jl. Raya Trenggalek - Ponorogo No.KM 03, Kranding, Tamanan, Kec. Trenggalek, Kabupaten Trenggalek, Jawa Timur 66361";"Kranding, Tamanan, Kec. Trenggalek, Kabupaten Trenggalek";"JAWA TIMUR";"66361";"Indonesia";"";"";"";"-8.0026937";"111.7393795";"https://maps.google.com/?cid=0x0:0x41af804b1bb9da7a";""
"komplek housing";"Komplek perumahan";"Bapak H. Ibnu Aqil";"XPFP+X7Q, Sukosari, Kec. Trenggalek, Kabupaten Trenggalek, Jawa Timur";"Kabupaten Trenggalek, Jawa Timur";"JAWA TIMUR";"";"Indonesia";"";"";"";"-8.0250285";"111.7357237";"https://maps.google.com/?cid=0x0:0x94caef5208d17a2";""
"komplek housing";"Komplek perumahan";"Haikal Home";"2P4P+9HQ, Soko, Depok, Kec. Bend., Kabupaten Trenggalek, Jawa Timur";"Kabupaten Trenggalek, Jawa Timur";"JAWA TIMUR";"";"Indonesia";"";"";"";"-7.9940265";"111.7364998";"https://maps.google.com/?cid=0x0:0x9461684d1ea28358";""
"komplek housing";"Komplek perumahan";"Rumah pak tolo";"XPXC+QF6, RT.10/RW.005, Mojo, Sumberdadi, Kec. Trenggalek, Kabupaten Trenggalek, Jawa Timur 66319";"RT.10/RW.005, Mojo, Sumberdadi, Kec. Trenggalek, Kabupaten Trenggalek";"JAWA TIMUR";"66319";"Indonesia";"";"";"";"-8.0005875";"111.7211406";"https://maps.google.com/?cid=0x0:0x1b9c5b3fb17a8fa";""
"komplek housing";"Komplek perumahan";"Rumah Bagus Saputro";"2P8M+PRC, Joho, Depok, Kec. Bend., Kabupaten Trenggalek, Jawa Timur 66351";"Joho, Depok, Kec. Bend., Kabupaten Trenggalek";"JAWA TIMUR";"66351";"Indonesia";" 083115640912";"";"";"-7.984075";"111.7343784";"https://maps.google.com/?cid=0x0:0x1c7ca6ca43c189bb";""
"komplek housing";"Komplek perumahan";"Rumah nenek idham";"XPVR+9F, Dawuhan, Kec. Trenggalek, Kabupaten Trenggalek, Jawa Timur 66318";"Dawuhan, Kec. Trenggalek, Kabupaten Trenggalek";"JAWA TIMUR";"66318";"Indonesia";"";"";"";"-8.0065152";"111.741138";"https://maps.google.com/?cid=0x0:0xf574e4d33ec3aa7b";""
"komplek housing";"komplek housing";"Jawa Timur 66318";"Kec. Trenggalek, Kabupaten Trenggalek, Jawa Timur";"Kabupaten Trenggalek, Jawa Timur";"JAWA TIMUR";"";"Indonesia";"";"";"";"-8.0061785";"111.7435799";"https://maps.google.com/?cid=0x0:0x1c00c5eb5b541a50";""
"komplek housing";"Komplek perumahan";"Rumah pak no bereng";"XM67+XQ8, Krajan, Banaran, Kec. Tugu, Kabupaten Trenggalek, Jawa Timur 66318";"Krajan, Banaran, Kec. Tugu, Kabupaten Trenggalek";"JAWA TIMUR";"66318";"Indonesia";"";"";"";"-8.037582";"111.6644378";"https://maps.google.com/?cid=0x0:0xf1c3d4a0fe0cde0";""
"komplek housing";"Komplek perumahan";"Omah e Aurum";"XM76+M34, Krajan, Banaran, Kec. Tugu, Kabupaten Trenggalek, Jawa Timur 66318";"Krajan, Banaran, Kec. Tugu, Kabupaten Trenggalek";"JAWA TIMUR";"66318";"Indonesia";"";"";"";"-8.0358715";"111.6602084";"https://maps.google.com/?cid=0x0:0xce8df003efa9b8a3";""
"komplek housing";"Komplek perumahan";"Widayati/Yusnanto(Gontong)";"XM78+JWQ, Soro, Banaran, Kec. Tugu, Kabupaten Trenggalek, Jawa Timur 66318";"Soro, Banaran, Kec. Tugu, Kabupaten Trenggalek";"JAWA TIMUR";"66318";"Indonesia";"";"";"";"-8.0359028";"111.6673497";"https://maps.google.com/?cid=0x0:0x550a284b0a7d862e";""
"komplek housing";"Komplek perumahan";"Melvin Home";"XM79+FX7, Jl. Pakel Lor, Krajan, Banaran, Kec. Tugu, Kabupaten Trenggalek, Jawa Timur 66318";"Jl. Pakel Lor, Krajan, Banaran, Kec. Tugu, Kabupaten Trenggalek";"JAWA TIMUR";"66318";"Indonesia";"";"";"";"-8.0363829";"111.6699572";"https://maps.google.com/?cid=0x0:0x5c2c928e880b22fe";""
"komplek housing";"Toko Unggas";"JUAL AYAM BEKISAR PAK MUYONO";"XM59+6Q9, Jl. Pakel Lor, Krajan, Banaran, Kec. Tugu, Kabupaten Trenggalek, Jawa Timur 66318";"Jl. Pakel Lor, Krajan, Banaran, Kec. Tugu, Kabupaten Trenggalek";"JAWA TIMUR";"66318";"Indonesia";"";"";"";"-8.0420859";"111.6693906";"https://maps.google.com/?cid=0x0:0xb0d6fd8a2f015c76";""
"komplek housing";"Pembangunan Perumahan";"Ocean jaya";"XM9F+2PQ, Jampi, Ngentrong, Karangan, Kabupaten Trenggalek, Jawa Timur 66318";"Jampi, Ngentrong, Karangan, Kabupaten Trenggalek";"JAWA TIMUR";"66318";"Indonesia";"";"";"";"-8.0324062";"111.6743458";"https://maps.google.com/?cid=0x0:0xb1512a250d06ee80";""
"komplek housing";"komplek housing";"Kec. Tugu";"Kabupaten Trenggalek, Jawa Timur";"Kabupaten Trenggalek, Jawa Timur";"JAWA TIMUR";"";"Indonesia";"";"";"";"-8.0454713";"111.6555196";"https://maps.google.com/?cid=0x0:0x4027a76e3531f20";""
"komplek housing";"Komplek perumahan";"POJOK EKSPRESI CHIRDAM";"CQHQ+6W2, Gg. Pahlawan, RT.01/RW.07, Kedung Jaya, Kec. Tanah Sereal, Kota Bogor, Jawa Barat";"Kota Bogor, Jawa Barat";"JAWA TIMUR";"";"Indonesia";"";"";"";"-6.5719905";"106.7897804";"https://maps.google.com/?cid=0x0:0xfc9dc30041332ee1";""
"komplek housing";"Perumahan";"Perumahan Villa Merdeka";"CQGP+V7G, Jl. Pesantren No.13, RT.02/RW.07, Kedung Waringin, Kec. Tanah Sereal, Kota Bogor, Jawa Barat 16164";"Jl. Pesantren No.13, RT.02/RW.07, Kedung Waringin, Kec. Tanah Sereal, Kota Bogor";"JAWA TIMUR";"16164";"Indonesia";"";"";"";"-6.5726685";"106.785675";"https://maps.google.com/?cid=0x0:0x412542e4c1d0a3a9";""
"komplek housing";"Perhimpunan Pengembang Perumahan";"rumah cio";"WJWM+RGJ, Mojo Kidul, Jambu, Kec. Tugu, Kabupaten Trenggalek, Jawa Timur 66352";"Mojo Kidul, Jambu, Kec. Tugu, Kabupaten Trenggalek";"JAWA TIMUR";"66352";"Indonesia";"";"";"";"-8.0529121";"111.6337782";"https://maps.google.com/?cid=0x0:0x255897ea85904867";""
"komplek housing";"komplek housing";"Bahrul Fikri";"XJFF+WMC, Jalan Dusun, RT.13/RW.5, Krajan, Dermosari, Kec. Tugu, Kabupaten Trenggalek, Jawa Timur 66352";"Jalan Dusun, RT.13/RW.5, Krajan, Dermosari, Kec. Tugu, Kabupaten Trenggalek";"JAWA TIMUR";"66352";"Indonesia";"";"";"";"-8.0251859";"111.6241542";"https://maps.google.com/?cid=0x0:0x8de8c97570fb5081";""
"komplek housing";"Komplek perumahan";"Rumah saya";"WMX4+Q4, Kebon, Gondang, Kec. Tugu, Kabupaten Trenggalek, Jawa Timur 66352";"Kebon, Gondang, Kec. Tugu, Kabupaten Trenggalek";"JAWA TIMUR";"66352";"Indonesia";"";"";"";"-8.050788";"111.6555967";"https://maps.google.com/?cid=0x0:0x12702c212f58090e";""
"komplek housing";"komplek housing";"Rumah Fardhan";"XJ3X+PWM, Setono, Gondang, Kec. Tugu, Kabupaten Trenggalek, Jawa Timur 66352";"Setono, Gondang, Kec. Tugu, Kabupaten Trenggalek";"JAWA TIMUR";"66352";"Indonesia";"";"";"";"-8.0453015";"111.6489046";"https://maps.google.com/?cid=0x0:0x8acaac00fa84e833";""
"komplek housing";"komplek housing";"Rumah putih";"WJWP+XW, Jumok, Tumpuk, Kec. Tugu, Kabupaten Trenggalek, Jawa Timur 66352";"Jumok, Tumpuk, Kec. Tugu, Kabupaten Trenggalek";"JAWA TIMUR";"66352";"Indonesia";"";"";"";"-8.052536";"111.6372745";"https://maps.google.com/?cid=0x0:0xda855a2f9958501";""
"komplek housing";"komplek housing";"Perumahan";"XHFR+WJQ, Ngerjo, Gading, Kec. Tugu, Kabupaten Trenggalek, Jawa Timur 66352";"Ngerjo, Gading, Kec. Tugu, Kabupaten Trenggalek";"JAWA TIMUR";"66352";"Indonesia";"";"";"";"-8.024194";"111.59058";"https://maps.google.com/?cid=0x0:0xf02358a5104ccc34";""
"komplek housing";"komplek housing";"DELON Home";"XJC9+75Q, Pakel, Pucanganak, Kec. Tugu, Kabupaten Trenggalek, Jawa Timur 66352";"Pakel, Pucanganak, Kec. Tugu, Kabupaten Trenggalek";"JAWA TIMUR";"66352";"Indonesia";"";"";"";"-8.0292449";"111.6180079";"https://maps.google.com/?cid=0x0:0xcc0a91b4ba5f97e8";""
"komplek housing";"Komplek perumahan";"Rumah ku";"WJWQ+R2X, Jumok, Tumpuk, Kec. Tugu, Kabupaten Trenggalek, Jawa Timur 66352";"Jumok, Tumpuk, Kec. Tugu, Kabupaten Trenggalek";"JAWA TIMUR";"66352";"Indonesia";" 081346256381";"";"";"-8.0528804";"111.6375991";"https://maps.google.com/?cid=0x0:0x47618791845c6675";""
"komplek housing";"Komplek perumahan";"Rumah Singgah Pak Sujiono";"WJVJ+JQ2, Unnamed Road, Mojo Kidul, Jambu, Kec. Tugu, Kabupaten Trenggalek, Jawa Timur 66352";"Unnamed Road, Mojo Kidul, Jambu, Kec. Tugu, Kabupaten Trenggalek";"JAWA TIMUR";"66352";"Indonesia";"";"";"";"-8.0559979";"111.6318799";"https://maps.google.com/?cid=0x0:0x7b97444030650657";""
"komplek housing";"Perhimpunan Pengembang Perumahan";"Rumah Kurnia";"XJ9J+XV8, Krajan, Jambu, Kec. Tugu, Kabupaten Trenggalek, Jawa Timur 66352";"Krajan, Jambu, Kec. Tugu, Kabupaten Trenggalek";"JAWA TIMUR";"66352";"Indonesia";"";"";"";"-8.0293859";"111.6324388";"https://maps.google.com/?cid=0x0:0xbdf5a0794754de53";""
"komplek housing";"Komplek perumahan";"Konyel home";"XJRG+79P, Nglengkong, Dermosari, Kec. Tugu, Kabupaten Trenggalek, Jawa Timur 66352";"Nglengkong, Dermosari, Kec. Tugu, Kabupaten Trenggalek";"JAWA TIMUR";"66352";"Indonesia";"";"";"";"-8.0092753";"111.6259459";"https://maps.google.com/?cid=0x0:0x5a841470b54e32c1";""
"komplek housing";"Komplek perumahan";"House of bintis";"WMW2+F6V, Krajan, Tumpuk, Kec. Tugu, Kabupaten Trenggalek, Jawa Timur 66352";"Krajan, Tumpuk, Kec. Tugu, Kabupaten Trenggalek";"JAWA TIMUR";"66352";"Indonesia";"";"";"";"-8.053764";"111.6505496";"https://maps.google.com/?cid=0x0:0x28fb87b697f82df6";""
"komplek housing";"Pembangunan Perumahan";"Misni S";"XJ7X+4QG, Dkh sanggrahan, RT.01/RW.01, Sanggrahan, Sukorejo, Kec. Tugu, Kabupaten Trenggalek, Jawa Timur 66352";"Dkh sanggrahan, RT.01/RW.01, Sanggrahan, Sukorejo, Kec. Tugu, Kabupaten Trenggalek";"JAWA TIMUR";"66352";"Indonesia";"";"";"";"-8.0371756";"111.6494514";"https://maps.google.com/?cid=0x0:0x9cb74caebf20ca7";""
"komplek housing";"komplek housing";"Heru";"XJGG+5H2, Krajan, Dermosari, Kec. Tugu, Kabupaten Trenggalek, Jawa Timur 66352";"Krajan, Dermosari, Kec. Tugu, Kabupaten Trenggalek";"JAWA TIMUR";"66352";"Indonesia";"";"";"";"-8.0246192";"111.626377";"https://maps.google.com/?cid=0x0:0xe813319016c6c8b4";""
"komplek housing";"Komplek perumahan";"Benben";"RT.05/RW.03, Krajan, Sukorejo, Kec. Tugu, Kabupaten Trenggalek, Jawa Timur 66352";"Krajan, Sukorejo, Kec. Tugu, Kabupaten Trenggalek";"JAWA TIMUR";"66352";"Indonesia";" +886902249442";"";"";"-8.0426327";"111.644437";"https://maps.google.com/?cid=0x0:0xc42ffd93f48c3b16";""
"komplek housing";"Komplek perumahan";"GRIYA KASBIT";"XJC4+CH9, Jl. Raya Trenggalek - Ponorogo, desa Joho, Pucanganak, Kec. Tugu, Kabupaten Trenggalek, Jawa Timur 66352";"Jl. Raya Trenggalek - Ponorogo, desa Joho, Pucanganak, Kec. Tugu, Kabupaten Trenggalek";"JAWA TIMUR";"66352";"Indonesia";"";"";"";"-8.0289641";"111.6064936";"https://maps.google.com/?cid=0x0:0x3cf7593bcea2a252";""
"komplek housing";"Komplek perumahan";"𝑇𝑢𝑔𝑢 𝑡𝑟𝑒𝑛𝑔𝑔𝑎𝑙𝑒𝑘";"XM24+P7F, Kebon, Gondang, Kec. Tugu, Kabupaten Trenggalek, Jawa Timur 66352";"Kebon, Gondang, Kec. Tugu, Kabupaten Trenggalek";"JAWA TIMUR";"66352";"Indonesia";"";"";"";"-8.0481803";"111.6556736";"https://maps.google.com/?cid=0x0:0x2bc441846052730";""
"komplek housing";"Perhimpunan Pengembang Perumahan";"Omah tengah sawah";"WJV3+29H, RT.05/RW.03 dsa, Jaten, Duren, Kec. Tugu, Kabupaten Trenggalek, Jawa Timur";"Kabupaten Trenggalek, Jawa Timur";"JAWA TIMUR";"";"Indonesia";"";"";"";"-8.0574499";"111.6034702";"https://maps.google.com/?cid=0x0:0x955407fc66e7051a";""
"komplek housing";"Komplek perumahan";"Rumah Ogut";"XJGV+73W, Krajan, Tegaren, Kec. Tugu, Kabupaten Trenggalek, Jawa Timur 66352";"Krajan, Tegaren, Kec. Tugu, Kabupaten Trenggalek";"JAWA TIMUR";"66352";"Indonesia";"";"";"";"-8.024336";"111.642791";"https://maps.google.com/?cid=0x0:0x8ca05909b1483715";""
"komplek housing";"komplek housing";"Jawa Timur 66352";"Kec. Tugu, Kabupaten Trenggalek, Jawa Timur";"Kabupaten Trenggalek, Jawa Timur";"JAWA TIMUR";"";"Indonesia";"";"";"";"-8.0277723";"111.6302998";"https://maps.google.com/?cid=0x0:0x1c00c5eb5b541a80";""
"komplek housing";"Komplek perumahan";"FREDI NUGROHO";"XM26+F4Q, Jl. Lap. Nglongsor, RT.12/RW.03, Krajan, Nglongsor, Kec. Tugu, Kabupaten Trenggalek, Jawa Timur 66352";"Jl. Lap. Nglongsor, RT.12/RW.03, Krajan, Nglongsor, Kec. Tugu, Kabupaten Trenggalek";"JAWA TIMUR";"66352";"Indonesia";"";"";"";"-8.0487848";"111.6603702";"https://maps.google.com/?cid=0x0:0xfcf568cbca6ff49d";""
"komplek housing";"Komplek perumahan";"Bahrul Home";"WMX4+Q4, Kebon, Gondang, Kec. Tugu, Kabupaten Trenggalek, Jawa Timur 66352";"Kebon, Gondang, Kec. Tugu, Kabupaten Trenggalek";"JAWA TIMUR";"66352";"Indonesia";"";"";"";"-8.0505939";"111.6553938";"https://maps.google.com/?cid=0x0:0x3afa924693d546c7";""
"komplek housing";"Pembangunan Perumahan";"Rumah orang";"WJJ6+95H, Gebang, Duren, Kec. Tugu, Kabupaten Trenggalek, Jawa Timur 66352";"Gebang, Duren, Kec. Tugu, Kabupaten Trenggalek";"JAWA TIMUR";"66352";"Indonesia";"";"";"";"-8.0690625";"111.6104844";"https://maps.google.com/?cid=0x0:0xeabcec3872f84eb1";""
"komplek housing";"komplek housing";"Kec. Tugu";"Kabupaten Trenggalek, Jawa Timur";"Kabupaten Trenggalek, Jawa Timur";"JAWA TIMUR";"";"Indonesia";"";"";"";"-8.0454713";"111.6555196";"https://maps.google.com/?cid=0x0:0x4027a76e3531f20";""
"komplek housing";"Komplek perumahan";"POJOK EKSPRESI CHIRDAM";"CQHQ+6W2, Gg. Pahlawan, RT.01/RW.07, Kedung Jaya, Kec. Tanah Sereal, Kota Bogor, Jawa Barat";"Kota Bogor, Jawa Barat";"JAWA TIMUR";"";"Indonesia";"";"";"";"-6.5719905";"106.7897804";"https://maps.google.com/?cid=0x0:0xfc9dc30041332ee1";""
"komplek housing";"Perumahan";"Perumahan Villa Merdeka";"CQGP+V7G, Jl. Pesantren No.13, RT.02/RW.07, Kedung Waringin, Kec. Tanah Sereal, Kota Bogor, Jawa Barat 16164";"Jl. Pesantren No.13, RT.02/RW.07, Kedung Waringin, Kec. Tanah Sereal, Kota Bogor";"JAWA TIMUR";"16164";"Indonesia";"";"";"";"-6.5726685";"106.785675";"https://maps.google.com/?cid=0x0:0x412542e4c1d0a3a9";""
"komplek housing";"Komplek perumahan";"Rumah Tutas";"Gg. Mantri Guru No.26, RT.04/RW.01, Kedung Jaya, Kec. Tanah Sereal, Kota Bogor, Jawa Barat 16124";"RT.04/RW.01, Kedung Jaya, Kec. Tanah Sereal, Kota Bogor";"JAWA TIMUR";"16124";"Indonesia";"";"";"";"-6.5737872";"106.7894774";"https://maps.google.com/?cid=0x0:0xdab3b5e63c8be887";""
"komplek housing";"Komplek perumahan";"Naura House's";"Jl. Tentara Pelajar No.20, RT.01/RW.16, Kedung Waringin, Kec. Tanah Sereal, Kota Bogor, Jawa Barat 16164";"RT.01/RW.16, Kedung Waringin, Kec. Tanah Sereal, Kota Bogor";"JAWA TIMUR";"16164";"Indonesia";" 087780033760";"";"";"-6.571401";"106.7873221";"https://maps.google.com/?cid=0x0:0x8576448c6fbe749b";""
"komplek housing";"Komplek perumahan";"Perumahan Tugu Indah B60";"JRJR+7Q6, Jl. Tugu Residence, Tugu, Kec. Cimanggis, Kota Depok, Jawa Barat 16451";"Jl. Tugu Residence, Tugu, Kec. Cimanggis, Kota Depok";"JAWA TIMUR";"16451";"Indonesia";"";"";"";"-6.3693428";"106.8418905";"https://maps.google.com/?cid=0x0:0x303c9680bed3b264";""
"komplek housing";"Pembangunan Perumahan";"Home Elvian";"XM6M+74R, Area Hutan, Ngentrong, Karangan, Kabupaten Trenggalek, Jawa Timur 66361";"Area Hutan, Ngentrong, Karangan, Kabupaten Trenggalek";"JAWA TIMUR";"66361";"Indonesia";"";"";"";"-8.0392556";"111.6827538";"https://maps.google.com/?cid=0x0:0x8c65a02a5d171bb9";""
"komplek housing";"Pembangunan Perumahan";"Hii";"Karangan, Kabupaten Trenggalek, Jawa Timur 66361";"Kabupaten Trenggalek";"JAWA TIMUR";"66361";"Indonesia";"";"";"";"-8.0765681";"111.6689568";"https://maps.google.com/?cid=0x0:0xf589735d01a9f5fb";""
"komplek housing";"Komplek perumahan";"Rumah otek";"WMFG+3P8, Sigit, Kedungsigit, Karangan, Kabupaten Trenggalek, Jawa Timur 66361";"Sigit, Kedungsigit, Karangan, Kabupaten Trenggalek";"JAWA TIMUR";"66361";"Indonesia";"";"";"";"-8.0768224";"111.6760049";"https://maps.google.com/?cid=0x0:0x392eb7b5df6fd983";""
"komplek housing";"Perumahan";"WIDYA HOUSE.";"WMFV+MG8, RT.27/RW.07, Sugihan, Sumberingin, Karangan, Kabupaten Trenggalek, Jawa Timur 66361";"RT.27/RW.07, Sugihan, Sumberingin, Karangan, Kabupaten Trenggalek";"JAWA TIMUR";"66361";"Indonesia";"";"";"";"-8.0758426";"111.6938384";"https://maps.google.com/?cid=0x0:0x177bc1f5d1262d1a";""
"komplek housing";"Komplek perumahan";"σʍհɓմαηί";"WM6P+MMV, Jl. Nglongah kidul, Nglongah Lor, Sumberingin, Karangan, Kabupaten Trenggalek, Jawa Timur 66361";"Jl. Nglongah kidul, Nglongah Lor, Sumberingin, Karangan, Kabupaten Trenggalek";"JAWA TIMUR";"66361";"Indonesia";"";"";"";"-8.0880863";"111.6867049";"https://maps.google.com/?cid=0x0:0xa6a557824401df3b";""
"komplek housing";"komplek housing";"Casual House";"VMRH+9VH, Karangsono, Sukowetan, Karangan, Kabupaten Trenggalek, Jawa Timur";"Kabupaten Trenggalek, Jawa Timur";"JAWA TIMUR";"";"Indonesia";"";"";"";"-8.1090741";"111.6797292";"https://maps.google.com/?cid=0x0:0x5f391c8a5a523a90";""
"komplek housing";"Housing";"Pribadi House";"WMFR+V6Q, Unnamed Road, Cangkring, Sumberingin, Karangan, Kabupaten Trenggalek, Jawa Timur 66361";"Unnamed Road, Cangkring, Sumberingin, Karangan, Kabupaten Trenggalek";"JAWA TIMUR";"66361";"Indonesia";"";"";"";"-8.0752931";"111.6906126";"https://maps.google.com/?cid=0x0:0x9a68a65959672d4a";""
"komplek housing";"Pembangunan Perumahan";"Kaka  Bariq home";"Perumnas Sumberingin Permai B-8, Jl. Gandusari-Trenggalek, Sugihan, Sumberingin, Karangan, Kabupaten Trenggalek, Jawa Timur 66361";"Jl. Gandusari-Trenggalek, Sugihan, Sumberingin, Karangan, Kabupaten Trenggalek";"JAWA TIMUR";"66361";"Indonesia";"";"";"";"-8.0804928";"111.6948659";"https://maps.google.com/?cid=0x0:0x873b58b40bf28597";""
"komplek housing";"Otoritas Perumahan";"Perumahan BMW Insan Mulia Trenggalek";"Dk. Pakel, RT.34/RW.09, Cangkring, Sumberingin, Karangan, Kabupaten Trenggalek, Jawa Timur 66361";"RT.34/RW.09, Cangkring, Sumberingin, Karangan, Kabupaten Trenggalek";"JAWA TIMUR";"66361";"Indonesia";" 081233576072";"";"/url?q>>u003dhttp://www.perumahanbmw.id/>>u0026opi>>u003d79508299>>u0026sa>>u003dU>>u0026ved>>u003d0ahUKEwiJ9_y8sM6LAxX3VWwGHWB3IgYQ61gIFigS>>u0026usg>>u003dAOvVaw3--ZwSVI2vykMs0_eCYrTA";"-8.0728658";"111.6891466";"https://maps.google.com/?cid=0x0:0xb1a3486e8e2679c2";""
"komplek housing";"Komplek perumahan";"Rumah";"WMCG+RGJ, Sigit, Kedungsigit, Karangan, Kabupaten Trenggalek, Jawa Timur 66361";"Sigit, Kedungsigit, Karangan, Kabupaten Trenggalek";"JAWA TIMUR";"66361";"Indonesia";"";"";"";"-8.0775833";"111.6760783";"https://maps.google.com/?cid=0x0:0x7b01471a209216af";""
"komplek housing";"Komplek perumahan";"Empu Latief";"WM89+362, Jeruk, Kedungsigit, Karangan, Kabupaten Trenggalek, Jawa Timur 66361";"Jeruk, Kedungsigit, Karangan, Kabupaten Trenggalek";"JAWA TIMUR";"66361";"Indonesia";"";"";"";"-8.0848636";"111.6680279";"https://maps.google.com/?cid=0x0:0xd02eb173500be85f";""
