Category,Real Category,Business Name,Address,City,State,Postal Code,Country,Phone,Email,Website,Latitude,Longitude,Map Link,Details Link
komplek housing,komplek housing,Sulawesi Barat 91373,"Kabupaten Mamasa, Sulawesi Barat","Kabupaten Mamasa, Sulawesi Barat",SULAWESI BARAT,,Indonesia,,,,-2.7933646,119.1623231,https://maps.google.com/?cid=0x0:0x63837cb8dbe972c6,
komplek housing,komplek housing,Aralle,"Kec. Aralle, Kabupaten Mamasa, Sulawesi Barat","Kabupaten Mamasa, Sulawesi Barat",SULAWESI BARAT,,Indonesia,,,,-2.883524,119.159416,https://maps.google.com/?cid=0x0:0xc10ce5224c8ce2b,
komplek housing,Komplek perumahan,Taanitu,"44FM+F7P, Kalabe, Kec. Aralle, Kabupaten Mamasa, Sulawesi Barat 91373","Kalabe, Kec. Aralle, Kabupaten Mamasa",SULAWESI BARAT,91373.0,Indonesia,,,,-2.8753616,119.1326419,https://maps.google.com/?cid=0x0:0x66e795a1cb55f2e9,
komplek housing,komplek housing,Kec. Aralle,"Kabupaten Mamasa, Sulawesi Barat","Kabupaten Mamasa, Sulawesi Barat",SULAWESI BARAT,,Indonesia,,,,-2.885664,119.1512628,https://maps.google.com/?cid=0x0:0xa3c5e0f6091ce8e1,
komplek housing,komplek housing,Sulawesi Barat 91366,"Kabupaten Mamasa, Sulawesi Barat","Kabupaten Mamasa, Sulawesi Barat",SULAWESI BARAT,,Indonesia,,,,-3.0188114,119.2785638,https://maps.google.com/?cid=0x0:0xf1c681e2dfa30cec,
komplek housing,komplek housing,Sulawesi Barat,,Sulawesi Barat,SULAWESI BARAT,,Indonesia,,,,-2.8441371,119.2320784,https://maps.google.com/?cid=0x0:0xea5cbf202f3370f2,
komplek housing,komplek housing,Rumah Rara‚Äô,"X8PR+8F, Bambapuang, Kec. Balla, Kabupaten Mamasa, Sulawesi Barat 91366","Bambapuang, Kec. Balla, Kabupaten Mamasa",SULAWESI BARAT,91366.0,Indonesia,,,,-3.0148815,119.3422123,https://maps.google.com/?cid=0x0:0xda49b72969bbc889,
komplek housing,Pembangunan Perumahan,Sawah Natan,"X8VG+9J6, Sepakuan, Kec. Balla, Kabupaten Mamasa, Sulawesi Barat 91366","Sepakuan, Kec. Balla, Kabupaten Mamasa",SULAWESI BARAT,91366.0,Indonesia,,,,-3.0070894,119.32634,https://maps.google.com/?cid=0x0:0xa173d2be02be368f,
komplek housing,Komplek perumahan,Rumah Eksyel,"X8VG+RQ7, Balla Bar., Kec. Balla, Kabupaten Mamasa, Sulawesi Barat 91366","Balla Bar., Kec. Balla, Kabupaten Mamasa",SULAWESI BARAT,91366.0,Indonesia,,,,-3.005191,119.327038,https://maps.google.com/?cid=0x0:0x70f0bb99950b55a4,
komplek housing,Pembangunan Perumahan,Rumah Setiawati Tasiklebok,"278V+5MG, Pidara, Kec. Balla, Kabupaten Mamasa, Sulawesi Barat 91366","Pidara, Kec. Balla, Kabupaten Mamasa",SULAWESI BARAT,91366.0,Indonesia,,,,-2.984444,119.2937334,https://maps.google.com/?cid=0x0:0x796a66ef3cce4cee,
komplek housing,Komplek perumahan,Rumah solon,"278V+5MG, Pidara, Kec. Balla, Kabupaten Mamasa, Sulawesi Barat 91366","Pidara, Kec. Balla, Kabupaten Mamasa",SULAWESI BARAT,91366.0,Indonesia,,,,-2.9846184,119.29425,https://maps.google.com/?cid=0x0:0xb008f4ac80f576e8,
komplek housing,Komplek perumahan,Rumah Pongka,"X8VG+RQ7, Dusun kanan, desa Balla barakec.bala, Balla Bar., Kec. Balla, Kabupaten Mamasa, Sulawesi Barat 91366","Dusun kanan, desa Balla barakec.bala, Balla Bar., Kec. Balla, Kabupaten Mamasa",SULAWESI BARAT,91366.0,Indonesia,,,,-3.0053122,119.3266565,https://maps.google.com/?cid=0x0:0xeaee16db863a8bb8,
komplek housing,komplek housing,Sartika,"28F3+GVG, Balla Bar., Kec. Balla, Kabupaten Mamasa, Sulawesi Barat 91366","Balla Bar., Kec. Balla, Kabupaten Mamasa",SULAWESI BARAT,91366.0,Indonesia,,,,-2.9761927,119.3047055,https://maps.google.com/?cid=0x0:0xb83c0a20bc90a6c2,
komplek housing,Komplek perumahan,Rumahnya selvan,"276W+XGQ, Balla Tumuka, Kec. Balla, Kabupaten Mamasa, Sulawesi Barat 91366","Balla Tumuka, Kec. Balla, Kabupaten Mamasa",SULAWESI BARAT,91366.0,Indonesia,,,,-2.9875411,119.2963449,https://maps.google.com/?cid=0x0:0x532ed3d23d49d497,
komplek housing,Komplek perumahan,Rumah Topan,"X8WJ+JGF, Balla Satanetean, Kec. Balla, Kabupaten Mamasa, Sulawesi Barat 91366","Balla Satanetean, Kec. Balla, Kabupaten Mamasa",SULAWESI BARAT,91366.0,Indonesia,,,,-3.0033686,119.3312987,https://maps.google.com/?cid=0x0:0xd7f20e3f6bc9714a,
komplek housing,komplek housing,Rumah Harti,"X8MC+P6W, X8MC+salunata, Sepakuan, Kec. Balla, Kabupaten Mamasa, Sulawesi Barat 91366","X8MC+salunata, Sepakuan, Kec. Balla, Kabupaten Mamasa",SULAWESI BARAT,91366.0,Indonesia,,,,-3.0152458,119.3203958,https://maps.google.com/?cid=0x0:0x3a4c0db6011b6c0,
komplek housing,Komplek perumahan,Dusun Ranteliang,"28J9+8MQ, Balla Satanetean, Kec. Balla, Kabupaten Mamasa, Sulawesi Barat 91366","Balla Satanetean, Kec. Balla, Kabupaten Mamasa",SULAWESI BARAT,91366.0,Indonesia,,,,-2.9691672,119.3192266,https://maps.google.com/?cid=0x0:0x5b9ad386369962c,
komplek housing,Komplek perumahan,Rumah,"X8WJ+9F6, Jl. Poros Polewali, Sepakuan, Kec. Balla, Kabupaten Mamasa, Sulawesi Barat 91366","Jl. Poros Polewali, Sepakuan, Kec. Balla, Kabupaten Mamasa",SULAWESI BARAT,91366.0,Indonesia,,,,-3.0041629,119.3311828,https://maps.google.com/?cid=0x0:0xefe807c12553cff0,
komplek housing,Komplek perumahan,tondok pena,"X8RG+3W2, Sepakuan, Kec. Balla, Kabupaten Mamasa, Sulawesi Barat 91366","Sepakuan, Kec. Balla, Kabupaten Mamasa",SULAWESI BARAT,91366.0,Indonesia,,,,-3.0098634,119.3272538,https://maps.google.com/?cid=0x0:0x130b4a6c842b3db3,
komplek housing,Komplek perumahan,Rumahnya Ratna,"278V+5MG, Pidara, Kec. Balla, Kabupaten Mamasa, Sulawesi Barat 91366","Pidara, Kec. Balla, Kabupaten Mamasa",SULAWESI BARAT,91366.0,Indonesia,,,,-2.9846184,119.29425,https://maps.google.com/?cid=0x0:0xdc1aeb2beded85ad,
komplek housing,Komplek perumahan,rumah Juliati,"X8RG+3X6, Sepakuan, Kec. Balla, Kabupaten Mamasa, Sulawesi Barat 91366","Sepakuan, Kec. Balla, Kabupaten Mamasa",SULAWESI BARAT,91366.0,Indonesia,,,,-3.0098446,119.3273803,https://maps.google.com/?cid=0x0:0xe993109ce1823bba,
komplek housing,komplek housing,RUMAH KEVIN,"275X+M82, Pidara, Kec. Balla, Kabupaten Mamasa, Sulawesi Barat 91366","Pidara, Kec. Balla, Kabupaten Mamasa",SULAWESI BARAT,91366.0,Indonesia,,,,-2.9908689,119.2982767,https://maps.google.com/?cid=0x0:0xeb121074469eacb7,
komplek housing,Komplek perumahan,Rumah Pampanggoa,"2866+RHH, Balla Bar., Kec. Balla, Kabupaten Mamasa, Sulawesi Barat 91366","Balla Bar., Kec. Balla, Kabupaten Mamasa",SULAWESI BARAT,91366.0,Indonesia,,,,-2.9884744,119.3122843,https://maps.google.com/?cid=0x0:0x88d796af59962a4,
komplek housing,Komplek perumahan,Rumah misel,"X8RH+W3X, Sepakuan, Kec. Balla, Kabupaten Mamasa, Sulawesi Barat 91366","Sepakuan, Kec. Balla, Kabupaten Mamasa",SULAWESI BARAT,91366.0,Indonesia,,,,-3.0077437,119.32761,https://maps.google.com/?cid=0x0:0x359a6345d582097,
komplek housing,Komplek perumahan,Rumah Tityn,"2836+96, Pidara, Kec. Balla, Kabupaten Mamasa, Sulawesi Barat 91366","Pidara, Kec. Balla, Kabupaten Mamasa",SULAWESI BARAT,91366.0,Indonesia,,,,-2.9966428,119.3106205,https://maps.google.com/?cid=0x0:0xdb1fed4770bd7e7a,
komplek housing,Komplek perumahan,Komplek Raya Housing Blok C No.6,"Jl. Bhineka, RT.006/RW.011, Jatiwaringin, Kec. Pd. Gede, Kota Bks, Jawa Barat 17411","RT.006/RW.011, Jatiwaringin, Kec. Pd. Gede, Kota Bks",SULAWESI BARAT,17411.0,Indonesia,,,,-6.2813572,106.9097108,https://maps.google.com/?cid=0x0:0x8658ae7bd2f9a7a2,
komplek housing,Komplek perumahan,Alesha 6 JATIWARNA,"Jl. Bulak Tinggi A No.RT 01/03, Jatiwarna, Kec. Pd. Melati, Kota Bks, Jawa Barat 17415","Jatiwarna, Kec. Pd. Melati, Kota Bks",SULAWESI BARAT,17415.0,Indonesia,82110959616.0,,,-6.301008,106.9351414,https://maps.google.com/?cid=0x0:0x6f61ec1948785d9f,
komplek housing,komplek housing,Sulawesi Barat 91371,"Kabupaten Mamasa, Sulawesi Barat","Kabupaten Mamasa, Sulawesi Barat",SULAWESI BARAT,,Indonesia,,,,-2.9693064,119.1623231,https://maps.google.com/?cid=0x0:0x95ce36a84981aa10,
komplek housing,komplek housing,Sulawesi Barat,,Sulawesi Barat,SULAWESI BARAT,,Indonesia,,,,-2.8441371,119.2320784,https://maps.google.com/?cid=0x0:0xea5cbf202f3370f2,
komplek housing,Pembangunan Perumahan,Komplek Perumahan Tikkala,"352R+G3, Minanga, Kec. Bambang, Kabupaten Mamasa, Sulawesi Barat 91371","Minanga, Kec. Bambang, Kabupaten Mamasa",SULAWESI BARAT,91371.0,Indonesia,,,,-2.9479469,119.1909618,https://maps.google.com/?cid=0x0:0x11dbcc28b7d651a8,
komplek housing,Komplek perumahan,Perumahan Ahak-Ahak,"358R+VMG, Saluassing, Kec. Bambang, Kabupaten Mamasa, Sulawesi Barat 91371","Saluassing, Kec. Bambang, Kabupaten Mamasa",SULAWESI BARAT,91371.0,Indonesia,,,,-2.9328195,119.191714,https://maps.google.com/?cid=0x0:0xdea10aa1cb6db979,
komplek housing,Komplek perumahan,üè°RHN,"35FW+WGX, Saluassing, Kec. Bambang, Kabupaten Mamasa, Sulawesi Barat 91371","Saluassing, Kec. Bambang, Kabupaten Mamasa",SULAWESI BARAT,91371.0,Indonesia,,,,-2.9254081,119.1971339,https://maps.google.com/?cid=0x0:0x64ffa6813c478f54,
komplek housing,Komplek perumahan,Rumah Toper,"36J4+GVF, Saludengen, Kec. Bambang, Kabupaten Mamasa, Sulawesi Barat 91371","Saludengen, Kec. Bambang, Kabupaten Mamasa",SULAWESI BARAT,91371.0,Indonesia,,,,-2.9186962,119.2071567,https://maps.google.com/?cid=0x0:0x60fcccd2f354ebb9,
komplek housing,Inspektur Tempat Tinggal,Albar home stay,"25HM+8J9, Jl. Poros Mamasa, Bambang Buda, Kec. Rantebulahan Tim., Kabupaten Mamasa, Sulawesi Barat 91371","Jl. Poros Mamasa, Bambang Buda, Kec. Rantebulahan Tim., Kabupaten Mamasa",SULAWESI BARAT,91371.0,Indonesia,81351548166.0,,,-2.9717174,119.1841142,https://maps.google.com/?cid=0x0:0xd1a313057ab1dd1,
komplek housing,Komplek perumahan,Rumah Dirwanto,"35FQ+G99, Salukepopok, Kec. Bambang, Kabupaten Mamasa, Sulawesi Barat 91371","Salukepopok, Kec. Bambang, Kabupaten Mamasa",SULAWESI BARAT,91371.0,Indonesia,,,,-2.9262144,119.1884754,https://maps.google.com/?cid=0x0:0x22bddaf16f9a56b0,
komplek housing,Komplek perumahan,V.'s Home,"25HV+2MM, Bambang Buda, Kec. Rantebulahan Tim., Kabupaten Mamasa, Sulawesi Barat 91371","Bambang Buda, Kec. Rantebulahan Tim., Kabupaten Mamasa",SULAWESI BARAT,91371.0,Indonesia,,,,-2.9721355,119.1929107,https://maps.google.com/?cid=0x0:0x9ad8b7d4b546e68b,
komplek housing,Komplek perumahan,Rabin Home,"35FW+W3J, Saluassing, Kec. Bambang, Kabupaten Mamasa, Sulawesi Barat 91371","Saluassing, Kec. Bambang, Kabupaten Mamasa",SULAWESI BARAT,91371.0,Indonesia,,,,-2.9255119,119.1956185,https://maps.google.com/?cid=0x0:0xdb6d45f5154a7ebc,
komplek housing,Komplek perumahan,Rumah p.tika,"36H5+668, Saludengen, Kec. Bambang, Kabupaten Mamasa, Sulawesi Barat 91371","Saludengen, Kec. Bambang, Kabupaten Mamasa",SULAWESI BARAT,91371.0,Indonesia,,,,-2.9216937,119.2080656,https://maps.google.com/?cid=0x0:0x991a8ddb0ce53db5,
komplek housing,Komplek perumahan,Komplek perumahan mamak isda,"26R3+VM4, Bambang, Kec. Bambang, Kabupaten Mamasa, Sulawesi Barat 91371","Bambang, Kec. Bambang, Kabupaten Mamasa",SULAWESI BARAT,91371.0,Indonesia,,,,-2.9578519,119.2042173,https://maps.google.com/?cid=0x0:0xfe3e0ac8ff1b7101,
komplek housing,Komplek perumahan,Rumah sahaba iling,"25WX+M35, Bambang, Kec. Bambang, Kabupaten Mamasa, Sulawesi Barat 91371","Bambang, Kec. Bambang, Kabupaten Mamasa",SULAWESI BARAT,91371.0,Indonesia,,,,-2.9535352,119.1980482,https://maps.google.com/?cid=0x0:0xc015a418d4ba60b0,
komplek housing,Komplek perumahan,Epray Home,"25HV+2MM, Bambang Buda, Kec. Rantebulahan Tim., Kabupaten Mamasa, Sulawesi Barat 91371","Bambang Buda, Kec. Rantebulahan Tim., Kabupaten Mamasa",SULAWESI BARAT,91371.0,Indonesia,,,,-2.9714961,119.1940571,https://maps.google.com/?cid=0x0:0x9ed2c27b2bbe6d8e,
komplek housing,Komplek perumahan,Dusun rantekanei,"26W2+X46, Bambang, Kec. Bambang, Kabupaten Mamasa, Sulawesi Barat 91371","Bambang, Kec. Bambang, Kabupaten Mamasa",SULAWESI BARAT,91371.0,Indonesia,,,,-2.9525806,119.2002631,https://maps.google.com/?cid=0x0:0xfd63f9d506ff9936,
komplek housing,Komplek perumahan,Pera Home,"35FV+9PM, Saluassing, Kec. Bambang, Kabupaten Mamasa, Sulawesi Barat 91371","Saluassing, Kec. Bambang, Kabupaten Mamasa",SULAWESI BARAT,91371.0,Indonesia,,,,-2.9264357,119.1952467,https://maps.google.com/?cid=0x0:0xd31cadd162ec7bf4,
komplek housing,Komplek perumahan,Rumah P Herba,"35FW+W3J, Saluassing, Kec. Bambang, Kabupaten Mamasa, Sulawesi Barat 91371","Saluassing, Kec. Bambang, Kabupaten Mamasa",SULAWESI BARAT,91371.0,Indonesia,,,,-2.9251531,119.1951524,https://maps.google.com/?cid=0x0:0x78613bce893278c2,
komplek housing,Komplek perumahan,Tokbanga,"36M6+9QV, Rantetarima, Kec. Bambang, Kabupaten Mamasa, Sulawesi Barat 91371","Rantetarima, Kec. Bambang, Kabupaten Mamasa",SULAWESI BARAT,91371.0,Indonesia,,,,-2.9153974,119.2125494,https://maps.google.com/?cid=0x0:0x1ab58a94c7a31dda,
komplek housing,komplek housing,Home Yasmin,"36G5+VF7, Saludengen, Kec. Bambang, Kabupaten Mamasa, Sulawesi Barat 91371","Saludengen, Kec. Bambang, Kabupaten Mamasa",SULAWESI BARAT,91371.0,Indonesia,,,,-2.9228385,119.2086658,https://maps.google.com/?cid=0x0:0x7f6c9d5bedfc3c01,
komplek housing,Komplek perumahan,Rumah Suyra,"36J4+HPV, Saludengen, Kec. Bambang, Kabupaten Mamasa, Sulawesi Barat 91371","Saludengen, Kec. Bambang, Kabupaten Mamasa",SULAWESI BARAT,91371.0,Indonesia,,,,-2.9185223,119.2067988,https://maps.google.com/?cid=0x0:0x512c0b0b9c73a72e,
komplek housing,Perhimpunan Pengembang Perumahan,Benua Tanpa Ujung,"369C+J3F, Masoso, Kec. Bambang, Kabupaten Mamasa, Sulawesi Barat 91371","Masoso, Kec. Bambang, Kabupaten Mamasa",SULAWESI BARAT,91371.0,Indonesia,,,,-2.9309493,119.2201627,https://maps.google.com/?cid=0x0:0x359b457211e40f4c,
komplek housing,komplek housing,Komplek Housing,"Blok Bojong Nangka I, Jl. Ring Rudal Blok Bojong Nangka I No.68, RT.001/RW.007, Jatirahayu, Kec. Pd. Melati, Kota Bks, Jawa Barat 17414","Jl. Ring Rudal Blok Bojong Nangka I No.68, RT.001/RW.007, Jatirahayu, Kec. Pd. Melati, Kota Bks",SULAWESI BARAT,17414.0,Indonesia,,,,-6.293724,106.9165114,https://maps.google.com/?cid=0x0:0x9c50464976dee674,
komplek housing,komplek housing,Buntumalangka,"Kec. Buntu Malangka, Kabupaten Mamasa, Sulawesi Barat","Kabupaten Mamasa, Sulawesi Barat",SULAWESI BARAT,,Indonesia,,,,-2.8239414,119.1681373,https://maps.google.com/?cid=0x0:0x5c7500e7c5e86451,
komplek housing,Komplek perumahan,Rumah Yakbar,"55GP+X7C, Buntumalangka, Kec. Buntu Malangka, Kabupaten Mamasa, Sulawesi Barat","Kabupaten Mamasa, Sulawesi Barat",SULAWESI BARAT,,Indonesia,,,,-2.8225633,119.1856504,https://maps.google.com/?cid=0x0:0x4dc5651d40a18829,
komplek housing,Perhimpunan Pengembang Perumahan,Rumah Kepala Desa Taora,"55RF+G9X, Taora, Kec. Buntu Malangka, Kabupaten Mamasa, Sulawesi Barat 91373","Taora, Kec. Buntu Malangka, Kabupaten Mamasa",SULAWESI BARAT,91373.0,Indonesia,,,,-2.8086308,119.1734819,https://maps.google.com/?cid=0x0:0xb5f9638713f5dee,
komplek housing,Komplek perumahan,"Rumah Hosea, YT","55RF+4P3, Taora, Kec. Buntu Malangka, Kabupaten Mamasa, Sulawesi Barat 91373","Taora, Kec. Buntu Malangka, Kabupaten Mamasa",SULAWESI BARAT,91373.0,Indonesia,,,,-2.8097256,119.174301,https://maps.google.com/?cid=0x0:0x7e6c25849c261de2,
komplek housing,Komplek perumahan,Banuangku,"5595+MRF, Penatangan, Kec. Buntu Malangka, Kabupaten Mamasa, Sulawesi Barat 91373","Penatangan, Kec. Buntu Malangka, Kabupaten Mamasa",SULAWESI BARAT,91373.0,Indonesia,,,,-2.8308037,119.1595505,https://maps.google.com/?cid=0x0:0xea47f56c2766a0a4,
komplek housing,Komplek perumahan,Rumah Ahok,"559C+JW, Buntumalangka, Kec. Buntu Malangka, Kabupaten Mamasa, Sulawesi Barat","Kabupaten Mamasa, Sulawesi Barat",SULAWESI BARAT,,Indonesia,,,,-2.8308995,119.1723647,https://maps.google.com/?cid=0x0:0xf45db47fe9a7b407,
komplek housing,Perumahan,rm tua cindi,"55G5+GRR, Sumua, Buntumalangka, Kec. Buntu Malangka, Kabupaten Mamasa, Sulawesi Barat 91373","Sumua, Buntumalangka, Kec. Buntu Malangka, Kabupaten Mamasa",SULAWESI BARAT,91373.0,Indonesia,,,,-2.8240713,119.1600105,https://maps.google.com/?cid=0x0:0x353e403e21986797,
komplek housing,Komplek perumahan,Diniarty Net,"55G5+GRR, Sumua, Buntumalangka, Kec. Buntu Malangka, Kabupaten Mamasa, Sulawesi Barat 91373","Sumua, Buntumalangka, Kec. Buntu Malangka, Kabupaten Mamasa",SULAWESI BARAT,91373.0,Indonesia,,,,-2.8236389,119.1595021,https://maps.google.com/?cid=0x0:0x21533d570a991b17,
komplek housing,Komplek perumahan,Rumah Dewi,"55CG+PMW, Buntumalangka, Kec. Buntu Malangka, Kabupaten Mamasa, Sulawesi Barat 91373","Buntumalangka, Kec. Buntu Malangka, Kabupaten Mamasa",SULAWESI BARAT,91373.0,Indonesia,,,,-2.8284603,119.1764028,https://maps.google.com/?cid=0x0:0xd1583db90805b138,
komplek housing,Komplek perumahan,surga kecil,"55GF+2XJ, Buntumalangka, Kec. Buntu Malangka, Kabupaten Mamasa, Sulawesi Barat 91373","Buntumalangka, Kec. Buntu Malangka, Kabupaten Mamasa",SULAWESI BARAT,91373.0,Indonesia,,,,-2.8249181,119.1748906,https://maps.google.com/?cid=0x0:0x83e4fa4ac415a491,
komplek housing,Komplek perumahan,Rumah Harianto,"55CF+QJQ, Buntumalangka, Kec. Buntu Malangka, Kabupaten Mamasa, Sulawesi Barat","Kabupaten Mamasa, Sulawesi Barat",SULAWESI BARAT,,Indonesia,,,,-2.8280369,119.1740949,https://maps.google.com/?cid=0x0:0xb2d6f8fc03dfd713,
komplek housing,Komplek perumahan,MARANATHA KALABAK,"5575+V3F, Jl. Poros Salubatu-Mambi, Penatangan, Kec. Buntu Malangka, Kabupaten Mamasa, Sulawesi Barat 91373","Jl. Poros Salubatu-Mambi, Penatangan, Kec. Buntu Malangka, Kabupaten Mamasa",SULAWESI BARAT,91373.0,Indonesia,,,,-2.8343988,119.1574208,https://maps.google.com/?cid=0x0:0xe8e0c8082d642233,
komplek housing,Komplek perumahan,Rumah Irmon,"55G5+GRR, Sumua, Buntumalangka, Kec. Buntu Malangka, Kabupaten Mamasa, Sulawesi Barat 91373","Sumua, Buntumalangka, Kec. Buntu Malangka, Kabupaten Mamasa",SULAWESI BARAT,91373.0,Indonesia,,,,-2.8238512,119.1600588,https://maps.google.com/?cid=0x0:0xd08fb75578791cd6,
komplek housing,Perumahan,Tullumanu' Village,"55CF+R9M, Buntumalangka, Kec. Buntu Malangka, Kabupaten Mamasa, Sulawesi Barat 91373","Buntumalangka, Kec. Buntu Malangka, Kabupaten Mamasa",SULAWESI BARAT,91373.0,Indonesia,,,,-2.8279035,119.1734186,https://maps.google.com/?cid=0x0:0xbc18b4f5cdca52cc,
komplek housing,komplek housing,Lembah induk,"55G9+C7C, Buntumalangka, Kec. Buntu Malangka, Kabupaten Mamasa, Sulawesi Barat","Kabupaten Mamasa, Sulawesi Barat",SULAWESI BARAT,,Indonesia,,,,-2.8239414,119.1681373,https://maps.google.com/?cid=0x0:0x712b6c741308e4b7,
komplek housing,Komplek perumahan,Rumah Marina,"55VC+4RW, Buntumalangka, Kec. Buntu Malangka, Kabupaten Mamasa, Sulawesi Barat","Kabupaten Mamasa, Sulawesi Barat",SULAWESI BARAT,,Indonesia,,,,-2.807127,119.1720663,https://maps.google.com/?cid=0x0:0xaa0123fc12a3ab35,
komplek housing,Komplek perumahan,Rumah Joni S era,"55VF+CPW, Taora, Kec. Buntu Malangka, Kabupaten Mamasa, Sulawesi Barat 91373","Taora, Kec. Buntu Malangka, Kabupaten Mamasa",SULAWESI BARAT,91373.0,Indonesia,,,,-2.805738,119.173148,https://maps.google.com/?cid=0x0:0xec3d25b7fdeed0c4,
komplek housing,Pembangunan Perumahan,Ruma Tribu,"55QF+XP3, Taora, Kec. Buntu Malangka, Kabupaten Mamasa, Sulawesi Barat","Kabupaten Mamasa, Sulawesi Barat",SULAWESI BARAT,,Indonesia,,,,-2.8102115,119.1742658,https://maps.google.com/?cid=0x0:0xeff2a7fbf592304c,
komplek housing,Komplek perumahan,Rumah IINSAGITA,"55CG+QFW, Buntumalangka, Kec. Buntu Malangka, Kabupaten Mamasa, Sulawesi Barat 91373","Buntumalangka, Kec. Buntu Malangka, Kabupaten Mamasa",SULAWESI BARAT,91373.0,Indonesia,,,,-2.828177,119.1759009,https://maps.google.com/?cid=0x0:0x837462b661380181,
komplek housing,Rumah Kayu,Rumah p. yuyu,"55H6+34X, Buntumalangka, Kec. Buntu Malangka, Kabupaten Mamasa, Sulawesi Barat","Kabupaten Mamasa, Sulawesi Barat",SULAWESI BARAT,,Indonesia,,,,-2.8222643,119.1603513,https://maps.google.com/?cid=0x0:0x33a46de9c68c865b,
komplek housing,Komplek perumahan,Timbu batu,"55H4+XGX, Jl. Poros Salubatu-Mambi, Penatangan, Kec. Buntu Malangka, Kabupaten Mamasa, Sulawesi Barat 91373","Jl. Poros Salubatu-Mambi, Penatangan, Kec. Buntu Malangka, Kabupaten Mamasa",SULAWESI BARAT,91373.0,Indonesia,,,,-2.8200038,119.1563513,https://maps.google.com/?cid=0x0:0xbc41e26689a9ed28,
komplek housing,Pembangunan Perumahan,Gardenia City 3 Muktiwari Cibitung blok gc 24 no 10,"Jl. Kp. Bulak Kunyit, Muktiwari, Kec. Cibitung, Kabupaten Bekasi, Jawa Barat 17520","Muktiwari, Kec. Cibitung, Kabupaten Bekasi",SULAWESI BARAT,17520.0,Indonesia,,,,-6.2182911,107.1004182,https://maps.google.com/?cid=0x0:0x32bd4bb03767400e,
komplek housing,komplek housing,Apartment Patra Land Urbano,"Jl. Pintu Air No.29, Marga Mulya, Kec. Bekasi Utara, Kota Bks, Jawa Barat 17142","Marga Mulya, Kec. Bekasi Utara, Kota Bks",SULAWESI BARAT,17142.0,Indonesia,895417300072.0,,,-6.2345585,106.9980497,https://maps.google.com/?cid=0x0:0xf8e2a2ed3cd1b20b,
komplek housing,Museum,Taman Mini Indonesia Indah,"Jl. Taman Mini Indonesia Indah, Ceger, Kec. Cipayung, Kota Jakarta Timur, Daerah Khusus Ibukota Jakarta 13820","Ceger, Kec. Cipayung, Kota Jakarta Timur",SULAWESI BARAT,13820.0,Indonesia,8041789789.0,,,-6.3020386,106.8898924,https://maps.google.com/?cid=0x0:0x73127b9ecf2da0c,
komplek housing,Perusahaan Kereta Api,Bekasi,"Marga Mulya, Kec. Bekasi Utara, Kota Bks, Jawa Barat","Kota Bks, Jawa Barat",SULAWESI BARAT,,Indonesia,,,,-6.23646,106.99877,https://maps.google.com/?cid=0x0:0x6ad4a999fff63886,
komplek housing,komplek housing,Nur Aprilia,"P5W4+X5W, Karangasih, Kec. Cikarang Utara, Kabupaten Bekasi, Jawa Barat 17530","Karangasih, Kec. Cikarang Utara, Kabupaten Bekasi",SULAWESI BARAT,17530.0,Indonesia,,,,-6.2526235,107.1554554,https://maps.google.com/?cid=0x0:0x98545cb72d4917d9,
komplek housing,Komplek perumahan,Rumah Delwan,"55CF+6X8, Buntumalangka, Kec. Buntu Malangka, Kabupaten Mamasa, Sulawesi Barat 91373","Buntumalangka, Kec. Buntu Malangka, Kabupaten Mamasa",SULAWESI BARAT,91373.0,Indonesia,,,,-2.829127,119.174315,https://maps.google.com/?cid=0x0:0x124992fa3bf7c916,
komplek housing,Komplek perumahan,Rumah opa aron,"55G5+GRR, Sumua, Buntumalangka, Kec. Buntu Malangka, Kabupaten Mamasa, Sulawesi Barat 91373","Sumua, Buntumalangka, Kec. Buntu Malangka, Kabupaten Mamasa",SULAWESI BARAT,91373.0,Indonesia,,,,-2.8241911,119.1602509,https://maps.google.com/?cid=0x0:0xa45839bf2cfa2c07,
komplek housing,Komplek perumahan,Pondok katomahoam,"55GG+43R, Buntumalangka, Kec. Buntu Malangka, Kabupaten Mamasa, Sulawesi Barat 91373","Buntumalangka, Kec. Buntu Malangka, Kabupaten Mamasa",SULAWESI BARAT,91373.0,Indonesia,,,,-2.8243982,119.1753122,https://maps.google.com/?cid=0x0:0x147135b01cd47da4,
komplek housing,komplek housing,Sulawesi Barat 91362,"Kabupaten Mamasa, Sulawesi Barat","Kabupaten Mamasa, Sulawesi Barat",SULAWESI BARAT,,Indonesia,,,,-2.8753644,119.3714909,https://maps.google.com/?cid=0x0:0x1d800b7ea94db71e,
komplek housing,Pembangunan Perumahan,Lokasi tanpa nama,"396H+M2C, Bunta Buda, Kec. Mamasa, Kabupaten Mamasa, Sulawesi Barat","Kabupaten Mamasa, Sulawesi Barat",SULAWESI BARAT,,Indonesia,,,,-2.9383157,119.3775162,https://maps.google.com/?cid=0x0:0xbc0e2bbb6b0089d7,
komplek housing,Komplek perumahan,Komplek Kanan Rirang,"Jl. kanan rirang, Rambusaratu, Mamasa, Mamasa Regency, West Sulawesi 91365","Rambusaratu, Mamasa, Mamasa Regency",SULAWESI BARAT,91365.0,Indonesia,,,,-2.9323047,119.3907887,https://maps.google.com/?cid=0x0:0xb2c2fad96b861bac,
komplek housing,Pembangunan Perumahan,Dusun balla,"39P9+8JP, Mambuliling, Kec. Mamasa, Kabupaten Mamasa, Sulawesi Barat 91362","Mambuliling, Kec. Mamasa, Kabupaten Mamasa",SULAWESI BARAT,91362.0,Indonesia,,,,-2.9141533,119.3690626,https://maps.google.com/?cid=0x0:0x351894024f347023,
komplek housing,Komplek perumahan,It's my home,"394H+G22, Mamasa, Kec. Mamasa, Kabupaten Mamasa, Sulawesi Barat 91365","Mamasa, Kec. Mamasa, Kabupaten Mamasa",SULAWESI BARAT,91365.0,Indonesia,,,,-2.9443133,119.3767243,https://maps.google.com/?cid=0x0:0x2f02cbdc95c8ba81,
komplek housing,Komplek perumahan,Alga Tanga,"397F+3G7, Bunta Buda, Kec. Mamasa, Kabupaten Mamasa, Sulawesi Barat 91365","Bunta Buda, Kec. Mamasa, Kabupaten Mamasa",SULAWESI BARAT,91365.0,Indonesia,,,,-2.9373393,119.373802,https://maps.google.com/?cid=0x0:0xa048dafe2ebcfeda,
komplek housing,Komplek perumahan,Velia Home,"394M+PGV, Jalan Rante Koppe, Mamasa, Kec. Mamasa, Kabupaten Mamasa, Sulawesi Barat 91365","Jalan Rante Koppe, Mamasa, Kec. Mamasa, Kabupaten Mamasa",SULAWESI BARAT,91365.0,Indonesia,,,,-2.9431263,119.3838096,https://maps.google.com/?cid=0x0:0xb2d5662b29442041,
komplek housing,Pembangunan Perumahan,RumahNya Aprzl,"395H+6FF, Mamasa, Kec. Mamasa, Kabupaten Mamasa, Sulawesi Barat 91365","Mamasa, Kec. Mamasa, Kabupaten Mamasa",SULAWESI BARAT,91365.0,Indonesia,,,,-2.9419343,119.3786605,https://maps.google.com/?cid=0x0:0xe95b872fa4e71007,
komplek housing,Komplek perumahan,Rumah Nenek Velia,"39H5+CXP Ne'ke, Taupe, Kec. Mamasa, Kabupaten Mamasa, Sulawesi Barat 91362","Taupe, Kec. Mamasa, Kabupaten Mamasa",SULAWESI BARAT,91362.0,Indonesia,,,,-2.9214195,119.3599675,https://maps.google.com/?cid=0x0:0xede13be0e69ac383,
komplek housing,Komplek perumahan,Ezra Home,"394H+FFX, Mamasa, Kec. Mamasa, Kabupaten Mamasa, Sulawesi Barat 91365","Mamasa, Kec. Mamasa, Kabupaten Mamasa",SULAWESI BARAT,91365.0,Indonesia,,,,-2.9437611,119.3787282,https://maps.google.com/?cid=0x0:0x14288511f79cc3d,
komplek housing,Komplek perumahan,Banua Kasarapuan Bataragoa-Lombogia,"Bunta Buda, Kec. Mamasa, Kabupaten Mamasa, Sulawesi Barat","Kabupaten Mamasa, Sulawesi Barat",SULAWESI BARAT,,Indonesia,,,,-2.9395429,119.3748531,https://maps.google.com/?cid=0x0:0x78c37e4a9d54079b,
komplek housing,Komplek perumahan,Harvey House,"396G+563, Kompleks jembatan kuning, Bunta Buda, Kec. Mamasa, Kabupaten Mamasa, Sulawesi Barat","Kabupaten Mamasa, Sulawesi Barat",SULAWESI BARAT,,Indonesia,,,,-2.9396243,119.3755444,https://maps.google.com/?cid=0x0:0x6e281a3a98a55854,
komplek housing,Pembangunan Perumahan,TONGKONAN ARRUANSILOMBA - KUMBANG TAUPE,"39C2+WMJ, Taupe, Kec. Mamasa, Kabupaten Mamasa, Sulawesi Barat 91362","Taupe, Kec. Mamasa, Kabupaten Mamasa",SULAWESI BARAT,91362.0,Indonesia,87752277268.0,,,-2.9276579,119.3516285,https://maps.google.com/?cid=0x0:0xd5bc606fe58c8fa2,
komplek housing,Komplek perumahan,Bamba Rantebuda/home Desti Indi Greshia,"3CG2+F2R, Rambusaratu, Kec. Mamasa, Kabupaten Mamasa, Sulawesi Barat","Kabupaten Mamasa, Sulawesi Barat",SULAWESI BARAT,,Indonesia,,,,-2.9237506,119.4000199,https://maps.google.com/?cid=0x0:0xbc8b15c018ec46bd,
komplek housing,Komplek perumahan,Rumah Papa Emmin,"39CR+25V, Rambusaratu, Kec. Mamasa, Kabupaten Mamasa, Sulawesi Barat","Kabupaten Mamasa, Sulawesi Barat",SULAWESI BARAT,,Indonesia,,,,-2.9298778,119.3904112,https://maps.google.com/?cid=0x0:0xb66d216e4faae74f,
komplek housing,Perhimpunan Pengembang Perumahan,Desi Pongtiku,"39CV+MG7, Rambusaratu, Kec. Mamasa, Kabupaten Mamasa, Sulawesi Barat","Kabupaten Mamasa, Sulawesi Barat",SULAWESI BARAT,,Indonesia,,,,-2.9283482,119.3938095,https://maps.google.com/?cid=0x0:0xbff2bf7a46f8746a,
komplek housing,komplek housing,Rmh PK rara,"38MR+PX8, Taupe, Kec. Mamasa, Kabupaten Mamasa, Sulawesi Barat 91362","Taupe, Kec. Mamasa, Kabupaten Mamasa",SULAWESI BARAT,91362.0,Indonesia,,,,-2.915719,119.3424575,https://maps.google.com/?cid=0x0:0x5c12e4f4cd82ee79,
komplek housing,Komplek perumahan,Aprianto House,"39HC+7H3, Mambuliling, Kec. Mamasa, Kabupaten Mamasa, Sulawesi Barat 91362","Mambuliling, Kec. Mamasa, Kabupaten Mamasa",SULAWESI BARAT,91362.0,Indonesia,,,,-2.9222181,119.3714903,https://maps.google.com/?cid=0x0:0xc3f92cb93a4cf774,
komplek housing,Komplek perumahan,Tresia House,"39HC+7H3, Mambuliling, Kec. Mamasa, Kabupaten Mamasa, Sulawesi Barat 91362","Mambuliling, Kec. Mamasa, Kabupaten Mamasa",SULAWESI BARAT,91362.0,Indonesia,,,,-2.9223038,119.3718027,https://maps.google.com/?cid=0x0:0x950185702850b732,
komplek housing,Komplek perumahan,Gank Potlot Mamasa,"Jl. Pembangunan No.167, Mamasa, Kec. Mamasa, Kabupaten Mamasa, Sulawesi Barat 91365","Mamasa, Kec. Mamasa, Kabupaten Mamasa",SULAWESI BARAT,91365.0,Indonesia,,,,-2.9419293,119.3748621,https://maps.google.com/?cid=0x0:0xbf5f0888bbf6054f,
komplek housing,Komplek perumahan,Rumah Jelin,"39HC+7H3, Mambuliling, Kec. Mamasa, Kabupaten Mamasa, Sulawesi Barat 91362","Mambuliling, Kec. Mamasa, Kabupaten Mamasa",SULAWESI BARAT,91362.0,Indonesia,,,,-2.9224059,119.3718078,https://maps.google.com/?cid=0x0:0x1da03d4f16e9bc8d,
komplek housing,Komplek perumahan,Demma,"39H5+GXM, Taupe, Kec. Mamasa, Kabupaten Mamasa, Sulawesi Barat 91362","Taupe, Kec. Mamasa, Kabupaten Mamasa",SULAWESI BARAT,91362.0,Indonesia,,,,-2.9199077,119.3605085,https://maps.google.com/?cid=0x0:0xfc7d877e41227b6c,
komplek housing,Komplek perumahan,Rumah iin,"39JF+V84, Mambuliling, Kec. Mamasa, Kabupaten Mamasa, Sulawesi Barat 91362","Mambuliling, Kec. Mamasa, Kabupaten Mamasa",SULAWESI BARAT,91362.0,Indonesia,,,,-2.9176194,119.3732585,https://maps.google.com/?cid=0x0:0xa4737c01c76e438d,
komplek housing,Komplek perumahan,Rumah Demianus,"39H5+GXM, Taupe, Kec. Mamasa, Kabupaten Mamasa, Sulawesi Barat 91362","Taupe, Kec. Mamasa, Kabupaten Mamasa",SULAWESI BARAT,91362.0,Indonesia,,,,-2.9218173,119.3601573,https://maps.google.com/?cid=0x0:0x206d418c51b4973,
komplek housing,Komplek perumahan,rumah tasyaa,"396C+5MC, Bunta Buda, Kec. Mamasa, Kabupaten Mamasa, Sulawesi Barat 91362","Bunta Buda, Kec. Mamasa, Kabupaten Mamasa",SULAWESI BARAT,91362.0,Indonesia,,,,-2.9395592,119.3716355,https://maps.google.com/?cid=0x0:0x16f6c61c6fc4e2ae,
komplek housing,Gedung Apartemen,Arnol,"39HC+7H3, Mambuliling, Kec. Mamasa, Kabupaten Mamasa, Sulawesi Barat 91362","Mambuliling, Kec. Mamasa, Kabupaten Mamasa",SULAWESI BARAT,91362.0,Indonesia,,,,-2.9222469,119.3713984,https://maps.google.com/?cid=0x0:0xb385c7ac41274dce,
komplek housing,Vila,Rumah mamah Rafly,"39P9+6Q6, Mambuliling, Kec. Mamasa, Kabupaten Mamasa, Sulawesi Barat 91362","Mambuliling, Kec. Mamasa, Kabupaten Mamasa",SULAWESI BARAT,91362.0,Indonesia,,,,-2.9144518,119.3693904,https://maps.google.com/?cid=0x0:0x49db158babc82a81,
komplek housing,Pembangunan Perumahan,Banua bolong,"39CJ+WJ7, Tondok Bakaru, Kec. Mamasa, Kabupaten Mamasa, Sulawesi Barat 91362","Tondok Bakaru, Kec. Mamasa, Kabupaten Mamasa",SULAWESI BARAT,91362.0,Indonesia,,,,-2.9276836,119.3815811,https://maps.google.com/?cid=0x0:0xc38e0295bfebdaa2,
komplek housing,Komplek perumahan,Balla Matande,"3985+8HJ, Balla, Matande, Taupe, Kec. Mamasa, Kabupaten Mamasa, Sulawesi Barat 91362","Balla, Matande, Taupe, Kec. Mamasa, Kabupaten Mamasa",SULAWESI BARAT,91362.0,Indonesia,,,,-2.9341591,119.3589013,https://maps.google.com/?cid=0x0:0x648bf7005a96271f,
komplek housing,komplek housing,Kec. Mambi,"Kabupaten Mamasa, Sulawesi Barat","Kabupaten Mamasa, Sulawesi Barat",SULAWESI BARAT,,Indonesia,,,,-2.9511527,119.1807955,https://maps.google.com/?cid=0x0:0xd5ebe7e9ad656c5d,
komplek housing,Komplek perumahan,Rumah Muh Arfandi,"3536+3C4, Talipukki, Kec. Mambi, Kabupaten Mamasa, Sulawesi Barat 91371","Talipukki, Kec. Mambi, Kabupaten Mamasa",SULAWESI BARAT,91371.0,Indonesia,,,,-2.947367,119.1610669,https://maps.google.com/?cid=0x0:0xa2e2ff8e8950786a,
komplek housing,Pembangunan Perumahan,Rumah ikbal,"347X+25G, Talipukki, Kec. Mambi, Kabupaten Mamasa, Sulawesi Barat 91371","Talipukki, Kec. Mambi, Kabupaten Mamasa",SULAWESI BARAT,91371.0,Indonesia,,,,-2.9374361,119.1479556,https://maps.google.com/?cid=0x0:0x9cc6722d99512776,
komplek housing,Komplek perumahan,muh.syahril,"25XJ+9HQ, Sendana, Kec. Mambi, Kabupaten Mamasa, Sulawesi Barat 91371","Sendana, Kec. Mambi, Kabupaten Mamasa",SULAWESI BARAT,91371.0,Indonesia,,,,-2.9515386,119.1813029,https://maps.google.com/?cid=0x0:0xf6d0947ffe17e69a,
komplek housing,Perhimpunan Pengembang Perumahan,Rea mambi,"25XJ+G8C, Sendana, Kec. Mambi, Kabupaten Mamasa, Sulawesi Barat 91371","Sendana, Kec. Mambi, Kabupaten Mamasa",SULAWESI BARAT,91371.0,Indonesia,,,,-2.9511777,119.180753,https://maps.google.com/?cid=0x0:0x75fc07191d67a187,
komplek housing,komplek housing,Azzahra  Naila,"34MG+FCV, Pakbettengan, Uhaidao, Kec. Aralle, Kabupaten Mamasa, Sulawesi Barat","Kabupaten Mamasa, Sulawesi Barat",SULAWESI BARAT,,Indonesia,,,,-2.9162562,119.126049,https://maps.google.com/?cid=0x0:0xcde91ef6d00d60ec,
komplek housing,Inspektur Tempat Tinggal,Albar home stay,"25HM+8J9, Jl. Poros Mamasa, Bambang Buda, Kec. Rantebulahan Tim., Kabupaten Mamasa, Sulawesi Barat 91371","Jl. Poros Mamasa, Bambang Buda, Kec. Rantebulahan Tim., Kabupaten Mamasa",SULAWESI BARAT,91371.0,Indonesia,81351548166.0,,,-2.9717174,119.1841142,https://maps.google.com/?cid=0x0:0xd1a313057ab1dd1,
komplek housing,Komplek perumahan,Epray Home,"25HV+2MM, Bambang Buda, Kec. Rantebulahan Tim., Kabupaten Mamasa, Sulawesi Barat 91371","Bambang Buda, Kec. Rantebulahan Tim., Kabupaten Mamasa",SULAWESI BARAT,91371.0,Indonesia,,,,-2.9714961,119.1940571,https://maps.google.com/?cid=0x0:0x9ed2c27b2bbe6d8e,
komplek housing,Komplek perumahan,Tantallak City,"342X+5W7, Talipukki, Kec. Mambi, Kabupaten Mamasa, Sulawesi Barat 91371","Talipukki, Kec. Mambi, Kabupaten Mamasa",SULAWESI BARAT,91371.0,Indonesia,,,,-2.9495912,119.1498035,https://maps.google.com/?cid=0x0:0x3f12023126fc19a9,
komplek housing,Komplek perumahan,Lembah Daram,"25VG+F9, Mambi, Kec. Mambi, Kabupaten Mamasa, Sulawesi Barat 91371","Mambi, Kec. Mambi, Kabupaten Mamasa",SULAWESI BARAT,91371.0,Indonesia,,,,-2.9559344,119.1771382,https://maps.google.com/?cid=0x0:0xab1a1603330ef2f6,
komplek housing,Komplek perumahan,Rumah Ca'ling,"25XJ+9GP, Sendana, Kec. Mambi, Kabupaten Mamasa, Sulawesi Barat 91371","Sendana, Kec. Mambi, Kabupaten Mamasa",SULAWESI BARAT,91371.0,Indonesia,,,,-2.9515376,119.1813129,https://maps.google.com/?cid=0x0:0x58ec908e9d4548f2,
komplek housing,Komplek perumahan,Rumah IIs Juniati,"35JJ+8QW, Salukepopok, Kec. Bambang, Kabupaten Mamasa, Sulawesi Barat 91371","Salukepopok, Kec. Bambang, Kabupaten Mamasa",SULAWESI BARAT,91371.0,Indonesia,,,,-2.9191338,119.1819486,https://maps.google.com/?cid=0x0:0xa99fd99daa23d1e,
komplek housing,komplek housing,Ichuk tatangsa,"36J7+FC2, Rantetarima, Kec. Bambang, Kabupaten Mamasa, Sulawesi Barat","Kabupaten Mamasa, Sulawesi Barat",SULAWESI BARAT,,Indonesia,,,,-2.918921,119.212569,https://maps.google.com/?cid=0x0:0x4052cb772c8f0b78,
komplek housing,Komplek perumahan,Muhlis,"352H+2JM, Sendana, Kec. Mambi, Kabupaten Mamasa, Sulawesi Barat 91371","Sendana, Kec. Mambi, Kabupaten Mamasa",SULAWESI BARAT,91371.0,Indonesia,,,,-2.949902,119.1790334,https://maps.google.com/?cid=0x0:0xf1549395d9e418d6,
komplek housing,Perhimpunan Pengembang Perumahan,Pondok pepana,"25VC+86C, Mambi, Kec. Mambi, Kabupaten Mamasa, Sulawesi Barat","Kabupaten Mamasa, Sulawesi Barat",SULAWESI BARAT,,Indonesia,,,,-2.95669,119.170502,https://maps.google.com/?cid=0x0:0x684e04cede4f336,
komplek housing,Komplek perumahan,-kal.PAngalak A,"25GC+4XV, Saludurian, Kec. Mambi, Kabupaten Mamasa, Sulawesi Barat 91371","Saludurian, Kec. Mambi, Kabupaten Mamasa",SULAWESI BARAT,91371.0,Indonesia,,,,-2.9746535,119.1725263,https://maps.google.com/?cid=0x0:0x9b82c8fa8ef3aba8,
komplek housing,Komplek perumahan,V.'s Home,"25HV+2MM, Bambang Buda, Kec. Rantebulahan Tim., Kabupaten Mamasa, Sulawesi Barat 91371","Bambang Buda, Kec. Rantebulahan Tim., Kabupaten Mamasa",SULAWESI BARAT,91371.0,Indonesia,,,,-2.9721355,119.1929107,https://maps.google.com/?cid=0x0:0x9ad8b7d4b546e68b,
komplek housing,Kompleks Kondominium,Dils house,"25GC+4XV, Saludurian, Kec. Mambi, Kabupaten Mamasa, Sulawesi Barat 91371","Saludurian, Kec. Mambi, Kabupaten Mamasa",SULAWESI BARAT,91371.0,Indonesia,,,,-2.9746334,119.1724254,https://maps.google.com/?cid=0x0:0x98f8a143d91e4955,
komplek housing,Rumah Kayu,Lewi. B,"26X3+8F5, Bambang, Kec. Bambang, Kabupaten Mamasa, Sulawesi Barat 91371","Bambang, Kec. Bambang, Kabupaten Mamasa",SULAWESI BARAT,91371.0,Indonesia,,,,-2.9517395,119.2037362,https://maps.google.com/?cid=0x0:0x77699611975e3a1,
komplek housing,Komplek perumahan,Rumah Dirwanto,"35FQ+G99, Salukepopok, Kec. Bambang, Kabupaten Mamasa, Sulawesi Barat 91371","Salukepopok, Kec. Bambang, Kabupaten Mamasa",SULAWESI BARAT,91371.0,Indonesia,,,,-2.9262144,119.1884754,https://maps.google.com/?cid=0x0:0x22bddaf16f9a56b0,
komplek housing,Komplek perumahan,Oma Susana's House,"357C+7FJ, Jl. Poros Mamasa, Sindagamanik, Kec. Mambi, Kabupaten Mamasa, Sulawesi Barat","Kabupaten Mamasa, Sulawesi Barat",SULAWESI BARAT,,Indonesia,,,,-2.9367822,119.1711388,https://maps.google.com/?cid=0x0:0xe2c0b97ae9705776,
komplek housing,Komplek perumahan,Perumahan Ahak-Ahak,"358R+VMG, Saluassing, Kec. Bambang, Kabupaten Mamasa, Sulawesi Barat 91371","Saluassing, Kec. Bambang, Kabupaten Mamasa",SULAWESI BARAT,91371.0,Indonesia,,,,-2.9328195,119.191714,https://maps.google.com/?cid=0x0:0xdea10aa1cb6db979,
komplek housing,Komplek perumahan,Yunarlin'S Home,"358R+FGC, Saluassing, Kec. Bambang, Kabupaten Mamasa, Sulawesi Barat 91371","Saluassing, Kec. Bambang, Kabupaten Mamasa",SULAWESI BARAT,91371.0,Indonesia,,,,-2.9338175,119.191279,https://maps.google.com/?cid=0x0:0xc3aa7855ec0ed328,
komplek housing,Gedung Apartemen,RUMAH AGE,"25JJ+FR, Rantebulahan, Kec. Mambi, Kabupaten Mamasa, Sulawesi Barat","Kabupaten Mamasa, Sulawesi Barat",SULAWESI BARAT,,Indonesia,,,,-2.9688195,119.1820733,https://maps.google.com/?cid=0x0:0xaf68c001f91fbb7c,
komplek housing,Komplek perumahan,RianGrub,"25XP+VWP, Jalan salukona Jl. Poros Mamasa, Mambi, Kec. Bambang, Kabupaten Mamasa, Sulawesi Barat","Kabupaten Mamasa, Sulawesi Barat",SULAWESI BARAT,,Indonesia,,,,-2.950291,119.1873412,https://maps.google.com/?cid=0x0:0x163b8dbf847d3172,
komplek housing,Perhimpunan Pengembang Perumahan,Salutabo,"357C+7FJ, Jl. Poros Mamasa, Mambi, Kec. Mambi, Kabupaten Mamasa, Sulawesi Barat","Kabupaten Mamasa, Sulawesi Barat",SULAWESI BARAT,,Indonesia,,,,-2.9367822,119.1711388,https://maps.google.com/?cid=0x0:0xb34562fd3e5be74c,
komplek housing,komplek housing,Nur Aprilia,"P5W4+X5W, Karangasih, Kec. Cikarang Utara, Kabupaten Bekasi, Jawa Barat 17530","Karangasih, Kec. Cikarang Utara, Kabupaten Bekasi",SULAWESI BARAT,17530.0,Indonesia,,,,-6.2526235,107.1554554,https://maps.google.com/?cid=0x0:0x98545cb72d4917d9,
komplek housing,komplek housing,Komplek Housing,"Blok Bojong Nangka I, Jl. Ring Rudal Blok Bojong Nangka I No.68, RT.001/RW.007, Jatirahayu, Kec. Pd. Melati, Kota Bks, Jawa Barat 17414","Jl. Ring Rudal Blok Bojong Nangka I No.68, RT.001/RW.007, Jatirahayu, Kec. Pd. Melati, Kota Bks",SULAWESI BARAT,17414.0,Indonesia,,,,-6.293724,106.9165114,https://maps.google.com/?cid=0x0:0x9c50464976dee674,
komplek housing,komplek housing,Mehalaan,"Mehalaan Bar., Kec. Mehalaan, Kabupaten Mamasa, Sulawesi Barat","Kabupaten Mamasa, Sulawesi Barat",SULAWESI BARAT,,Indonesia,,,,-3.027435,119.184196,https://maps.google.com/?cid=0x0:0x221be9bd18c99ca3,
komplek housing,komplek housing,Kec. Tebet,"Kota Jakarta Selatan, Daerah Khusus Ibukota Jakarta","Kota Jakarta Selatan, Daerah Khusus Ibukota Jakarta",SULAWESI BARAT,,Indonesia,,,,-6.2251223,106.8549881,https://maps.google.com/?cid=0x0:0xd575e31c807295f9,
komplek housing,komplek housing,Mehalaan Bar.,"Kec. Mehalaan, Kabupaten Mamasa, Sulawesi Barat","Kabupaten Mamasa, Sulawesi Barat",SULAWESI BARAT,,Indonesia,,,,-3.026133,119.179765,https://maps.google.com/?cid=0x0:0xf2f6248ff5c46efc,
komplek housing,komplek housing,Messawa,"Kec. Messawa, Kabupaten Mamasa, Sulawesi Barat","Kabupaten Mamasa, Sulawesi Barat",SULAWESI BARAT,,Indonesia,,,,-3.2622327,119.3395538,https://maps.google.com/?cid=0x0:0xa39b9aea8468a651,
komplek housing,komplek housing,Sulawesi Barat 91361,"Kabupaten Mamasa, Sulawesi Barat","Kabupaten Mamasa, Sulawesi Barat",SULAWESI BARAT,,Indonesia,,,,-3.1770865,119.3018011,https://maps.google.com/?cid=0x0:0xa3c2c4ef1c97d548,
komplek housing,komplek housing,Kec. Messawa,"Kabupaten Mamasa, Sulawesi Barat","Kabupaten Mamasa, Sulawesi Barat",SULAWESI BARAT,,Indonesia,,,,-3.261651,119.3433321,https://maps.google.com/?cid=0x0:0xd0b7bc7510e6c760,
komplek housing,Pusat Perbelanjaan,Dadeko,"P9M9+RWQ, Malimbong, Kec. Messawa, Kabupaten Mamasa, Sulawesi Barat 91361","Malimbong, Kec. Messawa, Kabupaten Mamasa",SULAWESI BARAT,91361.0,Indonesia,,,,-3.2654192,119.3698464,https://maps.google.com/?cid=0x0:0x6cbe4455526aa0a2,
komplek housing,Komplek perumahan,Rumah Tokkonan (Banua Sura') Kel. Ambe'/Indok Kanan,"PC35+HGF, Tanete Batu, Kec. Messawa, Kabupaten Mamasa, Sulawesi Barat 91361","Tanete Batu, Kec. Messawa, Kabupaten Mamasa",SULAWESI BARAT,91361.0,Indonesia,,,,-3.2960725,119.4087958,https://maps.google.com/?cid=0x0:0xcc0bbe35fe18881b,
komplek housing,Perhimpunan Pengembang Perumahan,Rumah fera,"P96W+89J, Matande, Kec. Messawa, Kabupaten Mamasa, Sulawesi Barat 91361","Matande, Kec. Messawa, Kabupaten Mamasa",SULAWESI BARAT,91361.0,Indonesia,,,,-3.2891692,119.395877,https://maps.google.com/?cid=0x0:0xf48f501bae95b027,
komplek housing,Pembangunan Perumahan,Rumah Wien,"P95X+X5C, Matande, Kec. Messawa, Kabupaten Mamasa, Sulawesi Barat 91361","Matande, Kec. Messawa, Kabupaten Mamasa",SULAWESI BARAT,91361.0,Indonesia,,,,-3.2900642,119.3979,https://maps.google.com/?cid=0x0:0x46e897b9cc7086fe,
komplek housing,Komplek perumahan,Rumah Oma Impess,"MCW4+JXV, Tanete Batu, Kec. Messawa, Kabupaten Mamasa, Sulawesi Barat 91361","Tanete Batu, Kec. Messawa, Kabupaten Mamasa",SULAWESI BARAT,91361.0,Indonesia,,,,-3.3033944,119.4074373,https://maps.google.com/?cid=0x0:0x1a8a3f17863fd7fd,
komplek housing,Gedung Apartemen,Rumah Deni,"MCV8+Q4H, Unnamed Road, Tanete Batu, Messawa, Mamasa Regency, West Sulawesi 91361","Unnamed Road, Tanete Batu, Messawa, Mamasa Regency",SULAWESI BARAT,91361.0,Indonesia,,,,-3.3055599,119.4153569,https://maps.google.com/?cid=0x0:0xa673c7fefd82c68c,
komplek housing,Komplek perumahan,Rumah Argia,"Q8FH+75G, Jl. Poros Tabone-Polewali, Rippung, Kec. Messawa, Kabupaten Mamasa, Sulawesi Barat 91361","Jl. Poros Tabone-Polewali, Rippung, Kec. Messawa, Kabupaten Mamasa",SULAWESI BARAT,91361.0,Indonesia,,,,-3.226815,119.3279683,https://maps.google.com/?cid=0x0:0xaad9a6147dfc0606,
komplek housing,Komplek perumahan,Bang ardhy,"P9GH+7J9, Matande, Kec. Messawa, Kabupaten Mamasa, Sulawesi Barat 91361","Matande, Kec. Messawa, Kabupaten Mamasa",SULAWESI BARAT,91361.0,Indonesia,,,,-3.2730361,119.3787113,https://maps.google.com/?cid=0x0:0x7ce603fc1c7fe224,
komplek housing,Komplek perumahan,Dusun tallang balok,"P9FQ+GHM, Matande, Kec. Messawa, Kabupaten Mamasa, Sulawesi Barat 91361","Matande, Kec. Messawa, Kabupaten Mamasa",SULAWESI BARAT,91361.0,Indonesia,,,,-3.2761595,119.3889082,https://maps.google.com/?cid=0x0:0x9ffd0affe9eda581,
komplek housing,Komplek perumahan,Rumah jeli,"MCW4+JXV, Tanete Batu, Kec. Messawa, Kabupaten Mamasa, Sulawesi Barat 91361","Tanete Batu, Kec. Messawa, Kabupaten Mamasa",SULAWESI BARAT,91361.0,Indonesia,,,,-3.3026735,119.4066768,https://maps.google.com/?cid=0x0:0xcf461a58b35c5e5a,
komplek housing,Rumah Kayu,Nek lani,"PC53+MRR, Sipai, Kec. Messawa, Kabupaten Mamasa, Sulawesi Barat 91361","Sipai, Kec. Messawa, Kabupaten Mamasa",SULAWESI BARAT,91361.0,Indonesia,,,,-3.2909847,119.4057297,https://maps.google.com/?cid=0x0:0x7bcd431e2e3448d7,
komplek housing,Komplek perumahan,Rumah Maria Arini,"MCW5+Q6H, Tanete Batu, Kec. Messawa, Kabupaten Mamasa, Sulawesi Barat 91361","Tanete Batu, Kec. Messawa, Kabupaten Mamasa",SULAWESI BARAT,91361.0,Indonesia,,,,-3.3030551,119.4081155,https://maps.google.com/?cid=0x0:0x3dbf4f2581d63a56,
komplek housing,Perhimpunan Pengembang Perumahan,Mr. Roberth runggat,"P97P+9MF, Dusun beting, Matande, Kec. Messawa, Kabupaten Mamasa, Sulawesi Barat 91361","Dusun beting, Matande, Kec. Messawa, Kabupaten Mamasa",SULAWESI BARAT,91361.0,Indonesia,,,,-3.2865625,119.3866719,https://maps.google.com/?cid=0x0:0xcfce455dc6fdde40,
komplek housing,Komplek perumahan,Rumah Rahel (Gerald),"R83H+F97, Sibanawa, Kec. Sumarorong, Kabupaten Mamasa, Sulawesi Barat 91361","Sibanawa, Kec. Sumarorong, Kabupaten Mamasa",SULAWESI BARAT,91361.0,Indonesia,,,,-3.1963409,119.3284307,https://maps.google.com/?cid=0x0:0x24b2cd88027e4b75,
komplek housing,Gedung Apartemen,Rumah Dd,"Jl. Poros Polewali Mamasa No.km 36, Klp. Dua, Kec. Anreapi, Kabupaten Polewali Mandar, Sulawesi Barat 91361","Klp. Dua, Kec. Anreapi, Kabupaten Polewali Mandar",SULAWESI BARAT,91361.0,Indonesia,,,,-3.3005313,119.3751226,https://maps.google.com/?cid=0x0:0x29d2ee879aa474f2,
komplek housing,Pembangunan Perumahan,Panda rasidance,"PC8F+CFX, Sipai, dusun bau, Kabupaten Mamasa, Sulawesi Barat 91361","Sipai, dusun bau, Kabupaten Mamasa",SULAWESI BARAT,91361.0,Indonesia,,,,-3.2838986,119.4237365,https://maps.google.com/?cid=0x0:0x9941f4ad7a9915d5,
komplek housing,Komplek perumahan,Minanga,"R8X7+4V, Tadisi, Kec. Sumarorong, Kabupaten Mamasa, Sulawesi Barat 91361","Tadisi, Kec. Sumarorong, Kabupaten Mamasa",SULAWESI BARAT,91361.0,Indonesia,,,,-3.1521973,119.3147357,https://maps.google.com/?cid=0x0:0xc2d3f51525f4682d,
komplek housing,komplek housing,Rumah Cio,"V847+C38, Sumarorong, Kec. Sumarorong, Kabupaten Mamasa, Sulawesi Barat 91361","Sumarorong, Kec. Sumarorong, Kabupaten Mamasa",SULAWESI BARAT,91361.0,Indonesia,,,,-3.1439644,119.3127018,https://maps.google.com/?cid=0x0:0x61e402a8719fc1a5,
komplek housing,komplek housing,Nosu,"Kec. Nosu, Kabupaten Mamasa, Sulawesi Barat","Kabupaten Mamasa, Sulawesi Barat",SULAWESI BARAT,,Indonesia,,,,-3.1222192,119.5049702,https://maps.google.com/?cid=0x0:0xbc469c34008e21a3,
komplek housing,komplek housing,Rumah Indo' Liling,"VF9J+QFR, Nosu, Kec. Nosu, Kabupaten Mamasa, Sulawesi Barat 91363","Nosu, Kec. Nosu, Kabupaten Mamasa",SULAWESI BARAT,91363.0,Indonesia,,,,-3.1305047,119.4811269,https://maps.google.com/?cid=0x0:0xc6256b4fa78e13d2,
komplek housing,Komplek perumahan,p.jois,"minanga timur kec, nosu kab,mamasa, Barat, Sulawesi Barat 91363","nosu kab,mamasa, Barat",SULAWESI BARAT,91363.0,Indonesia,82210226366.0,,,-3.1187657,119.4759988,https://maps.google.com/?cid=0x0:0xa46e9972f82a6885,
komplek housing,Komplek perumahan,Rumah Desilia Slovania,"VFFJ+G88, Nosu, Kec. Nosu, Kabupaten Mamasa, Sulawesi Barat 91363","Nosu, Kec. Nosu, Kabupaten Mamasa",SULAWESI BARAT,91363.0,Indonesia,,,,-3.126092,119.4813247,https://maps.google.com/?cid=0x0:0xf626923cdeaf7490,
komplek housing,Komplek perumahan,Tanete saruran,"VF9C+CV8, Nosu, Kec. Nosu, Kabupaten Mamasa, Sulawesi Barat 91363","Nosu, Kec. Nosu, Kabupaten Mamasa",SULAWESI BARAT,91363.0,Indonesia,,,,-3.1314533,119.4721945,https://maps.google.com/?cid=0x0:0xd12c013f1024f299,
komplek housing,Perhimpunan Pengembang Perumahan,M. Mely,"VFMJ+98J, Siwi, Kec. Nosu, Kabupaten Mamasa, Sulawesi Barat 91363","Siwi, Kec. Nosu, Kabupaten Mamasa",SULAWESI BARAT,91363.0,Indonesia,,,,-3.1165414,119.4807775,https://maps.google.com/?cid=0x0:0xdc73b5f30d1f3117,
komplek housing,Komplek perumahan,Rumah P Sari,"VFH9+W39, Minanga, Kec. Nosu, Kabupaten Mamasa, Sulawesi Barat 91363","Minanga, Kec. Nosu, Kabupaten Mamasa",SULAWESI BARAT,91363.0,Indonesia,,,,-3.119264,119.467717,https://maps.google.com/?cid=0x0:0x15b8d111c7899081,
komplek housing,Area Mendaki,Bukit Indah,"VFCM+Q92, Nosu, Kec. Nosu, Kabupaten Mamasa, Sulawesi Barat 91363","Nosu, Kec. Nosu, Kabupaten Mamasa",SULAWESI BARAT,91363.0,Indonesia,,,,-3.1281211,119.4833766,https://maps.google.com/?cid=0x0:0x81ffd6394539353,
komplek housing,Komplek perumahan,Rumah P. Datu,"VFH9+W39, Minanga, Kec. Nosu, Kabupaten Mamasa, Sulawesi Barat 91363","Minanga, Kec. Nosu, Kabupaten Mamasa",SULAWESI BARAT,91363.0,Indonesia,,,,-3.118456,119.467728,https://maps.google.com/?cid=0x0:0xe6b6cecf39ae5611,
komplek housing,Toko umum,Nosu,"29Q9+W7W, Rantetangnga, Kec. Tawalian, Kabupaten Mamasa, Sulawesi Barat","Kabupaten Mamasa, Sulawesi Barat",SULAWESI BARAT,,Indonesia,,,,-2.960135,119.368202,https://maps.google.com/?cid=0x0:0xbc7dfbf6d581b4cd,
komplek housing,Komplek perumahan,Parinding,"VFQ4+HRP, Minanga, Kec. Nosu, Kabupaten Mamasa, Sulawesi Barat 91363","Minanga, Kec. Nosu, Kabupaten Mamasa",SULAWESI BARAT,91363.0,Indonesia,,,,-3.111802,119.457365,https://maps.google.com/?cid=0x0:0x15dbf39e83cf28c8,
komplek housing,Pembangunan Perumahan,Ma' Wahyu,"VF6M+R46, Batu Papan, Kec. Nosu, Kabupaten Mamasa, Sulawesi Barat","Kabupaten Mamasa, Sulawesi Barat",SULAWESI BARAT,,Indonesia,,,,-3.1374734,119.4828971,https://maps.google.com/?cid=0x0:0xfcb78b97f3c05448,
komplek housing,Komplek perumahan,Tanete kabinni,"VFCF+9C6, Nosu, Kec. Nosu, Kabupaten Mamasa, Sulawesi Barat 91363","Nosu, Kec. Nosu, Kabupaten Mamasa",SULAWESI BARAT,91363.0,Indonesia,,,,-3.1290753,119.4735291,https://maps.google.com/?cid=0x0:0x5b37985d718037d6,
komplek housing,komplek housing,"Dusun Salubassi, Desa Salubalo, Kecamatan Sumarorong","VF8M+7PF, Dusun Salubassi, Kec. Sumarorong, Kabupaten Mamasa, Sulawesi Barat","Kabupaten Mamasa, Sulawesi Barat",SULAWESI BARAT,,Indonesia,,,,-3.134303,119.4843045,https://maps.google.com/?cid=0x0:0x165bf51ae5920b36,
komplek housing,Perhimpunan Pengembang Perumahan,Karel kato,"VFMH+X69, Minanga Tim., Kec. Nosu, Kabupaten Mamasa, Sulawesi Barat 91363","Minanga Tim., Kec. Nosu, Kabupaten Mamasa",SULAWESI BARAT,91363.0,Indonesia,,,,-3.1150955,119.478105,https://maps.google.com/?cid=0x0:0x70529bb2cc724d8a,
komplek housing,Perumahan,NS PAULUS,"VFQF+GVH, Minanga Tim., Kec. Nosu, Kabupaten Mamasa, Sulawesi Barat 91363","Minanga Tim., Kec. Nosu, Kabupaten Mamasa",SULAWESI BARAT,91363.0,Indonesia,,,,-3.1111792,119.4747459,https://maps.google.com/?cid=0x0:0xcd53d7128bb1c2cf,
komplek housing,Komplek perumahan,Leppan,"VF79+XR, Batu Papan, Kec. Nosu, Kabupaten Mamasa, Sulawesi Barat","Kabupaten Mamasa, Sulawesi Barat",SULAWESI BARAT,,Indonesia,,,,-3.1350978,119.4696246,https://maps.google.com/?cid=0x0:0xbb625af287a143e,
komplek housing,Perumahan,Minanga timur,"VFWG+673, Minanga Tim., Kec. Nosu, Kabupaten Mamasa, Sulawesi Barat 91363","Minanga Tim., Kec. Nosu, Kabupaten Mamasa",SULAWESI BARAT,91363.0,Indonesia,,,,-3.1044867,119.4756817,https://maps.google.com/?cid=0x0:0x10ddb2419c5f9a6d,
komplek housing,Komplek perumahan,pondok nosu,"394M+758, Tawalian, Kec. Tawalian, Kabupaten Mamasa, Sulawesi Barat 91365","Tawalian, Kec. Tawalian, Kabupaten Mamasa",SULAWESI BARAT,91365.0,Indonesia,,,,-2.9443244,119.3829604,https://maps.google.com/?cid=0x0:0x81ee618bf12a6a46,
komplek housing,Komplek perumahan,Ruma papa Pirlo,"VF8J+3P, Nosu, Kec. Nosu, Kabupaten Mamasa, Sulawesi Barat 91363","Nosu, Kec. Nosu, Kabupaten Mamasa",SULAWESI BARAT,91363.0,Indonesia,,,,-3.1343733,119.4814404,https://maps.google.com/?cid=0x0:0x2a5f893bde44e527,
komplek housing,Pembangunan Perumahan,Fiktor pamallunan,"VFPC+HJW, Minanga, Kec. Nosu, Kabupaten Mamasa, Sulawesi Barat 91363","Minanga, Kec. Nosu, Kabupaten Mamasa",SULAWESI BARAT,91363.0,Indonesia,,,,-3.1135133,119.4715806,https://maps.google.com/?cid=0x0:0x1bdae9f478b4a68d,
komplek housing,Pembangunan Perumahan,Papa Junior,"VFG8+9W, Minanga, Kec. Nosu, Kabupaten Mamasa, Sulawesi Barat","Kabupaten Mamasa, Sulawesi Barat",SULAWESI BARAT,,Indonesia,,,,-3.1240358,119.4673739,https://maps.google.com/?cid=0x0:0x93ca1fbb67d309df,
komplek housing,Otoritas Perumahan,Villa nusa indah 3,"Jl. Vila Nusa Indah 3 No.22, Bojong Kulur, Kec. Gn. Putri, Kabupaten Bogor, Jawa Barat 16969","Bojong Kulur, Kec. Gn. Putri, Kabupaten Bogor",SULAWESI BARAT,16969.0,Indonesia,,,,-6.3292678,106.9654156,https://maps.google.com/?cid=0x0:0xcc4716839d836d44,
komplek housing,Dapur Umum,Perumahan Bumi Mutiara,"Jl. Bumi Mutiara No.4, Bojong Kulur, Kec. Gn. Putri, Kabupaten Bogor, Jawa Barat 16969","Bojong Kulur, Kec. Gn. Putri, Kabupaten Bogor",SULAWESI BARAT,16969.0,Indonesia,,,,-6.3333957,106.9733036,https://maps.google.com/?cid=0x0:0xadb863e05362bf6e,
komplek housing,komplek housing,Komplek Housing,"Blok Bojong Nangka I, Jl. Ring Rudal Blok Bojong Nangka I No.68, RT.001/RW.007, Jatirahayu, Kec. Pd. Melati, Kota Bks, Jawa Barat 17414","Jl. Ring Rudal Blok Bojong Nangka I No.68, RT.001/RW.007, Jatirahayu, Kec. Pd. Melati, Kota Bks",SULAWESI BARAT,17414.0,Indonesia,,,,-6.293724,106.9165114,https://maps.google.com/?cid=0x0:0x9c50464976dee674,
komplek housing,komplek housing,Kec. Rantebulahan Tim.,"Kabupaten Mamasa, Sulawesi Barat","Kabupaten Mamasa, Sulawesi Barat",SULAWESI BARAT,,Indonesia,,,,-2.9864566,119.2304192,https://maps.google.com/?cid=0x0:0xef9b8dde78b76588,
komplek housing,Komplek perumahan,V.'s Home,"25HV+2MM, Bambang Buda, Kec. Rantebulahan Tim., Kabupaten Mamasa, Sulawesi Barat 91371","Bambang Buda, Kec. Rantebulahan Tim., Kabupaten Mamasa",SULAWESI BARAT,91371.0,Indonesia,,,,-2.9721355,119.1929107,https://maps.google.com/?cid=0x0:0x9ad8b7d4b546e68b,
komplek housing,Komplek perumahan,Epray Home,"25HV+2MM, Bambang Buda, Kec. Rantebulahan Tim., Kabupaten Mamasa, Sulawesi Barat 91371","Bambang Buda, Kec. Rantebulahan Tim., Kabupaten Mamasa",SULAWESI BARAT,91371.0,Indonesia,,,,-2.9714961,119.1940571,https://maps.google.com/?cid=0x0:0x9ed2c27b2bbe6d8e,
komplek housing,Komplek perumahan,Kepala Dusun Tomba,"2638+QPW, Kirak, Kec. Rantebulahan Tim., Kabupaten Mamasa, Sulawesi Barat 91371","Kirak, Kec. Rantebulahan Tim., Kabupaten Mamasa",SULAWESI BARAT,91371.0,Indonesia,,,,-2.9956153,119.2176857,https://maps.google.com/?cid=0x0:0xaa4262c2825603dc,
komplek housing,Inspektur Tempat Tinggal,Albar home stay,"25HM+8J9, Jl. Poros Mamasa, Bambang Buda, Kec. Rantebulahan Tim., Kabupaten Mamasa, Sulawesi Barat 91371","Jl. Poros Mamasa, Bambang Buda, Kec. Rantebulahan Tim., Kabupaten Mamasa",SULAWESI BARAT,91371.0,Indonesia,81351548166.0,,,-2.9717174,119.1841142,https://maps.google.com/?cid=0x0:0xd1a313057ab1dd1,
komplek housing,Komplek perumahan,Rumah P. Rion,"267J+QQM, Salumokanan Utara, Kec. Rantebulahan Tim., Kabupaten Mamasa, Sulawesi Barat","Kabupaten Mamasa, Sulawesi Barat",SULAWESI BARAT,,Indonesia,,,,-2.9855396,119.2319068,https://maps.google.com/?cid=0x0:0x4f457bf8ac65567a,
komplek housing,Pondok pedesaan,KIRAK,"X6X6+JMH, Kirak, Kec. Rantebulahan Tim., Kabupaten Mamasa, Sulawesi Barat","Kabupaten Mamasa, Sulawesi Barat",SULAWESI BARAT,,Indonesia,,,,-3.0009342,119.2117365,https://maps.google.com/?cid=0x0:0xf69419cd46553b0b,
komplek housing,Komplek perumahan,Gtrjl,"25HV+2MM, Bambang Buda, Kec. Rantebulahan Tim., Kabupaten Mamasa, Sulawesi Barat 91371","Bambang Buda, Kec. Rantebulahan Tim., Kabupaten Mamasa",SULAWESI BARAT,91371.0,Indonesia,,,,-2.9719012,119.1944065,https://maps.google.com/?cid=0x0:0xdd081ecea7790f0c,
komplek housing,Komplek perumahan,Wnr home,"26G2+P22, Bambang Buda, Kec. Rantebulahan Tim., Kabupaten Mamasa, Sulawesi Barat 91371","Bambang Buda, Kec. Rantebulahan Tim., Kabupaten Mamasa",SULAWESI BARAT,91371.0,Indonesia,,,,-2.9730117,119.1991733,https://maps.google.com/?cid=0x0:0x164265fe439a7a0b,
komplek housing,Komplek perumahan,Rial,"2692+P3, Bambang Buda, Kec. Rantebulahan Tim., Kabupaten Mamasa, Sulawesi Barat","Kabupaten Mamasa, Sulawesi Barat",SULAWESI BARAT,,Indonesia,,,,-2.9807476,119.2001839,https://maps.google.com/?cid=0x0:0xd5b39b850fa21e36,
komplek housing,Pembangunan Perumahan,Ojo,"267M+359, Salumokanan Utara, Kec. Rantebulahan Tim., Kabupaten Mamasa, Sulawesi Barat","Kabupaten Mamasa, Sulawesi Barat",SULAWESI BARAT,,Indonesia,,,,-2.9874134,119.2329781,https://maps.google.com/?cid=0x0:0x1d89fa923b23beee,
komplek housing,Komplek perumahan,Rumah diki,"2697+65, Salumokanan Bar., Kec. Rantebulahan Tim., Kabupaten Mamasa, Sulawesi Barat","Kabupaten Mamasa, Sulawesi Barat",SULAWESI BARAT,,Indonesia,,,,-2.9825215,119.2136537,https://maps.google.com/?cid=0x0:0xb0a48596399cae53,
komplek housing,Komplek perumahan,Gintar,"2683+4J, Salumokanan Bar., Kec. Rantebulahan Tim., Kabupaten Mamasa, Sulawesi Barat","Kabupaten Mamasa, Sulawesi Barat",SULAWESI BARAT,,Indonesia,,,,-2.9845887,119.204629,https://maps.google.com/?cid=0x0:0x43b0e90525fb8826,
komplek housing,Komplek perumahan,Rumah Denis,"2686+MMH, Salubelak, Salumokanan Bar., Kec. Rantebulahan Tim., Kabupaten Mamasa, Sulawesi Barat","Kabupaten Mamasa, Sulawesi Barat",SULAWESI BARAT,,Indonesia,,,,-2.9833015,119.2117365,https://maps.google.com/?cid=0x0:0xc38bb4697ddbc73d,
komplek housing,komplek housing,House P.Caca,"266M+PJG, Salumokanan Utara, Kec. Rantebulahan Tim., Kabupaten Mamasa, Sulawesi Barat","Kabupaten Mamasa, Sulawesi Barat",SULAWESI BARAT,,Indonesia,,,,-2.988197,119.2340633,https://maps.google.com/?cid=0x0:0x112ff8f526900cc,
komplek housing,Komplek perumahan,Rumah Hendra,"2683+4J, Salumokanan Bar., Kec. Rantebulahan Tim., Kabupaten Mamasa, Sulawesi Barat","Kabupaten Mamasa, Sulawesi Barat",SULAWESI BARAT,,Indonesia,,,,-2.9847129,119.2040788,https://maps.google.com/?cid=0x0:0xd905826012b1ac0f,
komplek housing,Komplek perumahan,Rumahnya Kristanto,"25HX+433, Bambang Buda, Kec. Rantebulahan Tim., Kabupaten Mamasa, Sulawesi Barat","Kabupaten Mamasa, Sulawesi Barat",SULAWESI BARAT,,Indonesia,,,,-2.9722265,119.1976681,https://maps.google.com/?cid=0x0:0xd238a519ac402224,
komplek housing,Komplek perumahan,RUMAH OIS ERIANTO,"2627+RJF, Kirak, Kec. Rantebulahan Tim., Kabupaten Mamasa, Sulawesi Barat","Kabupaten Mamasa, Sulawesi Barat",SULAWESI BARAT,,Indonesia,,,,-2.9987301,119.2133157,https://maps.google.com/?cid=0x0:0x304a0fb58aecf10a,
komplek housing,Pembangunan Perumahan,Hesthy,"266M+26Q, Salumokanan, Kec. Rantebulahan Tim., Kabupaten Mamasa, Sulawesi Barat 91366","Salumokanan, Kec. Rantebulahan Tim., Kabupaten Mamasa",SULAWESI BARAT,91366.0,Indonesia,,,,-2.9899125,119.2331094,https://maps.google.com/?cid=0x0:0xe770dc81b56cfa04,
komplek housing,Komplek perumahan,Rumah P. Eden,"25HW+53G, Jl. Poros Mamasa, Bambang Buda, Kec. Rantebulahan Tim., Kabupaten Mamasa, Sulawesi Barat 91371","Jl. Poros Mamasa, Bambang Buda, Kec. Rantebulahan Tim., Kabupaten Mamasa",SULAWESI BARAT,91371.0,Indonesia,,,,-2.9721867,119.1920511,https://maps.google.com/?cid=0x0:0x2efa5f0c276a4367,
komplek housing,Komplek perumahan,Rumah Erwn,"26W4+W9V, Dusun Rembak Desa Bambang, BudaKec, Kec. Rantebulahan Tim., Kabupaten Mamasa, Sulawesi Barat 91371","Dusun Rembak Desa Bambang, BudaKec, Kec. Rantebulahan Tim., Kabupaten Mamasa",SULAWESI BARAT,91371.0,Indonesia,,,,-2.952629,119.205924,https://maps.google.com/?cid=0x0:0x5fcb2879fed3d67,
komplek housing,Komplek perumahan,Rumah Rhizky Tenson,"26P6+VH5, Salubulo, Kec. Bambang, Kabupaten Mamasa, Sulawesi Barat 91371","Salubulo, Kec. Bambang, Kabupaten Mamasa",SULAWESI BARAT,91371.0,Indonesia,,,,-2.9628599,119.2114979,https://maps.google.com/?cid=0x0:0x68f022f4b0820418,
komplek housing,Komplek perumahan,Yeltin'House,"25GQ+R6F, Bambang Buda, Kec. Rantebulahan Tim., Kabupaten Mamasa, Sulawesi Barat 91371","Bambang Buda, Kec. Rantebulahan Tim., Kabupaten Mamasa",SULAWESI BARAT,91371.0,Indonesia,,,,-2.9729288,119.18805,https://maps.google.com/?cid=0x0:0xcfd9ab62d9b254fc,
komplek housing,Komplek perumahan,Dusun rantekanei,"26W2+X46, Bambang, Kec. Bambang, Kabupaten Mamasa, Sulawesi Barat 91371","Bambang, Kec. Bambang, Kabupaten Mamasa",SULAWESI BARAT,91371.0,Indonesia,,,,-2.9525806,119.2002631,https://maps.google.com/?cid=0x0:0xfd63f9d506ff9936,
komplek housing,Komplek perumahan,Penginapan aprin,"25GW+XF6, Bambang Buda, Kec. Rantebulahan Tim., Kabupaten Mamasa, Sulawesi Barat 91371","Bambang Buda, Kec. Rantebulahan Tim., Kabupaten Mamasa",SULAWESI BARAT,91371.0,Indonesia,,,,-2.97254,119.1961455,https://maps.google.com/?cid=0x0:0xab95257339aca43b,
komplek housing,Komplek perumahan,Vin's House,"25HQ+24H, Dusun Remba, Bambang Buda, Kecamatan Rentebulahan Timur, Kabupaten Mamasa, Sulawesi Barat 91371","Dusun Remba, Bambang Buda, Kecamatan Rentebulahan Timur, Kabupaten Mamasa",SULAWESI BARAT,91371.0,Indonesia,,,,-2.972447,119.1878464,https://maps.google.com/?cid=0x0:0x66cbf25759c4df95,
komplek housing,Komplek perumahan,Rumah Misti,"26P6+QF9, Salubulo, Kec. Bambang, Kabupaten Mamasa, Sulawesi Barat 91371","Salubulo, Kec. Bambang, Kabupaten Mamasa",SULAWESI BARAT,91371.0,Indonesia,,,,-2.9630939,119.2112346,https://maps.google.com/?cid=0x0:0x2bc7673a05c1b43a,
komplek housing,komplek housing,Sulawesi Barat 91363,"Kabupaten Mamasa, Sulawesi Barat","Kabupaten Mamasa, Sulawesi Barat",SULAWESI BARAT,,Indonesia,,,,-3.1007066,119.4875668,https://maps.google.com/?cid=0x0:0x2729e55714d41779,
komplek housing,komplek housing,Sulawesi Barat,,Sulawesi Barat,SULAWESI BARAT,,Indonesia,,,,-2.8441371,119.2320784,https://maps.google.com/?cid=0x0:0xea5cbf202f3370f2,
komplek housing,Kantor Perusahaan,SEKRETARIAT P3MD KEC. PANA,"WHV6+54J, Pana, Kec. Pana, Kabupaten Mamasa, Sulawesi Barat 91363","Pana, Kec. Pana, Kabupaten Mamasa",SULAWESI BARAT,91363.0,Indonesia,,,,-3.0570387,119.5602749,https://maps.google.com/?cid=0x0:0x29892c53797a13c3,
komplek housing,Perumahan,Perumahan,"WHVJ+MJ4, Karaka, Kec. Pana, Kabupaten Mamasa, Sulawesi Barat 91363","Karaka, Kec. Pana, Kabupaten Mamasa",SULAWESI BARAT,91363.0,Indonesia,,,,-3.055971,119.581553,https://maps.google.com/?cid=0x0:0x7a01633ea7f71d12,
komplek housing,Komplek perumahan,Urio,"WHQ3+992, Pana, Kec. Pana, Kabupaten Mamasa, Sulawesi Barat 91363","Pana, Kec. Pana, Kabupaten Mamasa",SULAWESI BARAT,91363.0,Indonesia,,,,-3.061602,119.5533807,https://maps.google.com/?cid=0x0:0x37251bbeb999d744,
komplek housing,komplek housing,Am. Otto,"WGPX+FG5, Panura, Kec. Pana, Kabupaten Mamasa, Sulawesi Barat 91363","Panura, Kec. Pana, Kabupaten Mamasa",SULAWESI BARAT,91363.0,Indonesia,,,,-3.0638594,119.548857,https://maps.google.com/?cid=0x0:0x9e238d5b3e14023d,
komplek housing,Komplek perumahan,Kondo/Tokka',"WGVQ+55H, Salutambun, Kec. Pana, Kabupaten Mamasa, Sulawesi Barat 91363","Salutambun, Kec. Pana, Kabupaten Mamasa",SULAWESI BARAT,91363.0,Indonesia,,,,-3.057061,119.5379693,https://maps.google.com/?cid=0x0:0x85761ac7085d05dd,
komplek housing,Pembangunan Perumahan,Batupapan,"WHJ6+RWH, Pana, Kec. Pana, Kabupaten Mamasa, Sulawesi Barat 91363","Pana, Kec. Pana, Kabupaten Mamasa",SULAWESI BARAT,91363.0,Indonesia,,,,-3.0679429,119.5623581,https://maps.google.com/?cid=0x0:0xadfd01c9501659b2,
komplek housing,Komplek perumahan,Gavri Glenda,"WHWJ+782, Karaka, Kec. Pana, Kabupaten Mamasa, Sulawesi Barat 91363","Karaka, Kec. Pana, Kabupaten Mamasa",SULAWESI BARAT,91363.0,Indonesia,,,,-3.0543708,119.5807551,https://maps.google.com/?cid=0x0:0x575e59d7389808aa,
komplek housing,Pembangunan Perumahan,Tokbaranak,"XG3V+8P9, Salutambun, Kec. Pana, Kabupaten Mamasa, Sulawesi Barat 91363","Salutambun, Kec. Pana, Kabupaten Mamasa",SULAWESI BARAT,91363.0,Indonesia,,,,-3.0457943,119.5444813,https://maps.google.com/?cid=0x0:0x7875eed5ada4abb4,
komplek housing,Komplek perumahan,Rumah agus tina ku'pan,"WH6G+P3V, Tallang Bulawan, Kec. Pana, Kabupaten Mamasa, Sulawesi Barat 91363","Tallang Bulawan, Kec. Pana, Kabupaten Mamasa",SULAWESI BARAT,91363.0,Indonesia,,,,-3.0881329,119.5751641,https://maps.google.com/?cid=0x0:0x69fc1f2f7ba1293f,
komplek housing,Komplek perumahan,Andreas wijaya,"WHCQ+47Q, Mamullu, Kec. Pana, Kabupaten Mamasa, Sulawesi Barat 91363","Mamullu, Kec. Pana, Kabupaten Mamasa",SULAWESI BARAT,91363.0,Indonesia,,,,-3.0796582,119.5882383,https://maps.google.com/?cid=0x0:0x6ce7aa0977004ecb,
komplek housing,Komplek perumahan,Tallang bulawan,"WH8C+WM7, Tallang Bulawan, Kec. Pana, Kabupaten Mamasa, Sulawesi Barat 91363","Tallang Bulawan, Kec. Pana, Kabupaten Mamasa",SULAWESI BARAT,91363.0,Indonesia,,,,-3.0827205,119.5716636,https://maps.google.com/?cid=0x0:0x9cfaeb293344bfbe,
komplek housing,Komplek perumahan,TONDOK WIRING,"XH44+8WP, Unnamed Road, Weri, Kec. Pana, Kabupaten Mamasa, Sulawesi Barat 91363","Unnamed Road, Weri, Kec. Pana, Kabupaten Mamasa",SULAWESI BARAT,91363.0,Indonesia,,,,-3.0441536,119.5573138,https://maps.google.com/?cid=0x0:0xdc313d92e469a49d,
komplek housing,Otoritas Perumahan,Perumahan Pesona Parung Asri,"HPM7+R85 Perumahan Pesona Parung Asri, Jl. Gamang, RT.05/RW.04, Waru, Kec. Parung, Kabupaten Bogor, Jawa Barat 16330","Jl. Gamang, RT.05/RW.04, Waru, Kec. Parung, Kabupaten Bogor",SULAWESI BARAT,16330.0,Indonesia,,,,-6.4165778,106.7117354,https://maps.google.com/?cid=0x0:0xe1fe4a82184deeaf,
komplek housing,Otoritas Perumahan,Cluster Adel,"MP7F+8HH, Benda Baru, Kec. Pamulang, Kota Tangerang Selatan, Banten 15415","Benda Baru, Kec. Pamulang, Kota Tangerang Selatan",SULAWESI BARAT,15415.0,Indonesia,,,,-6.3366836,106.7239976,https://maps.google.com/?cid=0x0:0x86ca11fdf8a6235d,
komplek housing,Pembangunan Perumahan,Perumahan Pondok Ungu Permai,"Jl. Raya Pd. Ungu Permai Melati 4 No.4 Blok B8, RT.002/RW.008, Kaliabang Tengah, Kec. Bekasi Utara, Kota Bks, Jawa Barat 17125","RT.002/RW.008, Kaliabang Tengah, Kec. Bekasi Utara, Kota Bks",SULAWESI BARAT,17125.0,Indonesia,,,,-6.1764808,107.0012361,https://maps.google.com/?cid=0x0:0x19c96507d85ecc28,
komplek housing,komplek housing,Komplek Housing,"Blok Bojong Nangka I, Jl. Ring Rudal Blok Bojong Nangka I No.68, RT.001/RW.007, Jatirahayu, Kec. Pd. Melati, Kota Bks, Jawa Barat 17414","Jl. Ring Rudal Blok Bojong Nangka I No.68, RT.001/RW.007, Jatirahayu, Kec. Pd. Melati, Kota Bks",SULAWESI BARAT,17414.0,Indonesia,,,,-6.293724,106.9165114,https://maps.google.com/?cid=0x0:0x9c50464976dee674,
komplek housing,komplek housing,Sulawesi Barat 91365,"Kec. Tawalian, Kabupaten Mamasa, Sulawesi Barat","Kabupaten Mamasa, Sulawesi Barat",SULAWESI BARAT,,Indonesia,,,,-2.9977707,119.3947135,https://maps.google.com/?cid=0x0:0x1001a1cc134123a0,
komplek housing,Perhimpunan Pengembang Perumahan,Rumah Della,"2C4C+44M, Orobua Tim., Kec. Sesenapadang, Kabupaten Mamasa, Sulawesi Barat 91365","Orobua Tim., Kec. Sesenapadang, Kabupaten Mamasa",SULAWESI BARAT,91365.0,Indonesia,,,,-2.9948696,119.4203812,https://maps.google.com/?cid=0x0:0x840f6fed5c77e65d,
komplek housing,,Pambe Desa Rantepuang sesenapadang mamasa,"2972+325, Rante Puang, Kec. Sesenapadang, Kabupaten Mamasa, Sulawesi Barat 91365","Rante Puang, Kec. Sesenapadang, Kabupaten Mamasa",SULAWESI BARAT,91365.0,Indonesia,,,,-2.987361,119.3501154,https://maps.google.com/?cid=0x0:0xc0bffbdc58b68cf9,
komplek housing,komplek housing,Rumah Rara‚Äô,"X8PR+8F, Bambapuang, Kec. Balla, Kabupaten Mamasa, Sulawesi Barat 91366","Bambapuang, Kec. Balla, Kabupaten Mamasa",SULAWESI BARAT,91366.0,Indonesia,,,,-3.0148815,119.3422123,https://maps.google.com/?cid=0x0:0xda49b72969bbc889,
komplek housing,Komplek perumahan,RANTEKIRA',"296Q+F4, Paladan, Kec. Sesenapadang, Kabupaten Mamasa, Sulawesi Barat 91365","Paladan, Kec. Sesenapadang, Kabupaten Mamasa",SULAWESI BARAT,91365.0,Indonesia,,,,-2.9896158,119.3879429,https://maps.google.com/?cid=0x0:0x217fbcfa77f12677,
komplek housing,Komplek perumahan,Mr. David,"X9XW+VC4, Satenetean, Kec. Sesenapadang, Kabupaten Mamasa, Sulawesi Barat 91365","Satenetean, Kec. Sesenapadang, Kabupaten Mamasa",SULAWESI BARAT,91365.0,Indonesia,,,,-3.0008937,119.3964593,https://maps.google.com/?cid=0x0:0x20662c192c0a28ee,
komplek housing,Komplek perumahan,Kakek sandy,"X9XW+VC4, Satenetean, Kec. Sesenapadang, Kabupaten Mamasa, Sulawesi Barat 91365","Satenetean, Kec. Sesenapadang, Kabupaten Mamasa",SULAWESI BARAT,91365.0,Indonesia,,,,-3.001196,119.3960874,https://maps.google.com/?cid=0x0:0x7c33f91835ad0691,
komplek housing,Komplek perumahan,Rumah riel,"X9XX+23, Orobua Sel., Kec. Sesenapadang, Kabupaten Mamasa, Sulawesi Barat","Kabupaten Mamasa, Sulawesi Barat",SULAWESI BARAT,,Indonesia,,,,-3.0025116,119.3976468,https://maps.google.com/?cid=0x0:0x2d5d81a9e15ad37a,
komplek housing,Komplek perumahan,Rumah Papa' Enji,"293M+XP7, Dusun, Paladan, Kec. Sesenapadang, Kabupaten Mamasa, Sulawesi Barat 91365","Dusun, Paladan, Kec. Sesenapadang, Kabupaten Mamasa",SULAWESI BARAT,91365.0,Indonesia,,,,-2.9950875,119.3842969,https://maps.google.com/?cid=0x0:0xff3c782d1f1fe8d6,
komplek housing,Komplek perumahan,Lorong Batu Moni,"398H+9VP, Tondok Bakaru, Kec. Sesenapadang, Kabupaten Mamasa, Sulawesi Barat 91365","Tondok Bakaru, Kec. Sesenapadang, Kabupaten Mamasa",SULAWESI BARAT,91365.0,Indonesia,,,,-2.9340273,119.379717,https://maps.google.com/?cid=0x0:0xf17b8c7cdd65436a,
komplek housing,komplek housing,Tio dan Lestari,"X9X8+242, Rante Puang, Kec. Sesenapadang, Kabupaten Mamasa, Sulawesi Barat 91365","Rante Puang, Kec. Sesenapadang, Kabupaten Mamasa",SULAWESI BARAT,91365.0,Indonesia,,,,-3.0024777,119.3652578,https://maps.google.com/?cid=0x0:0xda39ef4ee55998a2,
komplek housing,,Rumah Limbong,"X9WW+P6, Satenetean, Kec. Sesenapadang, Kabupaten Mamasa, Sulawesi Barat","Kabupaten Mamasa, Sulawesi Barat",SULAWESI BARAT,,Indonesia,,,,-3.0031239,119.3955228,https://maps.google.com/?cid=0x0:0x1d8de03e20489c0f,
komplek housing,Komplek perumahan,Indo' Langi,"292Q+5FM, Paladan, Kec. Sesenapadang, Kabupaten Mamasa, Sulawesi Barat 91365","Paladan, Kec. Sesenapadang, Kabupaten Mamasa",SULAWESI BARAT,91365.0,Indonesia,,,,-2.99953,119.3886777,https://maps.google.com/?cid=0x0:0xe11849512d1ecb1e,
komplek housing,Komplek perumahan,Tondok Bakaru Bamba minanga,"2C2J+85X, Orobua Tim., Kec. Sesenapadang, Kabupaten Mamasa, Sulawesi Barat 91365","Orobua Tim., Kec. Sesenapadang, Kabupaten Mamasa",SULAWESI BARAT,91365.0,Indonesia,,,,-2.9991289,119.4304888,https://maps.google.com/?cid=0x0:0xbb017cbd4de6b940,
komplek housing,Komplek perumahan,P.Trilan,"2C9H+8X2, Lisuan Ada, Kec. Sesenapadang, Kabupaten Mamasa, Sulawesi Barat","Kabupaten Mamasa, Sulawesi Barat",SULAWESI BARAT,,Indonesia,,,,-2.9817407,119.4298964,https://maps.google.com/?cid=0x0:0xf4b265a5ad1562f,
komplek housing,Komplek perumahan,Ambe' Dessi,"292Q+8WQ, Paladan, Kec. Sesenapadang, Kabupaten Mamasa, Sulawesi Barat 91365","Paladan, Kec. Sesenapadang, Kabupaten Mamasa",SULAWESI BARAT,91365.0,Indonesia,,,,-2.99916,119.3898449,https://maps.google.com/?cid=0x0:0x9a73e72e1bad981a,
komplek housing,Pembangunan Perumahan,Lokasi tanpa nama,"396H+M2C, Bunta Buda, Kec. Mamasa, Kabupaten Mamasa, Sulawesi Barat","Kabupaten Mamasa, Sulawesi Barat",SULAWESI BARAT,,Indonesia,,,,-2.9383157,119.3775162,https://maps.google.com/?cid=0x0:0xbc0e2bbb6b0089d7,
komplek housing,Komplek perumahan,Rumah Sri,"Pebatuan No.1, Pebatuan No.1, Orobua, Kec. Sesenapadang, Kabupaten Mamasa, Sulawesi Barat 91365","Pebatuan No.1, Orobua, Kec. Sesenapadang, Kabupaten Mamasa",SULAWESI BARAT,91365.0,Indonesia,,,,-2.9977434,119.3998459,https://maps.google.com/?cid=0x0:0x5b0c49fab72e9c17,
komplek housing,Pembangunan Perumahan,Tumonga,"292V+VVW, 2C4C+44MOrobua Tim, Kec. Sesenapadang, Kabupaten Mamasa, Sulawesi Barat 91365","2C4C+44MOrobua Tim, Kec. Sesenapadang, Kabupaten Mamasa",SULAWESI BARAT,91365.0,Indonesia,,,,-2.9977707,119.3947135,https://maps.google.com/?cid=0x0:0xccf870fb0da7ba4f,
komplek housing,Pembangunan Perumahan,Tumonga,"2C4C+44M, Orobua Tim., Kec. Sesenapadang, Kabupaten Mamasa, Sulawesi Barat 91365","Orobua Tim., Kec. Sesenapadang, Kabupaten Mamasa",SULAWESI BARAT,91365.0,Indonesia,,,,-2.9948077,119.4205395,https://maps.google.com/?cid=0x0:0xf61ccefb6d82e88a,
komplek housing,komplek housing,Kec. Sesenapadang,"Kabupaten Mamasa, Sulawesi Barat","Kabupaten Mamasa, Sulawesi Barat",SULAWESI BARAT,,Indonesia,,,,-2.9898047,119.4011436,https://maps.google.com/?cid=0x0:0x848e678390dadde6,
komplek housing,Pembangunan Perumahan,Pussak,"2C4C+44M, Orobua Tim., Kec. Sesenapadang, Kabupaten Mamasa, Sulawesi Barat 91365","Orobua Tim., Kec. Sesenapadang, Kabupaten Mamasa",SULAWESI BARAT,91365.0,Indonesia,,,,-2.9948469,119.4203598,https://maps.google.com/?cid=0x0:0x142bc7724db4c2dc,
komplek housing,Komplek perumahan,Salceliani,"294M+74H, Paladan, Kec. Sesenapadang, Kabupaten Mamasa, Sulawesi Barat 91365","Paladan, Kec. Sesenapadang, Kabupaten Mamasa",SULAWESI BARAT,91365.0,Indonesia,,,,-2.9943438,119.3829099,https://maps.google.com/?cid=0x0:0x58dfdc9067014467,
komplek housing,Komplek perumahan,Rumah Azelkeen,"X9XX+PGV, Satenetean, Kec. Sesenapadang, Kabupaten Mamasa, Sulawesi Barat 91365","Satenetean, Kec. Sesenapadang, Kabupaten Mamasa",SULAWESI BARAT,91365.0,Indonesia,,,,-3.0006396,119.3987864,https://maps.google.com/?cid=0x0:0x45b80dd543168f,
komplek housing,Komplek perumahan,Alferos Buntubarana',"294M+QX5, Jalan poros, Paladan, Kec. Sesenapadang, Kabupaten Mamasa, Sulawesi Barat 91365","Jalan poros, Paladan, Kec. Sesenapadang, Kabupaten Mamasa",SULAWESI BARAT,91365.0,Indonesia,,,,-2.9928728,119.385073,https://maps.google.com/?cid=0x0:0xe9b9ad9bdabe2f68,
komplek housing,Komplek perumahan,Pondok Ain,"292J+FG, Paladan, Kec. Sesenapadang, Kabupaten Mamasa, Sulawesi Barat 91365","Paladan, Kec. Sesenapadang, Kabupaten Mamasa",SULAWESI BARAT,91365.0,Indonesia,,,,-2.9987338,119.3824749,https://maps.google.com/?cid=0x0:0x9793fe5ce3bb8d22,
komplek housing,Kantor Pemerintah,Rumah Sekretaris Desa Orobua Selatan,"XCV4+V9V, Orobua Sel., Kec. Sesenapadang, Kabupaten Mamasa, Sulawesi Barat 91365","Orobua Sel., Kec. Sesenapadang, Kabupaten Mamasa",SULAWESI BARAT,91365.0,Indonesia,,,,-3.0055614,119.4066549,https://maps.google.com/?cid=0x0:0xc96b630bde4963d6,
komplek housing,Komplek perumahan,Banua Sura' KASARAPUAN RAPA' LANGI' - LEMPAN SARATU',"2C4C+44M, Orobua Tim., Kec. Sesenapadang, Kabupaten Mamasa, Sulawesi Barat 91365","Orobua Tim., Kec. Sesenapadang, Kabupaten Mamasa",SULAWESI BARAT,91365.0,Indonesia,,,,-2.9953193,119.4191323,https://maps.google.com/?cid=0x0:0x94a3c9bd1d051e71,
komplek housing,Komplek perumahan,Tambun,"29GJ+666, Tawalian, Kec. Tawalian, Kabupaten Mamasa, Sulawesi Barat 91365","Tawalian, Kec. Tawalian, Kabupaten Mamasa",SULAWESI BARAT,91365.0,Indonesia,,,,-2.9744556,119.3805186,https://maps.google.com/?cid=0x0:0x67bd9dc32df27981,
komplek housing,komplek housing,Sumarorong,"Kec. Sumarorong, Kabupaten Mamasa, Sulawesi Barat","Kabupaten Mamasa, Sulawesi Barat",SULAWESI BARAT,,Indonesia,,,,-3.1425034,119.3119662,https://maps.google.com/?cid=0x0:0x608e5b737a1566a8,
komplek housing,komplek housing,Rumah Cio,"V847+C38, Sumarorong, Kec. Sumarorong, Kabupaten Mamasa, Sulawesi Barat 91361","Sumarorong, Kec. Sumarorong, Kabupaten Mamasa",SULAWESI BARAT,91361.0,Indonesia,,,,-3.1439644,119.3127018,https://maps.google.com/?cid=0x0:0x61e402a8719fc1a5,
komplek housing,Komplek perumahan,Rumah Nataniel,"V846+MC9, Sumarorong, Kec. Sumarorong, Kabupaten Mamasa, Sulawesi Barat 91361","Sumarorong, Kec. Sumarorong, Kabupaten Mamasa",SULAWESI BARAT,91361.0,Indonesia,,,,-3.1431886,119.3110004,https://maps.google.com/?cid=0x0:0x67d4c50d5d518ae3,
komplek housing,Komplek perumahan,Minanga,"R8X7+4V, Tadisi, Kec. Sumarorong, Kabupaten Mamasa, Sulawesi Barat 91361","Tadisi, Kec. Sumarorong, Kabupaten Mamasa",SULAWESI BARAT,91361.0,Indonesia,,,,-3.1521973,119.3147357,https://maps.google.com/?cid=0x0:0xc2d3f51525f4682d,
komplek housing,Komplek perumahan,Rumah Ander,"V838+37H, Sumarorong, Kec. Sumarorong, Kabupaten Mamasa, Sulawesi Barat 91361","Sumarorong, Kec. Sumarorong, Kabupaten Mamasa",SULAWESI BARAT,91361.0,Indonesia,,,,-3.1473193,119.3157472,https://maps.google.com/?cid=0x0:0x4b7e1761b97634ff,
komplek housing,Komplek perumahan,Rumah Sahabuddin dan Mulyati,"V856+F3C, Sumarorong, Kec. Sumarorong, Kabupaten Mamasa, Sulawesi Barat 91361","Sumarorong, Kec. Sumarorong, Kabupaten Mamasa",SULAWESI BARAT,91361.0,Indonesia,,,,-3.1413071,119.3101487,https://maps.google.com/?cid=0x0:0xe14aac7e7f37d330,
komplek housing,komplek housing,Kec. Sumarorong,"Kabupaten Mamasa, Sulawesi Barat","Kabupaten Mamasa, Sulawesi Barat",SULAWESI BARAT,,Indonesia,,,,-3.1428922,119.3114526,https://maps.google.com/?cid=0x0:0x6277070ff4702f45,
komplek housing,Komplek perumahan,Rumah Rahel (Gerald),"R83H+F97, Sibanawa, Kec. Sumarorong, Kabupaten Mamasa, Sulawesi Barat 91361","Sibanawa, Kec. Sumarorong, Kabupaten Mamasa",SULAWESI BARAT,91361.0,Indonesia,,,,-3.1963409,119.3284307,https://maps.google.com/?cid=0x0:0x24b2cd88027e4b75,
komplek housing,Komplek perumahan,Rumah Askar,"R8R4+C9Q, Sasakan, Kec. Sumarorong, Kabupaten Mamasa, Sulawesi Barat 91361","Sasakan, Kec. Sumarorong, Kabupaten Mamasa",SULAWESI BARAT,91361.0,Indonesia,,,,-3.1589612,119.3061845,https://maps.google.com/?cid=0x0:0x847aec86127c71fd,
komplek housing,Komplek perumahan,M kristi,"R8V4+R5C, Sasakan, Kec. Sumarorong, Kabupaten Mamasa, Sulawesi Barat 91361","Sasakan, Kec. Sumarorong, Kabupaten Mamasa",SULAWESI BARAT,91361.0,Indonesia,,,,-3.1547147,119.3048528,https://maps.google.com/?cid=0x0:0x7edcc9c6f51b2143,
komplek housing,Perhimpunan Pengembang Perumahan,Tondok Bakaru Batanguru,"R9HJ+968, Unnamed Road, Batangnguru Timur, Kec. Sumarorong, Kabupaten Mamasa, Sulawesi Barat 91361","Unnamed Road, Batangnguru Timur, Kec. Sumarorong, Kabupaten Mamasa",SULAWESI BARAT,91361.0,Indonesia,,,,-3.171596,119.38058,https://maps.google.com/?cid=0x0:0x6c994591d12cbd25,
komplek housing,Komplek perumahan,Indok Makkuk House,"Jl. Poros Polewali Mamasa, Tadisi, Kec. Sumarorong, Kabupaten Mamasa, Sulawesi Barat 91361","Tadisi, Kec. Sumarorong, Kabupaten Mamasa",SULAWESI BARAT,91361.0,Indonesia,,,,-3.1534151,119.3189796,https://maps.google.com/?cid=0x0:0xc2f52774efd9b4a1,
komplek housing,Komplek perumahan,P.kiano,"V855+7Q9, Sumarorong, Kec. Sumarorong, Kabupaten Mamasa, Sulawesi Barat 91361","Sumarorong, Kec. Sumarorong, Kabupaten Mamasa",SULAWESI BARAT,91361.0,Indonesia,,,,-3.1418308,119.3094927,https://maps.google.com/?cid=0x0:0x915c2068376c9b64,
komplek housing,Komplek perumahan,Rumah Andi Waris,"V828+J88, Jl. Poros Polewali Mamasa, Sumarorong, Kec. Sumarorong, Kabupaten Mamasa, Sulawesi Barat 91361","Jl. Poros Polewali Mamasa, Sumarorong, Kec. Sumarorong, Kabupaten Mamasa",SULAWESI BARAT,91361.0,Indonesia,,,,-3.1484581,119.3158322,https://maps.google.com/?cid=0x0:0xb25e86eed3ed67f7,
komplek housing,komplek housing,SALUBASSI,"W728+HQ8, Dusun Salubassi, Salubalo, Kec. Sumarorong, Kabupaten Mamasa, Sulawesi Barat 91361","Dusun Salubassi, Salubalo, Kec. Sumarorong, Kabupaten Mamasa",SULAWESI BARAT,91361.0,Indonesia,,,,-3.098587,119.2669438,https://maps.google.com/?cid=0x0:0xaaf39a6afbae60ce,
komplek housing,Komplek perumahan,Barana' karua,"R8CQ+HHV, Tabone, Kec. Sumarorong, Kabupaten Mamasa, Sulawesi Barat 91361","Tabone, Kec. Sumarorong, Kabupaten Mamasa",SULAWESI BARAT,91361.0,Indonesia,,,,-3.1785061,119.3389148,https://maps.google.com/?cid=0x0:0x6199f79aa32688ca,
komplek housing,Komplek perumahan,Miramar,"R8X7+MXF, Tadisi, Kec. Sumarorong, Kabupaten Mamasa, Sulawesi Barat 91361","Tadisi, Kec. Sumarorong, Kabupaten Mamasa",SULAWESI BARAT,91361.0,Indonesia,,,,-3.1508682,119.313574,https://maps.google.com/?cid=0x0:0xafcefb1ec4952426,
komplek housing,Pembangunan Perumahan,Pondok Orange Pasir Putih,"Kompleks SMKN 1, Rante Kamase, Kec. Sumarorong, Kabupaten Mamasa, Sulawesi Barat 91361","Rante Kamase, Kec. Sumarorong, Kabupaten Mamasa",SULAWESI BARAT,91361.0,Indonesia,,,,-3.129003,119.3075335,https://maps.google.com/?cid=0x0:0x3d7ea5fb1c7e6059,
komplek housing,Pembangunan Perumahan,ALTIN,"R89M+P38, Tabone, Kec. Sumarorong, Kabupaten Mamasa, Sulawesi Barat 91361","Tabone, Kec. Sumarorong, Kabupaten Mamasa",SULAWESI BARAT,91361.0,Indonesia,,,,-3.1804012,119.3333526,https://maps.google.com/?cid=0x0:0x61af0b07dd8f4673,
komplek housing,Perhimpunan Pengembang Perumahan,LADPFIA,"R9X7+F7R, Banea, Kec. Sumarorong, Kabupaten Mamasa, Sulawesi Barat 91361","Banea, Kec. Sumarorong, Kabupaten Mamasa",SULAWESI BARAT,91361.0,Indonesia,,,,-3.1517236,119.3628438,https://maps.google.com/?cid=0x0:0xd212f92fd4050d37,
komplek housing,Komplek perumahan,Rumah patalla,"R8V4+274, Sasakan, Kec. Sumarorong, Kabupaten Mamasa, Sulawesi Barat 91361","Sasakan, Kec. Sumarorong, Kabupaten Mamasa",SULAWESI BARAT,91361.0,Indonesia,,,,-3.1579739,119.305426,https://maps.google.com/?cid=0x0:0x3b3abd3523e418d5,
komplek housing,komplek housing,Kec. Tabang,"Kabupaten Mamasa, Sulawesi Barat","Kabupaten Mamasa, Sulawesi Barat",SULAWESI BARAT,,Indonesia,,,,-2.944643,119.5225944,https://maps.google.com/?cid=0x0:0xc9eca8dd78b339b,
komplek housing,komplek housing,Tongkonan Balla sungkun,"H2G9+983, Jl. Poros Tikala, Salu, Kec. Tabang, Kabupaten Toraja Utara, Kalimantan Timur 75558","Jl. Poros Tikala, Salu, Kec. Tabang, Kabupaten Toraja Utara",SULAWESI BARAT,75558.0,Indonesia,,,,0.575877,116.018303,https://maps.google.com/?cid=0x0:0xd859018c4e8e0e72,
komplek housing,komplek housing,Sulawesi Barat 91364,"Kabupaten Mamasa, Sulawesi Barat","Kabupaten Mamasa, Sulawesi Barat",SULAWESI BARAT,,Indonesia,,,,-2.8896276,119.4875668,https://maps.google.com/?cid=0x0:0xf6520409649f68c6,
komplek housing,Pembangunan Perumahan,DUSUN TULLU,"XHV9+354, Tabang Bar., Kec. Tabang, Kabupaten Mamasa, Sulawesi Barat 91363","Tabang Bar., Kec. Tabang, Kabupaten Mamasa",SULAWESI BARAT,91363.0,Indonesia,,,,-3.0062959,119.5680405,https://maps.google.com/?cid=0x0:0x2a1c919ba3432d2e,
komplek housing,Komplek perumahan,Tandung,"2H53+GG4, Tabang Bar., Kec. Tabang, Kabupaten Mamasa, Sulawesi Barat","Kabupaten Mamasa, Sulawesi Barat",SULAWESI BARAT,,Indonesia,,,,-2.9905468,119.5534748,https://maps.google.com/?cid=0x0:0xf2a57d249e1ce658,
komplek housing,Kompleks Apartemen,Home Hendro Bongga Ma'dika,"2HH7+63, Tabang, Kec. Tabang, Kabupaten Mamasa, Sulawesi Barat 91856","Tabang, Kec. Tabang, Kabupaten Mamasa",SULAWESI BARAT,91856.0,Indonesia,,,,-2.9717094,119.5617303,https://maps.google.com/?cid=0x0:0xe23c17d0ff4d2b86,
komplek housing,Komplek perumahan,Rea,"XGXV+FP, Tabang Bar., Kec. Tabang, Kabupaten Mamasa, Sulawesi Barat","Kabupaten Mamasa, Sulawesi Barat",SULAWESI BARAT,,Indonesia,,,,-3.0013317,119.5443362,https://maps.google.com/?cid=0x0:0x25da4292ece9304a,
komplek housing,Komplek perumahan,Yesika's House,"2HH6+CXC, Tabang, Kec. Tabang, Kabupaten Mamasa, Sulawesi Barat","Kabupaten Mamasa, Sulawesi Barat",SULAWESI BARAT,,Indonesia,,,,-2.9714301,119.5624016,https://maps.google.com/?cid=0x0:0xe148bb0c52084b8,
komplek housing,Komplek perumahan,Home Hendrik,"2HJ9+4Q2, Tabang, Kec. Tabang, Kabupaten Mamasa, Sulawesi Barat 91856","Tabang, Kec. Tabang, Kabupaten Mamasa",SULAWESI BARAT,91856.0,Indonesia,,,,-2.9700048,119.5684975,https://maps.google.com/?cid=0x0:0xa2cc9887753ade9b,
komplek housing,Komplek perumahan,Home Yefta Triyansa,"2HJ9+VCR, Tabang, Kec. Tabang, Kabupaten Mamasa, Sulawesi Barat 91856","Tabang, Kec. Tabang, Kabupaten Mamasa",SULAWESI BARAT,91856.0,Indonesia,,,,-2.96879,119.5685931,https://maps.google.com/?cid=0x0:0xc32bdf6b6543c6c3,
komplek housing,Komplek perumahan,"Tandung, Mawa'","2G8W+56P, Mawa, Tabang Bar.","Kabupaten Mamasa, Sulawesi Barat",SULAWESI BARAT,,Indonesia,,,,-2.9845329,119.5455699,https://maps.google.com/?cid=0x0:0x7c65c06dd57e42f6,
komplek housing,Perhimpunan Pengembang Perumahan,Rumah Della,"2C4C+44M, Orobua Tim., Kec. Sesenapadang, Kabupaten Mamasa, Sulawesi Barat 91365","Orobua Tim., Kec. Sesenapadang, Kabupaten Mamasa",SULAWESI BARAT,91365.0,Indonesia,,,,-2.9948696,119.4203812,https://maps.google.com/?cid=0x0:0x840f6fed5c77e65d,
komplek housing,Komplek perumahan,Home mama rigen,"2HJ9+F4G, Jl. Nasional Provinsi Mamasa - Tabang - Tana Toraja, Tabang, Kec. Tabang, Kabupaten Mamasa, Sulawesi Barat 91856","Jl. Nasional Provinsi Mamasa - Tabang - Tana Toraja, Tabang, Kec. Tabang, Kabupaten Mamasa",SULAWESI BARAT,91856.0,Indonesia,,,,-2.9688034,119.5678387,https://maps.google.com/?cid=0x0:0xa86291a67c53061a,
komplek housing,komplek housing,Papa Wati Fam's,"2HH6+GV8, Tabang, Kec. Tabang, Kabupaten Mamasa, Sulawesi Barat","Kabupaten Mamasa, Sulawesi Barat",SULAWESI BARAT,,Indonesia,,,,-2.9712242,119.5622174,https://maps.google.com/?cid=0x0:0x743d13cdd3e325e2,
komplek housing,Penghasil Madu,Rumah Madu Trigona Solata,"3CJV+RPM, Jl. Nasional Provinsi Mamasa - Tabang - Tana Toraja, Mamasa, Kec. Mamasa, Kabupaten Mamasa, Sulawesi Barat","Kabupaten Mamasa, Sulawesi Barat",SULAWESI BARAT,,Indonesia,,,,-2.9179214,119.4443042,https://maps.google.com/?cid=0x0:0xbd8272c08b26287e,
komplek housing,Perhimpunan Pengembang Perumahan,Masuppu Home,"XHJC+HQC, Masupu, Kec. Tabang, Kabupaten Mamasa, Sulawesi Barat","Kabupaten Mamasa, Sulawesi Barat",SULAWESI BARAT,,Indonesia,,,,-3.0185665,119.5718868,https://maps.google.com/?cid=0x0:0x262c68a908e88da2,
komplek housing,Komplek perumahan,Rumah Alm. Mama Sidi/Papa Sidi,"2HJC+89X, Tabang, Kec. Tabang, Kabupaten Mamasa, Sulawesi Barat 91856","Tabang, Kec. Tabang, Kabupaten Mamasa",SULAWESI BARAT,91856.0,Indonesia,,,,-2.9690785,119.5709395,https://maps.google.com/?cid=0x0:0x9a8e6c7a649fdfc0,
komplek housing,komplek housing,"Tuppang, Kecamatan Pana,Kabupaten Mamasa,Sulawesi Barat","XH4M+W88, Tuppang, Karaka, Kec. Pana, Kabupaten Mamasa, Sulawesi Barat","Kabupaten Mamasa, Sulawesi Barat",SULAWESI BARAT,,Indonesia,,,,-3.0427018,119.5833416,https://maps.google.com/?cid=0x0:0x1dc68cace3460f29,
komplek housing,Komplek perumahan,Rumah KLBR mms,"3FF2+V6, Lambanan, Kec. Mamasa, Kabupaten Mamasa, Sulawesi Barat","Kabupaten Mamasa, Sulawesi Barat",SULAWESI BARAT,,Indonesia,,,,-2.9253187,119.4505138,https://maps.google.com/?cid=0x0:0x5358fbbd4bda39b0,
komplek housing,Komplek perumahan,Andry,"2CGW+8Q4, Lisuan Ada, Kec. Sesenapadang, Kabupaten Mamasa, Sulawesi Barat","Kabupaten Mamasa, Sulawesi Barat",SULAWESI BARAT,,Indonesia,,,,-2.9742422,119.4469508,https://maps.google.com/?cid=0x0:0xae750444c93df1ed,
komplek housing,Komplek perumahan,Gavri Glenda,"WHWJ+782, Karaka, Kec. Pana, Kabupaten Mamasa, Sulawesi Barat 91363","Karaka, Kec. Pana, Kabupaten Mamasa",SULAWESI BARAT,91363.0,Indonesia,,,,-3.0543708,119.5807551,https://maps.google.com/?cid=0x0:0x575e59d7389808aa,
komplek housing,Komplek perumahan,Rumah Ebit,"2C7J+Q2, Lisuan Ada, Kec. Sesenapadang, Kabupaten Mamasa, Sulawesi Barat","Kabupaten Mamasa, Sulawesi Barat",SULAWESI BARAT,,Indonesia,,,,-2.9855925,119.4300338,https://maps.google.com/?cid=0x0:0x6c0194ac9df26d42,
komplek housing,komplek housing,NE' Rulish Dm,"3G4F+42F, Bakadisura, Kec. Tabang, Kabupaten Mamasa, Sulawesi Barat 91364","Bakadisura, Kec. Tabang, Kabupaten Mamasa",SULAWESI BARAT,91364.0,Indonesia,,,,-2.9446841,119.5225618,https://maps.google.com/?cid=0x0:0xfc208b0e60268dd3,
komplek housing,komplek housing,Tabang,"Sidomulyo, Kec. Tabang, Kabupaten Kutai Kartanegara, Kalimantan Timur","Kabupaten Kutai Kartanegara, Kalimantan Timur",SULAWESI BARAT,,Indonesia,,,,0.575877,116.018303,https://maps.google.com/?cid=0x0:0x5fabf113a1ca660e,
komplek housing,komplek housing,Kec. Tebet,"Kota Jakarta Selatan, Daerah Khusus Ibukota Jakarta","Kota Jakarta Selatan, Daerah Khusus Ibukota Jakarta",SULAWESI BARAT,,Indonesia,,,,-6.2251223,106.8549881,https://maps.google.com/?cid=0x0:0xd575e31c807295f9,
komplek housing,komplek housing,Sulawesi Barat 91372,"Kec. Tabulahan, Kabupaten Mamasa, Sulawesi Barat","Kabupaten Mamasa, Sulawesi Barat",SULAWESI BARAT,,Indonesia,,,,-2.7545158,119.3018011,https://maps.google.com/?cid=0x0:0x3030ccb9de83baae,
komplek housing,Tujuan Wisata,Kampung Tabulahan,"66WP+6GJ, Tabulahan, Kec. Tabulahan, Kabupaten Mamasa, Sulawesi Barat","Kabupaten Mamasa, Sulawesi Barat",SULAWESI BARAT,,Indonesia,,,,-2.7544088,119.2362679,https://maps.google.com/?cid=0x0:0xffebef26990ccfed,
komplek housing,komplek housing,"Jln poros lakahang ,kec tabulahan","85HQ+37X, Jl. Poros Lakahang, Lakahang, Kec. Tabulahan, Kabupaten Mamasa, Sulawesi Barat 91562","Jl. Poros Lakahang, Lakahang, Kec. Tabulahan, Kabupaten Mamasa",SULAWESI BARAT,91562.0,Indonesia,,,,-2.6722656,119.1882202,https://maps.google.com/?cid=0x0:0x240558954529a218,
komplek housing,Komplek perumahan,Rumah Hans Alventolt,"855J+VPV, Jl. Poros Lakahang, Lakahang, Kec. Tabulahan, Kabupaten Mamasa, Sulawesi Barat 91372","Jl. Poros Lakahang, Lakahang, Kec. Tabulahan, Kabupaten Mamasa",SULAWESI BARAT,91372.0,Indonesia,,,,-2.6902609,119.1817882,https://maps.google.com/?cid=0x0:0x7204afce3eb5ce1b,
komplek housing,Komplek perumahan,DELLU,"856M+23F, Lakahang, Kec. Tabulahan, Kabupaten Mamasa, Sulawesi Barat","Kabupaten Mamasa, Sulawesi Barat",SULAWESI BARAT,,Indonesia,,,,-2.6899297,119.1826803,https://maps.google.com/?cid=0x0:0xadae1ab74fc3c97c,
komplek housing,Perhimpunan Pengembang Perumahan,Juprianus,"75QJ+J2G, Tampak Kurra, Kec. Tabulahan, Kabupaten Mamasa, Sulawesi Barat 91372","Tampak Kurra, Kec. Tabulahan, Kabupaten Mamasa",SULAWESI BARAT,91372.0,Indonesia,,,,-2.7110343,119.1800795,https://maps.google.com/?cid=0x0:0x62be2d2108917e93,
komplek housing,Komplek perumahan,hante,"66HV+JW, Peu, Kec. Tabulahan, Kabupaten Mamasa, Sulawesi Barat","Kabupaten Mamasa, Sulawesi Barat",SULAWESI BARAT,,Indonesia,,,,-2.7704618,119.2449151,https://maps.google.com/?cid=0x0:0xda65c24b8ae5fce9,
komplek housing,Komplek perumahan,Rumah Terah,"843X+GCR, Burana, Kec. Tabulahan, Kabupaten Mamasa, Sulawesi Barat","Kabupaten Mamasa, Sulawesi Barat",SULAWESI BARAT,,Indonesia,,,,-2.6961356,119.1485279,https://maps.google.com/?cid=0x0:0xecd00adf04706e22,
komplek housing,Komplek perumahan,Incun home,"844W+4W7, Burana, Kec. Tabulahan, Kabupaten Mamasa, Sulawesi Barat 91372","Burana, Kec. Tabulahan, Kabupaten Mamasa",SULAWESI BARAT,91372.0,Indonesia,,,,-2.6945773,119.1477183,https://maps.google.com/?cid=0x0:0x4f864c81e9bc720a,
komplek housing,Komplek perumahan,Jhun teddy,"75QH+8F9, Tampak Kurra, Kec. Tabulahan, Kabupaten Mamasa, Sulawesi Barat 91372","Tampak Kurra, Kec. Tabulahan, Kabupaten Mamasa",SULAWESI BARAT,91372.0,Indonesia,,,,-2.7108576,119.1781892,https://maps.google.com/?cid=0x0:0xcd95919dab753db7,
komplek housing,komplek housing,Rumah supri,"859X+PH6, Talopak, Kec. Tabulahan, Kabupaten Mamasa, Sulawesi Barat","Kabupaten Mamasa, Sulawesi Barat",SULAWESI BARAT,,Indonesia,,,,-2.6807171,119.1988971,https://maps.google.com/?cid=0x0:0x61a3ff9fad476c60,
komplek housing,Komplek perumahan,Rumah Anjas,"858M+VQM, Jl. Poros Tabulahan, Lakahang, Kec. Tabulahan, Kabupaten Mamasa, Sulawesi Barat","Kabupaten Mamasa, Sulawesi Barat",SULAWESI BARAT,,Indonesia,,,,-2.6827932,119.1844164,https://maps.google.com/?cid=0x0:0xed304cdfd9d08f15,
komplek housing,Komplek perumahan,Rumah Tentem,"85C9+G2H, RT.2/RW.4, Lakahang, Kec. Tabulahan, Kabupaten Mamasa, Sulawesi Barat 91372","RT.2/RW.4, Lakahang, Kec. Tabulahan, Kabupaten Mamasa",SULAWESI BARAT,91372.0,Indonesia,,,,-2.6786875,119.1676094,https://maps.google.com/?cid=0x0:0xad2198a69f8967cb,
komplek housing,Komplek perumahan,Rumah Sri,"75CF+93J, Jl. Poros Lakahang, Lakahang, Kec. Tabulahan, Kabupaten Mamasa, Sulawesi Barat","Kabupaten Mamasa, Sulawesi Barat",SULAWESI BARAT,,Indonesia,,,,-2.7290809,119.1726275,https://maps.google.com/?cid=0x0:0x163afa1e94247383,
komplek housing,Pembangunan Perumahan,Taufiq's House (AAT/UPI),"85FP+JQJ, Jl. Poros Lakahang, Lakahang, Kec. Tabulahan, Kabupaten Mamasa, Sulawesi Barat","Kabupaten Mamasa, Sulawesi Barat",SULAWESI BARAT,,Indonesia,,,,-2.6759161,119.1868869,https://maps.google.com/?cid=0x0:0x73182cf14cffe3a2,
komplek housing,Komplek perumahan,Rumah eko putrawan,"85FP+PQ4, Lakahang, Kec. Tabulahan, Kabupaten Mamasa, Sulawesi Barat","Kabupaten Mamasa, Sulawesi Barat",SULAWESI BARAT,,Indonesia,,,,-2.6760307,119.1863119,https://maps.google.com/?cid=0x0:0xa5bd46214860dec5,
komplek housing,Komplek perumahan,Febri Oktavia,"75MH+36F, Tampak Kurra, Kec. Tabulahan, Kabupaten Mamasa, Sulawesi Barat 91372","Tampak Kurra, Kec. Tabulahan, Kabupaten Mamasa",SULAWESI BARAT,91372.0,Indonesia,,,,-2.7147331,119.1781206,https://maps.google.com/?cid=0x0:0xc48159e9240f4518,
komplek housing,Komplek perumahan,Rumah harlim,"7679+GP6, Periangan, Kec. Tabulahan, Kabupaten Mamasa, Sulawesi Barat 91372","Periangan, Kec. Tabulahan, Kabupaten Mamasa",SULAWESI BARAT,91372.0,Indonesia,,,,-2.7361525,119.2192323,https://maps.google.com/?cid=0x0:0x472e6426f65f4e7b,
komplek housing,Komplek perumahan,Rumah Fadel,"66HV+GH3, Peu, Kec. Tabulahan, Kabupaten Mamasa, Sulawesi Barat","Kabupaten Mamasa, Sulawesi Barat",SULAWESI BARAT,,Indonesia,,,,-2.7721653,119.2442838,https://maps.google.com/?cid=0x0:0x4176f63aef1673eb,
komplek housing,Komplek perumahan,Rumah Dinda,"85CF+9H8 Sarambu, Lakahang, Kec. Tabulahan, Kabupaten Mamasa, Sulawesi Barat","Kabupaten Mamasa, Sulawesi Barat",SULAWESI BARAT,,Indonesia,82187573509.0,,,-2.6790965,119.1739513,https://maps.google.com/?cid=0x0:0x7039edbd38e9322f,
komplek housing,komplek housing,Kec. Tabulahan,"Kabupaten Mamasa, Sulawesi Barat","Kabupaten Mamasa, Sulawesi Barat",SULAWESI BARAT,,Indonesia,,,,-2.6696625,119.189377,https://maps.google.com/?cid=0x0:0x92f0438be6f3e353,
komplek housing,Kios,Roy kardi masri,"75MH+36F, Tampak Kurra, Kec. Tabulahan, Kabupaten Mamasa, Sulawesi Barat 91372","Tampak Kurra, Kec. Tabulahan, Kabupaten Mamasa",SULAWESI BARAT,91372.0,Indonesia,,,,-2.7157997,119.1781234,https://maps.google.com/?cid=0x0:0xa2e9ab2ea06b00a4,
komplek housing,Komplek perumahan,Desa Burana,"84CC+8P7, Burana, Kec. Tabulahan, Kabupaten Mamasa, Sulawesi Barat 91372","Burana, Kec. Tabulahan, Kabupaten Mamasa",SULAWESI BARAT,91372.0,Indonesia,,,,-2.679226,119.121734,https://maps.google.com/?cid=0x0:0xf21b9cb88e5aae20,
komplek housing,Komplek perumahan,Rumah Eldi Kurniawan,"844W+4W7, Burana, Kec. Tabulahan, Kabupaten Mamasa, Sulawesi Barat 91372","Burana, Kec. Tabulahan, Kabupaten Mamasa",SULAWESI BARAT,91372.0,Indonesia,,,,-2.694215,119.147895,https://maps.google.com/?cid=0x0:0x937aaac3fe4e67a7,
komplek housing,Komplek perumahan,rumah kalpati,"7547+29R, Jl. Poros Lakahang, Tampak Kurra, Kec. Tabulahan, Kabupaten Mamasa, Sulawesi Barat 91372","Jl. Poros Lakahang, Tampak Kurra, Kec. Tabulahan, Kabupaten Mamasa",SULAWESI BARAT,91372.0,Indonesia,,,,-2.7448847,119.1633999,https://maps.google.com/?cid=0x0:0x3914266268cf98c8,
komplek housing,Komplek perumahan,Rumah ErLaN,"75MH+36F, Tampak Kurra, Kec. Tabulahan, Kabupaten Mamasa, Sulawesi Barat 91372","Tampak Kurra, Kec. Tabulahan, Kabupaten Mamasa",SULAWESI BARAT,91372.0,Indonesia,,,,-2.7164307,119.1774549,https://maps.google.com/?cid=0x0:0x9dea22fdcff53cf,
komplek housing,Asosiasi pemilik rumah,Ruma kiflan,"843X+46P, Burana, Kec. Tabulahan, Kabupaten Mamasa, Sulawesi Barat 91372","Burana, Kec. Tabulahan, Kabupaten Mamasa",SULAWESI BARAT,91372.0,Indonesia,,,,-2.6965219,119.1478623,https://maps.google.com/?cid=0x0:0xeb873b3125ced456,
komplek housing,Perumahan,Agen pulsa Rumah P.Nadya,"65X5+4HG, Jl. Poros Lakahang, Tampak Kurra, Kec. Tabulahan, Kabupaten Mamasa, Sulawesi Barat 91372","Jl. Poros Lakahang, Tampak Kurra, Kec. Tabulahan, Kabupaten Mamasa",SULAWESI BARAT,91372.0,Indonesia,,,,-2.7521753,119.1589604,https://maps.google.com/?cid=0x0:0xe29ac1ada791ff4b,
komplek housing,komplek housing,Elsa Yuna,"75MH+36F, Tampak Kurra, Kec. Tabulahan, Kabupaten Mamasa, Sulawesi Barat 91372","Tampak Kurra, Kec. Tabulahan, Kabupaten Mamasa",SULAWESI BARAT,91372.0,Indonesia,,,,-2.7171467,119.1783276,https://maps.google.com/?cid=0x0:0xb7936752395d1522,
komplek housing,komplek housing,Sulawesi Barat 91366,"Kabupaten Mamasa, Sulawesi Barat","Kabupaten Mamasa, Sulawesi Barat",SULAWESI BARAT,,Indonesia,,,,-3.0188114,119.2785638,https://maps.google.com/?cid=0x0:0xf1c681e2dfa30cec,
komplek housing,komplek housing,The Krisnal's House,"36GQ+C9, Lembangmokallang, Kec. Bambang, Kabupaten Mamasa, Sulawesi Barat","Kabupaten Mamasa, Sulawesi Barat",SULAWESI BARAT,,Indonesia,,,,-2.9239375,119.2384375,https://maps.google.com/?cid=0x0:0x4dd4e471eab37ed,
komplek housing,Komplek perumahan,Balabatu,"Rumah Kenya, Sindagamanik, Kec. Tanduk Kalua, Kabupaten Mamasa, Sulawesi Barat 91366","Sindagamanik, Kec. Tanduk Kalua, Kabupaten Mamasa",SULAWESI BARAT,91366.0,Indonesia,,,,-3.0237345,119.2611335,https://maps.google.com/?cid=0x0:0xa042867fcc7ea9,
komplek housing,Komplek perumahan,Rumah Keyna,"X7PC+765, Jl. Poros Nasional, Sindagamanik, Kec. Tanduk Kalua, Kabupaten Mamasa, Sulawesi Barat 91366","Jl. Poros Nasional, Sindagamanik, Kec. Tanduk Kalua, Kabupaten Mamasa",SULAWESI BARAT,91366.0,Indonesia,,,,-3.0143633,119.2705974,https://maps.google.com/?cid=0x0:0x14fc90deccea14a6,
komplek housing,Komplek perumahan,Rumah hermawan,"X8M6+5HH, Malabo, Kec. Tanduk Kalua, Kabupaten Mamasa, Sulawesi Barat","Kabupaten Mamasa, Sulawesi Barat",SULAWESI BARAT,,Indonesia,,,,-3.01806,119.311008,https://maps.google.com/?cid=0x0:0xb75dfa4be598ee09,
komplek housing,komplek housing,Rumah Rara‚Äô,"X8PR+8F, Bambapuang, Kec. Balla, Kabupaten Mamasa, Sulawesi Barat 91366","Bambapuang, Kec. Balla, Kabupaten Mamasa",SULAWESI BARAT,91366.0,Indonesia,,,,-3.0148815,119.3422123,https://maps.google.com/?cid=0x0:0xda49b72969bbc889,
komplek housing,Komplek perumahan,DEPPARINDING HOME,"2867+93Q, Balla Bar., Kec. Balla, Kabupaten Mamasa, Sulawesi Barat 91366","Balla Bar., Kec. Balla, Kabupaten Mamasa",SULAWESI BARAT,91366.0,Indonesia,,,,-2.9890366,119.3127371,https://maps.google.com/?cid=0x0:0xa094922e320a413b,
komplek housing,Komplek perumahan,Rmh Arkilaus,"278V+8W, Pidara, Kec. Balla, Kabupaten Mamasa, Sulawesi Barat","Kabupaten Mamasa, Sulawesi Barat",SULAWESI BARAT,,Indonesia,,,,-2.9844223,119.2962865,https://maps.google.com/?cid=0x0:0xbab7b3f474c5b25c,
komplek housing,Komplek perumahan,Rumah Budi,"X7FV+GC2, Jl. Poros Mamasa, Minake, Kec. Tanduk Kalua, Kabupaten Mamasa, Sulawesi Barat 91366","Jl. Poros Mamasa, Minake, Kec. Tanduk Kalua, Kabupaten Mamasa",SULAWESI BARAT,91366.0,Indonesia,,,,-3.0262425,119.2935217,https://maps.google.com/?cid=0x0:0x44ad7ed56359d0d,
komplek housing,Komplek perumahan,kilo 6,"2734+GW6 kilo 6, Jl. Poros Mamasa, Mannababa, Kec. Tanduk Kalua, Kabupaten Mamasa, Sulawesi Barat","Kabupaten Mamasa, Sulawesi Barat",SULAWESI BARAT,,Indonesia,,,,-2.9962003,119.2572505,https://maps.google.com/?cid=0x0:0xc4d1bad917488b09,
komplek housing,Komplek perumahan,House,"X8RG+5X5, Sepakuan, Kec. Balla, Kabupaten Mamasa, Sulawesi Barat","Kabupaten Mamasa, Sulawesi Barat",SULAWESI BARAT,,Indonesia,,,,-3.0086205,119.3280462,https://maps.google.com/?cid=0x0:0x4d4cd3d2c74d5bde,
komplek housing,Komplek perumahan,Rumah Caraka,"X8G3+GX8, Pambe, Kec. Tanduk Kalua, Kabupaten Mamasa, Sulawesi Barat 91366","Pambe, Kec. Tanduk Kalua, Kabupaten Mamasa",SULAWESI BARAT,91366.0,Indonesia,,,,-3.0241668,119.3057832,https://maps.google.com/?cid=0x0:0xecd1e940ecae1ce9,
komplek housing,Komplek perumahan,Rumah husnawati,"2734+GW6, tinambung/alu Jl. Poros Mamasa, Mannababa, Kec. Tanduk Kalua, Kabupaten Mamasa, Sulawesi Barat","Kabupaten Mamasa, Sulawesi Barat",SULAWESI BARAT,,Indonesia,,,,-2.9962003,119.2572505,https://maps.google.com/?cid=0x0:0x399cece2570d79b1,
komplek housing,Komplek perumahan,Rumah Joy,"X7JF+X4X, Sindagamanik, Kec. Tanduk Kalua, Kabupaten Mamasa, Sulawesi Barat 91366","Sindagamanik, Kec. Tanduk Kalua, Kabupaten Mamasa",SULAWESI BARAT,91366.0,Indonesia,,,,-3.0173531,119.2730009,https://maps.google.com/?cid=0x0:0xd02aef05ae96a419,
komplek housing,Perumahan rakyat,Rumah Chalvin Juniarto,"X7GQ+GMW, Talimbung, Kec. Tanduk Kalua, Kabupaten Mamasa, Sulawesi Barat","Kabupaten Mamasa, Sulawesi Barat",SULAWESI BARAT,,Indonesia,,,,-3.0236398,119.2892168,https://maps.google.com/?cid=0x0:0xbcf9bb9e865a6a8e,
komplek housing,Komplek perumahan,Darwis,"W8GC+JP4, Tamalantik, Kec. Tanduk Kalua, Kabupaten Mamasa, Sulawesi Barat 91366","Tamalantik, Kec. Tanduk Kalua, Kabupaten Mamasa",SULAWESI BARAT,91366.0,Indonesia,,,,-3.0734803,119.3218336,https://maps.google.com/?cid=0x0:0x3b4bebaca2fe1ec4,
komplek housing,Komplek perumahan,Rumah Helmy,"X7FV+J5, Minake, Kec. Tanduk Kalua, Kabupaten Mamasa, Sulawesi Barat","Kabupaten Mamasa, Sulawesi Barat",SULAWESI BARAT,,Indonesia,,,,-3.0258913,119.2929009,https://maps.google.com/?cid=0x0:0xac2698da7334b3d0,
komplek housing,Komplek perumahan,Rumah BUDIONO,"X7CW+MFW, Minake, Kec. Tanduk Kalua, Kabupaten Mamasa, Sulawesi Barat","Kabupaten Mamasa, Sulawesi Barat",SULAWESI BARAT,,Indonesia,,,,-3.0282569,119.296211,https://maps.google.com/?cid=0x0:0x455ca37cf772d039,
komplek housing,Komplek perumahan,SGN,"2628+H2W, Kirak, Kec. Rantebulahan Tim., Kabupaten Mamasa, Sulawesi Barat","Kabupaten Mamasa, Sulawesi Barat",SULAWESI BARAT,,Indonesia,,,,-2.9985358,119.2151173,https://maps.google.com/?cid=0x0:0x97664cb8633c5cbd,
komplek housing,Komplek perumahan,Dwi,"X7JH+WWJ, Jl. Poros Mamasa, Parondobulawan, Kec. Tanduk Kalua, Kabupaten Mamasa, Sulawesi Barat 91366","Jl. Poros Mamasa, Parondobulawan, Kec. Tanduk Kalua, Kabupaten Mamasa",SULAWESI BARAT,91366.0,Indonesia,,,,-3.0176772,119.279804,https://maps.google.com/?cid=0x0:0xdf92963b056e5a2b,
komplek housing,komplek housing,Kec. Tanduk Kalua,"Kabupaten Mamasa, Sulawesi Barat","Kabupaten Mamasa, Sulawesi Barat",SULAWESI BARAT,,Indonesia,,,,-3.0238915,119.3028343,https://maps.google.com/?cid=0x0:0xdbbce2411fcc32d9,
komplek housing,Komplek perumahan,Ranteambabang,"X8F2+QWP, Malabo, Kec. Tanduk Kalua, Kabupaten Mamasa, Sulawesi Barat 91366","Malabo, Kec. Tanduk Kalua, Kabupaten Mamasa",SULAWESI BARAT,91366.0,Indonesia,,,,-3.0255485,119.3023406,https://maps.google.com/?cid=0x0:0xb224b722b731ddbb,
