Category;Real Category;Business Name;Address;City;State;Postal Code;Country;Phone;Email;Website;Latitude;Longitude;Map Link;Details Link
"toko bangunan";"Toko Bahan Bangunan";"Toko Bangunan Sepuh Jaya Batujajar";"3FJX+C5F, Jl. Panca Tengah, Batujajar Tim., Kec. Batujajar, Kabupaten Bandung Barat, Jawa Barat 40561";"Jl. Panca Tengah, Batujajar Tim., Kec. Batujajar, Kabupaten Bandung Barat";"JAWA BARAT";"40561";"Indonesia";"";"";"";"-6.9189325";"107.4979353";"https://maps.google.com/?cid=0x0:0x3f47e900be243789";""
"toko bangunan";"Toko Bahan Bangunan";"Toko Bangunan HD";"3FPJ+9VM, Jalan, Galanggang, Batujajar, West Bandung Regency, West Java 40561";"Jalan, Galanggang, Batujajar, West Bandung Regency";"JAWA BARAT";"40561";"Indonesia";"";"";"";"-6.9140289";"107.4821826";"https://maps.google.com/?cid=0x0:0x9d0c963523bfba30";""
"toko bangunan";"Toko Bahan Bangunan";"Tb Ss jaya";"Jl. Pangauban No.40, Pangauban, Kec. Batujajar, Kabupaten Bandung Barat, Jawa Barat 40561";"Pangauban, Kec. Batujajar, Kabupaten Bandung Barat";"JAWA BARAT";"40561";"Indonesia";" 02287780766";"";"";"-6.9061246";"107.46204";"https://maps.google.com/?cid=0x0:0x35b99459643380c7";""
"toko bangunan";"Toko Bahan Bangunan";"TB. Jaya Mandiri";"Jl. Raya Sinar Mukti No.81, Selacau, Kec. Batujajar, Kabupaten Bandung Barat, Jawa Barat 40561";"Selacau, Kec. Batujajar, Kabupaten Bandung Barat";"JAWA BARAT";"40561";"Indonesia";" 0226867872";"";"/url?q>>u003dhttp://www.jayamandiri.co.id/>>u0026opi>>u003d79508299>>u0026sa>>u003dU>>u0026ved>>u003d0ahUKEwj1qYXV97-LAxWbSWwGHdcPASYQ61gIFigS>>u0026usg>>u003dAOvVaw01F3OaRqH2v63fj8MMe3lt";"-6.927125";"107.500202";"https://maps.google.com/?cid=0x0:0x5327a953c71d1b9b";""
"toko bangunan";"Toko Bahan Bangunan";"Toko bangunan";"3GQ5+564, Batujajar Tim., Kec. Batujajar, Kabupaten Bandung Barat, Jawa Barat 40561";"Batujajar Tim., Kec. Batujajar, Kabupaten Bandung Barat";"JAWA BARAT";"40561";"Indonesia";"";"";"";"-6.9121146";"107.5080866";"https://maps.google.com/?cid=0x0:0xe33d6232fd7a5664";""
"toko bangunan";"Toko Bahan Bangunan";"Tb sentika jaya 4";"Kp blok Jl. Carik, RT.05/RW.01, Batujajar Bar., Kec. Batujajar, Kabupaten Bandung Barat, Jawa Barat 40561";"RT.05/RW.01, Batujajar Bar., Kec. Batujajar, Kabupaten Bandung Barat";"JAWA BARAT";"40561";"Indonesia";" 081221800489";"";"";"-6.9188805";"107.4997602";"https://maps.google.com/?cid=0x0:0xc90a0b332d9c19da";""
"toko bangunan";"Toko Bahan Bangunan";"TB.saputra jaya 4";"Jl. Raya Sinar Mukti No.6, Selacau, Kec. Batujajar, Kabupaten Bandung Barat, Jawa Barat 40561";"Selacau, Kec. Batujajar, Kabupaten Bandung Barat";"JAWA BARAT";"40561";"Indonesia";" 087824513990";"";"";"-6.9286828";"107.5024064";"https://maps.google.com/?cid=0x0:0x2c566ec86127b886";""
"toko bangunan";"Toko Bahan Bangunan";"TB. 36 Makmur";"Jl. Raya Batujajar No.246, RW.03, Galanggang, Kec. Batujajar, Kabupaten Bandung Barat, Jawa Barat 40561";"RW.03, Galanggang, Kec. Batujajar, Kabupaten Bandung Barat";"JAWA BARAT";"40561";"Indonesia";" 082117979936";"";"";"-6.9125806";"107.5003248";"https://maps.google.com/?cid=0x0:0x58880cce6ee14807";""
"toko bangunan";"Toko Bahan Bangunan";"TOKO ANAN";"Komplek Puri Indah Lestari, Jl. Seruni No.15 Blok E8, Batujajar Tim., Kec. Batujajar, Kabupaten Bandung Barat, Jawa Barat 40561";"Jl. Seruni No.15 Blok E8, Batujajar Tim., Kec. Batujajar, Kabupaten Bandung Barat";"JAWA BARAT";"40561";"Indonesia";" 0817224135";"";"";"-6.9145174";"107.5064996";"https://maps.google.com/?cid=0x0:0xa78aacbbf75e1f90";""
"toko bangunan";"Toko Bahan Bangunan";"PD. Berkah Abadi";"Jl. Citunjung-Haurngambang, Batujajar Tim., Kec. Batujajar, Kabupaten Bandung Barat, Jawa Barat 40561";"Batujajar Tim., Kec. Batujajar, Kabupaten Bandung Barat";"JAWA BARAT";"40561";"Indonesia";" 082316831883";"";"";"-6.9117233";"107.5068755";"https://maps.google.com/?cid=0x0:0x4b45f72a67b8a5c4";""
"toko bangunan";"Toko Bahan Bangunan";"Citra Jaya Mart";"blok, Sinar jaya No.016, RW.RT.002, Batujajar Bar., Kec. Batujajar, Kabupaten Bandung Barat, Jawa Barat 40561";"Sinar jaya No.016, RW.RT.002, Batujajar Bar., Kec. Batujajar, Kabupaten Bandung Barat";"JAWA BARAT";"40561";"Indonesia";" 08562018338";"";"";"-6.9245471";"107.496024";"https://maps.google.com/?cid=0x0:0x846780b3f67773a4";""
"toko bangunan";"Toko Bahan Bangunan";"TB. Cangkorah 72";"Jl. Raya Batujajar Jl. Cimareme No.72, Giriasih, Kec. Batujajar, Kabupaten Bandung Barat, Jawa Barat 40561";"Giriasih, Kec. Batujajar, Kabupaten Bandung Barat";"JAWA BARAT";"40561";"Indonesia";" 081299927272";"";"";"-6.8988055";"107.5021298";"https://maps.google.com/?cid=0x0:0x9d6bacc9d073144e";""
"toko bangunan";"Toko Bahan Bangunan";"TB Bungsu Mandiri";"4C85+WX7, Cipangeran, Kec. Batujajar, Kabupaten Bandung Barat, Jawa Barat 40561";"Cipangeran, Kec. Batujajar, Kabupaten Bandung Barat";"JAWA BARAT";"40561";"Indonesia";" 085322098887";"";"";"-6.8827011";"107.4099322";"https://maps.google.com/?cid=0x0:0xeb94a58af98c877d";""
"toko bangunan";"Toko Bahan Bangunan";"Toko Besi BSLogam";"3FPX+FGW, Batujajar Tim., Kec. Batujajar, Kabupaten Bandung Barat, Jawa Barat 40561";"Batujajar Tim., Kec. Batujajar, Kabupaten Bandung Barat";"JAWA BARAT";"40561";"Indonesia";" 085294748111";"";"";"-6.9137645";"107.4988248";"https://maps.google.com/?cid=0x0:0x1ed9faedb5d059b7";""
"toko bangunan";"Toko Bahan Bangunan";"TB Ujung Jaya 2";"Jl. Citunjung-Haurngambang, Batujajar Tim., Kec. Batujajar, Kabupaten Bandung Barat, Jawa Barat 40561";"Batujajar Tim., Kec. Batujajar, Kabupaten Bandung Barat";"JAWA BARAT";"40561";"Indonesia";" 081214887787";"";"";"-6.9123335";"107.5102621";"https://maps.google.com/?cid=0x0:0xd4670515ca68be9e";""
"toko bangunan";"Toko Bahan Bangunan";"Putra Sejati Batujajar";"Jl. Raya No.407, Batujajar Bar., Kec. Batujajar, Kabupaten Bandung Barat, Jawa Barat 40561";"Batujajar Bar., Kec. Batujajar, Kabupaten Bandung Barat";"JAWA BARAT";"40561";"Indonesia";" 0819879395";"";"/url?q>>u003dhttps://www.instagram.com/putrasejati.pb/%3Fhl%3Did>>u0026opi>>u003d79508299>>u0026sa>>u003dU>>u0026ved>>u003d0ahUKEwiQwI7c97-LAxVas1YBHaI6AqcQ61gIFigS>>u0026usg>>u003dAOvVaw0lSmfapyO6KWurSp1nRY3x";"-6.918373";"107.4883119";"https://maps.google.com/?cid=0x0:0xc8acbad5bd17443f";""
"toko bangunan";"Toko Bahan Bangunan";"Sarindo";"Sinar jaya No.103, Batujajar Bar., Kec. Batujajar, Kabupaten Bandung Barat, Jawa Barat 40561";"Batujajar Bar., Kec. Batujajar, Kabupaten Bandung Barat";"JAWA BARAT";"40561";"Indonesia";" 02286861676";"";"";"-6.9221938";"107.4941832";"https://maps.google.com/?cid=0x0:0xfac086655ba024f";""
"toko bangunan";"Toko Bahan Bangunan";"Anugerah Jaya Mega Keramik";"Jl. Raya Batujajar No.314, Galanggang, Kec. Batujajar, Kabupaten Bandung Barat, Jawa Barat 40561";"Galanggang, Kec. Batujajar, Kabupaten Bandung Barat";"JAWA BARAT";"40561";"Indonesia";" 02286861297";"";"/url?q>>u003dhttps://www.tokopedia.com/anugerahol>>u0026opi>>u003d79508299>>u0026sa>>u003dU>>u0026ved>>u003d0ahUKEwjhpqrd97-LAxW4klYBHR65DxIQ61gIFigS>>u0026usg>>u003dAOvVaw0Va3nRaoit5q4Z4G-WtInq";"-6.9144103";"107.4966581";"https://maps.google.com/?cid=0x0:0xc1bc65bcb38145c6";""
"toko bangunan";"Toko Bahan Bangunan";"TB Sarana Sejahtera";"Jl. Raya Seketando, RT.2/RW.14, Cangkorah, Kec. Batujajar, Kabupaten Bandung Barat, Jawa Barat 40561";"RT.2/RW.14, Cangkorah, Kec. Batujajar, Kabupaten Bandung Barat";"JAWA BARAT";"40561";"Indonesia";" 081313644944";"";"";"-6.8889784";"107.4711222";"https://maps.google.com/?cid=0x0:0x9c296d7492d8ff72";""
"toko bangunan";"Toko Bahan Bangunan";"TB. Jaya Putra";"Kp, Gn. Leutik Desa No.RT.02/12, Batujajar Tim., Kec. Batujajar, Kabupaten Bandung Barat, Jawa Barat 40561";"Gn. Leutik Desa No.RT.02/12, Batujajar Tim., Kec. Batujajar, Kabupaten Bandung Barat";"JAWA BARAT";"40561";"Indonesia";" 083821648069";"";"";"-6.9193343";"107.5188989";"https://maps.google.com/?cid=0x0:0x12971dd95fde7403";""
"toko bangunan";"Toko Bahan Bangunan";"Tb. Jaya abadi saguling";"4C45+XW6, Ciloa Cibangkonol, Jati, Batujajar, West Bandung Regency, West Java 40561";"Ciloa Cibangkonol, Jati, Batujajar, West Bandung Regency";"JAWA BARAT";"40561";"Indonesia";" 087821029777";"";"";"-6.892586";"107.409759";"https://maps.google.com/?cid=0x0:0x48d3cd2914c9ce2d";""
"toko bangunan";"Grosir batu alam";"Fajar Stone .CV";"Kp. CIcangkuang RT 4 RW 8 Desa Giriasih No. 1 Kec. Batujajar Kab. Bandung Barat, Batujajar, Bandung Barat, Giriasih, Kec. Batujajar, Kabupaten Bandung Barat, Jawa Barat 40561";"Batujajar, Bandung Barat, Giriasih, Kec. Batujajar, Kabupaten Bandung Barat";"JAWA BARAT";"40561";"Indonesia";" 02286861936";"";"";"-6.8995347";"107.4997467";"https://maps.google.com/?cid=0x0:0xff82507b91cb1497";""
"toko bangunan";"Toko Bahan Bangunan";"PD.acong kusen  gypsum";"Jl. Raya Batujajar No.181, Galanggang, Kec. Batujajar, Kabupaten Bandung Barat, Jawa Barat 40561";"Galanggang, Kec. Batujajar, Kabupaten Bandung Barat";"JAWA BARAT";"40561";"Indonesia";" 08777195859";"";"";"-6.912383";"107.500999";"https://maps.google.com/?cid=0x0:0x6c228e2e136afd86";""
"toko bangunan";"Toko Bahan Bangunan";"PD. Berkah Abadi Cangkorah";"4F5J+2RH, Giriasih, Kec. Batujajar, Kabupaten Bandung Barat, Jawa Barat 40561";"Giriasih, Kec. Batujajar, Kabupaten Bandung Barat";"JAWA BARAT";"40561";"Indonesia";" 085702221524";"";"";"-6.8934106";"107.4826389";"https://maps.google.com/?cid=0x0:0x2a7a48d6882bf10";""
"toko bangunan";"Toko Bahan Bangunan";"TB SS JAYA 2 CIHAMPELAS";"3FQ3+4V4, kp salakopi, RT.04/RW.10, Cihampelas, Kec. Cihampelas, Kabupaten Bandung Barat, Jawa Barat 40562";"kp salakopi, RT.04/RW.10, Cihampelas, Kec. Cihampelas, Kabupaten Bandung Barat";"JAWA BARAT";"40562";"Indonesia";" 087821614033";"";"";"-6.9122307";"107.4546934";"https://maps.google.com/?cid=0x0:0xbd086e33afe1149";""
"toko bangunan";"Toko Bahan Bangunan";"Toko Bangunan Widya Jaya";"Cipatik, Kec. Cihampelas, Kabupaten Bandung Barat, Jawa Barat 40562";"Kec. Cihampelas, Kabupaten Bandung Barat";"JAWA BARAT";"40562";"Indonesia";" 082319748443";"";"/url?q>>u003dhttp://shopee.co.id/huwiyaaa>>u0026opi>>u003d79508299>>u0026sa>>u003dU>>u0026ved>>u003d0ahUKEwiV_97297-LAxVtsVYBHcgjIvYQ61gIFigS>>u0026usg>>u003dAOvVaw2ev8O_0Jy6rKEwequufVCw";"-6.9396148";"107.5027775";"https://maps.google.com/?cid=0x0:0x26b3d158d73dad37";""
"toko bangunan";"Toko Bahan Bangunan";"TB. Barokah Jaya";"Jl. Raya Pembangunan No.515-519, Mekarjaya, Kec. Cihampelas, Kabupaten Bandung Barat, Jawa Barat 40562";"Mekarjaya, Kec. Cihampelas, Kabupaten Bandung Barat";"JAWA BARAT";"40562";"Indonesia";"";"";"";"-6.9061365";"107.4362278";"https://maps.google.com/?cid=0x0:0xe7b679d18edbc4ac";""
"toko bangunan";"Toko Bahan Bangunan";"Tb Barokah Jaya";"2FVW+6VW, Pojok Walahir Hilir, Tanjungwangi, Kec. Cihampelas, Kabupaten Bandung Barat, Jawa Barat 40562";"Pojok Walahir Hilir, Tanjungwangi, Kec. Cihampelas, Kabupaten Bandung Barat";"JAWA BARAT";"40562";"Indonesia";"";"";"";"-6.9568883";"107.4971881";"https://maps.google.com/?cid=0x0:0x1e2063b270ea1555";""
"toko bangunan";"Toko Bahan Bangunan";"Saputra Jaya Cipanji (SPJ Cipanji)";"Jalan Raya Cihampelas - citapen, Kp Jl. Raya Cipanji No.15, Cihampelas, Kec. Cihampelas, Kabupaten Bandung Barat, Jawa Barat 40562";"Kp Jl. Raya Cipanji No.15, Cihampelas, Kec. Cihampelas, Kabupaten Bandung Barat";"JAWA BARAT";"40562";"Indonesia";" 082121061367";"";"";"-6.9259013";"107.4814622";"https://maps.google.com/?cid=0x0:0x26253f20b9c0e7bf";""
"toko bangunan";"Toko Bahan Bangunan";"TB.Bangun jaya";"Jl. Citapen - Ciraden No.37, Citapen, Kec. Cihampelas, Kabupaten Bandung Barat, Jawa Barat 40562";"Citapen, Kec. Cihampelas, Kabupaten Bandung Barat";"JAWA BARAT";"40562";"Indonesia";" 081321106401";"";"";"-6.9379798";"107.4958897";"https://maps.google.com/?cid=0x0:0x6812a2dc637d8825";""
"toko bangunan";"Toko Bahan Bangunan";"Saputra Jaya 1";"Jl. Sasak Bubur No.24, Mekarmukti, Kec. Cihampelas, Kabupaten Bandung Barat, Jawa Barat 40562";"Mekarmukti, Kec. Cihampelas, Kabupaten Bandung Barat";"JAWA BARAT";"40562";"Indonesia";" 02286006119";"";"";"-6.9322756";"107.4756641";"https://maps.google.com/?cid=0x0:0xc010d211869347a5";""
"toko bangunan";"Toko Perlengkapan Rumah";"Albani 2";"3CMX+RF5, Mekar Jaya Tanjung Jaya, Mekarjaya, Kec. Cihampelas, Kabupaten Bandung Barat, Jawa Barat 40562";"Mekar Jaya Tanjung Jaya, Mekarjaya, Kec. Cihampelas, Kabupaten Bandung Barat";"JAWA BARAT";"40562";"Indonesia";" 083890939303";"";"";"-6.9159095";"107.448593";"https://maps.google.com/?cid=0x0:0x87c4da99e1050403";""
"toko bangunan";"Toko Bahan Bangunan";"TB. Berkah - Situwangi";"Genteng No.19-51, Cipatik, Kec. Cihampelas, Kabupaten Bandung Barat, Jawa Barat 40562";"Cipatik, Kec. Cihampelas, Kabupaten Bandung Barat";"JAWA BARAT";"40562";"Indonesia";" 08122184933";"";"";"-6.9416744";"107.5110017";"https://maps.google.com/?cid=0x0:0x37ff4d641ff639f0";""
"toko bangunan";"Toko Bahan Bangunan";"Tb Am Jaya";"Jl. Raya Pembangunan No.500, Mekarjaya, Kec. Cihampelas, Kabupaten Bandung Barat, Jawa Barat 40562";"Mekarjaya, Kec. Cihampelas, Kabupaten Bandung Barat";"JAWA BARAT";"40562";"Indonesia";"";"";"";"-6.9100815";"107.4489419";"https://maps.google.com/?cid=0x0:0xa499a8c830a5e140";""
"toko bangunan";"Toko Bahan Bangunan";"MEKAR ALAM JAYA";"Jl. Raya Cipatik, Cipatik, Kec. Cihampelas, Kabupaten Bandung Barat, Jawa Barat 40562";"Cipatik, Kec. Cihampelas, Kabupaten Bandung Barat";"JAWA BARAT";"40562";"Indonesia";" 089606150127";"";"/url?q>>u003dhttps://m.facebook.com/Mekar-Alam-Jaya-450031898537242/>>u0026opi>>u003d79508299>>u0026sa>>u003dU>>u0026ved>>u003d0ahUKEwi07Jb697-LAxUfs1YBHeoyBMkQ61gIFigS>>u0026usg>>u003dAOvVaw1rWLfZEmRvF30eWgS2gR1d";"-6.9384184";"107.5100377";"https://maps.google.com/?cid=0x0:0x9ec78a220d5aa967";""
"toko bangunan";"Toko Bahan Bangunan";"TB IAN'S jaya";"Jl. Cipadung No.95, Singajaya, Kec. Cihampelas, Kabupaten Bandung Barat, Jawa Barat 40562";"Singajaya, Kec. Cihampelas, Kabupaten Bandung Barat";"JAWA BARAT";"40562";"Indonesia";" 082121007701";"";"";"-6.9498739";"107.4799085";"https://maps.google.com/?cid=0x0:0xd42d61c42f97d9f1";""
"toko bangunan";"Toko Bahan Bangunan";"Pb Ilham Jaya";"3G54+PW4, Jl. Cagak, Cipatik, Kec. Cihampelas, Kabupaten Bandung Barat, Jawa Barat 40562";"Jl. Cagak, Cipatik, Kec. Cihampelas, Kabupaten Bandung Barat";"JAWA BARAT";"40562";"Indonesia";"";"";"";"-6.9407337";"107.5073416";"https://maps.google.com/?cid=0x0:0xf4e8b7a1275cffdf";""
"toko bangunan";"Toko Bahan Bangunan";"TB Kabul Mulya";"Cililin - Cihampelas, Karangtanjung, Kec. Cililin, Kabupaten Bandung Barat, Jawa Barat 40562";"Karangtanjung, Kec. Cililin, Kabupaten Bandung Barat";"JAWA BARAT";"40562";"Indonesia";" 0895342928537";"";"";"-6.9508809";"107.4624001";"https://maps.google.com/?cid=0x0:0x8d4ebb872b7936d7";""
"toko bangunan";"Toko Bahan Bangunan";"TB. LAKSANA MAKMUR";"Pataruman, Kec. Cihampelas, Kabupaten Bandung Barat, Jawa Barat 40562";"Kec. Cihampelas, Kabupaten Bandung Barat";"JAWA BARAT";"40562";"Indonesia";" 081395473087";"";"";"-6.9411875";"107.5140625";"https://maps.google.com/?cid=0x0:0xea383e6e1e3345b5";""
"toko bangunan";"Toko Perlengkapan Rumah";"TB Putra Sinar Abadi";"Pataruman, Kec. Cihampelas, Kabupaten Bandung Barat, Jawa Barat 40562";"Kec. Cihampelas, Kabupaten Bandung Barat";"JAWA BARAT";"40562";"Indonesia";" 081323785318";"";"";"-6.9467572";"107.5186513";"https://maps.google.com/?cid=0x0:0xc7525ddd4d126b1c";""
"toko bangunan";"Toko";"TB Nurbani";"2GV4+729, Situ Wangi Genteng, Situwangi, Kec. Cihampelas, Kabupaten Bandung Barat, Jawa Barat 40562";"Situ Wangi Genteng, Situwangi, Kec. Cihampelas, Kabupaten Bandung Barat";"JAWA BARAT";"40562";"Indonesia";"";"";"";"-6.9569018";"107.5050715";"https://maps.google.com/?cid=0x0:0x74c32af583677fcf";""
"toko bangunan";"Toko Bahan Bangunan";"TB. JS PUTRA";"Kp Cangkuang, RT.04 rw06, Cipatik, Kec. Cihampelas, Kabupaten Bandung Barat, Jawa Barat 40562";"RT.04 rw06, Cipatik, Kec. Cihampelas, Kabupaten Bandung Barat";"JAWA BARAT";"40562";"Indonesia";" 082127669662";"";"";"-6.9438673";"107.5107574";"https://maps.google.com/?cid=0x0:0x4066a0c2e607b420";""
"toko bangunan";"Toko Bahan Bangunan";"Toko Bahan Bangunan Makmur Jaya Mandiri";"Citapen, Kec. Cihampelas, Kabupaten Bandung Barat, Jawa Barat 40562";"Kec. Cihampelas, Kabupaten Bandung Barat";"JAWA BARAT";"40562";"Indonesia";"";"";"";"-6.9416196";"107.4968192";"https://maps.google.com/?cid=0x0:0xde40d12d197d2420";""
"toko bangunan";"toko bangunan";"Jawa Barat 40562";"Kec. Cihampelas, Kabupaten Bandung Barat, Jawa Barat";"Kabupaten Bandung Barat, Jawa Barat";"JAWA BARAT";"";"Indonesia";"";"";"";"-6.9546601";"107.4558555";"https://maps.google.com/?cid=0x0:0x1c00c5eb568ebed0";""
"toko bangunan";"Toko Bahan Bangunan";"TB. Laksana Jaya";"3G36+FRR, Jl. Situwangi, Cipatik, Kec. Cihampelas, Kabupaten Bandung Barat, Jawa Barat 40562";"Jl. Situwangi, Cipatik, Kec. Cihampelas, Kabupaten Bandung Barat";"JAWA BARAT";"40562";"Indonesia";" 082121010571";"";"";"-6.9462517";"107.5120116";"https://maps.google.com/?cid=0x0:0x4bfb48ba0f33c18b";""
"toko bangunan";"Toko Bahan Bangunan";"Mustika sari";"2GR4+PR7, Situ Wangi Genteng, Situwangi, Kec. Cihampelas, Kabupaten Bandung Barat, Jawa Barat 40562";"Situ Wangi Genteng, Situwangi, Kec. Cihampelas, Kabupaten Bandung Barat";"JAWA BARAT";"40562";"Indonesia";" 085313480267";"";"";"-6.9582025";"107.5070463";"https://maps.google.com/?cid=0x0:0x9f65c25fec772d8e";""
"toko bangunan";"Toko Bahan Bangunan";"TB. CITRA RAHAYU";"Situ Wangi Genteng No.42, Situwangi, Kec. Cihampelas, Kabupaten Bandung Barat, Jawa Barat 40562";"Situwangi, Kec. Cihampelas, Kabupaten Bandung Barat";"JAWA BARAT";"40562";"Indonesia";" 083820247758";"";"";"-6.9581716";"107.5066266";"https://maps.google.com/?cid=0x0:0x693ad984cd328b27";""
"toko bangunan";"Toko Bahan Bangunan";"TB Mitra Saluyu";"Jalan Kp. Tambakan, Cipatik, Kec. Cihampelas, Kabupaten Bandung Barat, Jawa Barat 40562";"Cipatik, Kec. Cihampelas, Kabupaten Bandung Barat";"JAWA BARAT";"40562";"Indonesia";" 082214416814";"";"/url?q>>u003dhttps://mitrasaluyu2.olshopin.com/>>u0026opi>>u003d79508299>>u0026sa>>u003dU>>u0026ved>>u003d0ahUKEwj-l_eB-L-LAxX8lK8BHRoVEIQQ61gIFigS>>u0026usg>>u003dAOvVaw1FEvybSEYXCGGg3ju_R2tp";"-6.9403825";"107.5043322";"https://maps.google.com/?cid=0x0:0x4bf2598781ea257e";""
"toko bangunan";"Toko Bahan Bangunan";"Jaya Sagala";"7C3W+HFF, Jl. Cikalong, Mandalamukti, Kec. Cikalong Wetan, Kabupaten Bandung Barat, Jawa Barat 40556";"Jl. Cikalong, Mandalamukti, Kec. Cikalong Wetan, Kabupaten Bandung Barat";"JAWA BARAT";"40556";"Indonesia";" 02220548077";"";"";"-6.7460542";"107.4462091";"https://maps.google.com/?cid=0x0:0xfff688eb68c39934";""
"toko bangunan";"Toko Bahan Bangunan";"TOKO BANGUNAN";"6CWX+J4C, Jl. Cikerti Cipetir, Mandalamukti, Kec. Cikalong Wetan, Kabupaten Bandung Barat, Jawa Barat 40556";"Jl. Cikerti Cipetir, Mandalamukti, Kec. Cikalong Wetan, Kabupaten Bandung Barat";"JAWA BARAT";"40556";"Indonesia";"";"";"";"-6.7534399";"107.4477771";"https://maps.google.com/?cid=0x0:0x743778232216af0a";""
"toko bangunan";"";"Tb Sahabat Bangunan";"Mandalamukti, Kec. Cikalong Wetan, Bandung, Jawa Barat 40556";"Kec. Cikalong Wetan, Bandung";"JAWA BARAT";"40556";"Indonesia";" 081223193198";"";"";"-6.7508775";"107.4448827";"https://maps.google.com/?cid=0x0:0x148f2bcff6fadfba";""
"toko bangunan";"Toko Bahan Bangunan";"BB-Mart 2 Walini";"Jl. Padalarang-Cikampek No. 29, Ciguntur Dua, Mandalamukti, Kec. Cikalong Wetan, Kabupaten Bandung Barat, Jawa Barat 40556";"Ciguntur Dua, Mandalamukti, Kec. Cikalong Wetan, Kabupaten Bandung Barat";"JAWA BARAT";"40556";"Indonesia";" 02220548888";"";"";"-6.7541251";"107.4436283";"https://maps.google.com/?cid=0x0:0xeefd5abe99fc3806";""
"toko bangunan";"Toko Bahan Bangunan";"TB SINAR WANGUN JAYA";"7FG8+PJR, Jalan Desa Jl. Wangunjaya, Cisomang Barat, East Cikalong, West Bandung Regency, West Java 40556";"Jalan Desa Jl. Wangunjaya, Cisomang Barat, East Cikalong, West Bandung Regency";"JAWA BARAT";"40556";"Indonesia";"";"";"";"-6.7231428";"107.4665175";"https://maps.google.com/?cid=0x0:0x55608261262844b7";""
"toko bangunan";"Toko Bahan Bangunan";"TB. Sumber Jaya Ca";"Jalan Raya Cikalong Wetan No.10, Cikalong, Kec. Cikalong Wetan, Kabupaten Bandung Barat, Jawa Barat 40556";"Cikalong, Kec. Cikalong Wetan, Kabupaten Bandung Barat";"JAWA BARAT";"40556";"Indonesia";" 0226971022";"";"";"-6.7361534";"107.4378894";"https://maps.google.com/?cid=0x0:0xb5a850e318bb2794";""
"toko bangunan";"Pemasok Bahan Bangunan";"Tb Jaya Putra Mandiri";"7C6H+282, Jl. Cikalong - Cipeundeuy, Cikalong, Kec. Cikalong Wetan, Kabupaten Bandung Barat, Jawa Barat 40556";"Jl. Cikalong - Cipeundeuy, Cikalong, Kec. Cikalong Wetan, Kabupaten Bandung Barat";"JAWA BARAT";"40556";"Indonesia";"";"";"";"-6.7399901";"107.4282584";"https://maps.google.com/?cid=0x0:0x4e0ed7a3af084879";""
"toko bangunan";"Toko Bahan Bangunan";"Tb.putra Mahkota";"Jl. Raya Purwakarta No.163, Mandalasari, Kec. Cikalong Wetan, Kabupaten Bandung Barat, Jawa Barat 40556";"Mandalasari, Kec. Cikalong Wetan, Kabupaten Bandung Barat";"JAWA BARAT";"40556";"Indonesia";" 087822102774";"";"";"-6.7574289";"107.4455057";"https://maps.google.com/?cid=0x0:0x15a0d0114f8ec54a";""
"toko bangunan";"Toko Bahan Bangunan";"TB SINAR SAKTI";"7FJ6+2G6, Cisomang Bar., Kec. Cikalong Wetan, Kabupaten Bandung Barat, Jawa Barat 40556";"Cisomang Bar., Kec. Cikalong Wetan, Kabupaten Bandung Barat";"JAWA BARAT";"40556";"Indonesia";" 083869928725";"";"";"-6.7199703";"107.4612708";"https://maps.google.com/?cid=0x0:0xfdf0d3a9296dc8d9";""
"toko bangunan";"Masjid";"TB HND";"Jl. Desa Cisomang Barat No.226, Wangunjaya, Kec. Cikalong Wetan, Kabupaten Bandung Barat, Jawa Barat 40556";"Wangunjaya, Kec. Cikalong Wetan, Kabupaten Bandung Barat";"JAWA BARAT";"40556";"Indonesia";" 087821550904";"";"";"-6.7201199";"107.4630043";"https://maps.google.com/?cid=0x0:0x39ed4e5f0b8ed0e7";""
"toko bangunan";"Toko Bahan Bangunan";"TB SUMBER JAYA CA PUTRA";"Jl. Kadudamping - Padayungan, Tenjolaut, Kec. Cikalong Wetan, Kabupaten Bandung Barat, Jawa Barat 40556";"Tenjolaut, Kec. Cikalong Wetan, Kabupaten Bandung Barat";"JAWA BARAT";"40556";"Indonesia";" 087821440574";"";"";"-6.7074731";"107.4246673";"https://maps.google.com/?cid=0x0:0x5267b5cd104a462c";""
"toko bangunan";"Toko Bahan Bangunan";"TB 234 Maswati";"6CWV+VJJ, Jl. Cikalong, Mandalamukti, Kec. Cikalong Wetan, Kabupaten Bandung Barat, Jawa Barat 40556";"Jl. Cikalong, Mandalamukti, Kec. Cikalong Wetan, Kabupaten Bandung Barat";"JAWA BARAT";"40556";"Indonesia";" 0226970213";"";"";"-6.752799";"107.44401";"https://maps.google.com/?cid=0x0:0x2dc9e555a75cc895";""
"toko bangunan";"Toko Bahan Bangunan";"TB Aboe Jaya";"7C7R+W7V, Unnamed Road, Ciptagumati, Kec. Cikalong Wetan, Kabupaten Bandung Barat, Jawa Barat 40556";"Unnamed Road, Ciptagumati, Kec. Cikalong Wetan, Kabupaten Bandung Barat";"JAWA BARAT";"40556";"Indonesia";" 087705382537";"";"";"-6.7351255";"107.4406869";"https://maps.google.com/?cid=0x0:0x4d7e87a80c32faaf";""
"toko bangunan";"Pemasok Bahan Bangunan";"Tb Jaya Bungsu";"7C8G+WQJ, Unnamed Road, Cikalong, Kec. Cikalong Wetan, Kabupaten Bandung Barat, Jawa Barat 40556";"Unnamed Road, Cikalong, Kec. Cikalong Wetan, Kabupaten Bandung Barat";"JAWA BARAT";"40556";"Indonesia";" 083816502483";"";"";"-6.7326552";"107.4268917";"https://maps.google.com/?cid=0x0:0x4edbd6cedfbddfb2";""
"toko bangunan";"Toko Bahan Bangunan";"Tb mustika putra";"7FFC+665, Jl. Desa Cisomang Barat, Wangunjaya, Kec. Cikalong Wetan, Kabupaten Bandung Barat, Jawa Barat 40556";"Jl. Desa Cisomang Barat, Wangunjaya, Kec. Cikalong Wetan, Kabupaten Bandung Barat";"JAWA BARAT";"40556";"Indonesia";" 081910397289";"";"";"-6.726995";"107.4706";"https://maps.google.com/?cid=0x0:0xa455af362d26180b";""
"toko bangunan";"Distributor Baja";"Mega Baja Cikalong - Distributor Besi | Atap UPVC | Baja Ringan | Plat Cutting Laser";"Jalur Cikampek - Padalarang No.342, Ciptagumati, Kec. Cikalong Wetan, Kabupaten Bandung Barat, Jawa Barat 40556";"Ciptagumati, Kec. Cikalong Wetan, Kabupaten Bandung Barat";"JAWA BARAT";"40556";"Indonesia";" 081211188474";"";"/url?q>>u003dhttps://www.megabajacikalong.com/>>u0026opi>>u003d79508299>>u0026sa>>u003dU>>u0026ved>>u003d0ahUKEwiw-tSj-L-LAxXYrVYBHfG1GzgQ61gIFigS>>u0026usg>>u003dAOvVaw03B0MH-MWcQB-ehVK1BomW";"-6.7418305";"107.4414217";"https://maps.google.com/?cid=0x0:0x16ed06f47b6998eb";""
"toko bangunan";"Toko Bahan Bangunan";"TB CHJ Mandiri";"Ciasari, Mandalasari, Kec. Cikalong Wetan, Kabupaten Bandung Barat, Jawa Barat 40556";"Mandalasari, Kec. Cikalong Wetan, Kabupaten Bandung Barat";"JAWA BARAT";"40556";"Indonesia";" 083842222356";"";"";"-6.7638929";"107.4231302";"https://maps.google.com/?cid=0x0:0x8be3374283b9cb96";""
"toko bangunan";"Toko Bahan Bangunan";"TB Progo";"7C74+W6Q, Jl. Raya Kp. Rende - Cikalong - Bandung Barat, Rende, Kec. Cikalong Wetan, Kabupaten Bandung Barat, Jawa Barat 40556";"Jl. Raya Kp. Rende - Cikalong - Bandung Barat, Rende, Kec. Cikalong Wetan, Kabupaten Bandung Barat";"JAWA BARAT";"40556";"Indonesia";"";"";"";"-6.7351677";"107.4056063";"https://maps.google.com/?cid=0x0:0xc19e829456252f6a";""
"toko bangunan";"Toko Alat Listrik";"PerkakasiD";"Perumahan Bukit Munjul Indah Blok F no 2, Cikalong, Kec. Cikalong Wetan, Kabupaten Bandung Barat, Jawa Barat 40556";"Cikalong, Kec. Cikalong Wetan, Kabupaten Bandung Barat";"JAWA BARAT";"40556";"Indonesia";" 083816153433";"";"";"-6.7281906";"107.4242292";"https://maps.google.com/?cid=0x0:0x871a8aa1a8c97b80";""
"toko bangunan";"Toko Bahan Bangunan";"TB.Fajar Putra";"7CGX+2JV, Jalur Cikampek - Padalarang, Cisomang Bar., Kec. Cikalong Wetan, Kabupaten Bandung Barat, Jawa Barat 40556";"Jalur Cikampek - Padalarang, Cisomang Bar., Kec. Cikalong Wetan, Kabupaten Bandung Barat";"JAWA BARAT";"40556";"Indonesia";"";"";"";"-6.7248874";"107.4490484";"https://maps.google.com/?cid=0x0:0xa29346fc1e000780";""
"toko bangunan";"Pusat Perbelanjaan";"Tb. sari baja cililin";"2C9Q+J9X, Mukapayung, Kec. Cililin, Kabupaten Bandung Barat, Jawa Barat";"Kabupaten Bandung Barat, Jawa Barat";"JAWA BARAT";"";"Indonesia";" 085222208351";"";"";"-6.9808857";"107.4384755";"https://maps.google.com/?cid=0x0:0xc62f48dfb7cf11bb";""
"toko bangunan";"Toko Bahan Bangunan";"Tb. Putra Sari dagang Cililin";"Ciririp Bangsaya No.29, Mukapayung, Kec. Cililin, Kabupaten Bandung Barat, Jawa Barat 40562";"Mukapayung, Kec. Cililin, Kabupaten Bandung Barat";"JAWA BARAT";"40562";"Indonesia";" 087739701650";"";"";"-6.983448";"107.4364638";"https://maps.google.com/?cid=0x0:0xb8b95989db8970b8";""
"toko bangunan";"Toko Bahan Bangunan";"TB. Mutiara Jaya";"3F4C+W64, Jl. Saar Mutiara, Karangtanjung, Kec. Cililin, Kabupaten Bandung Barat, Jawa Barat 40562";"Jl. Saar Mutiara, Karangtanjung, Kec. Cililin, Kabupaten Bandung Barat";"JAWA BARAT";"40562";"Indonesia";" 0226940434";"";"";"-6.942726";"107.470576";"https://maps.google.com/?cid=0x0:0x4068c9b1d3f7b024";""
"toko bangunan";"Toko Bahan Bangunan";"TB Boga Seni Berkah";"2FW5+6G7, Cililin, Kec. Cililin, Kabupaten Bandung Barat, Jawa Barat 40562";"Cililin, Kec. Cililin, Kabupaten Bandung Barat";"JAWA BARAT";"40562";"Indonesia";"";"";"";"-6.954452";"107.4587992";"https://maps.google.com/?cid=0x0:0x2d55f49bb5b27b94";""
"toko bangunan";"Toko Bahan Bangunan";"TB Kabul Mulya";"Cililin - Cihampelas, Karangtanjung, Kec. Cililin, Kabupaten Bandung Barat, Jawa Barat 40562";"Karangtanjung, Kec. Cililin, Kabupaten Bandung Barat";"JAWA BARAT";"40562";"Indonesia";" 0895342928537";"";"";"-6.9508809";"107.4624001";"https://maps.google.com/?cid=0x0:0x8d4ebb872b7936d7";""
"toko bangunan";"Toko Bahan Bangunan";"Tb. Sinar Mas";"2FR2+63G, Batulayang, Kec. Cililin, Kabupaten Bandung Barat, Jawa Barat 40562";"Batulayang, Kec. Cililin, Kabupaten Bandung Barat";"JAWA BARAT";"40562";"Indonesia";"";"";"";"-6.9594451";"107.4502129";"https://maps.google.com/?cid=0x0:0xc2af007f2bfcb29f";""
"toko bangunan";"Toko Bahan Bangunan";"TB.BAROKAH ABADI";"3C6V+498, Budiharja, Kec. Cililin, Kabupaten Bandung Barat, Jawa Barat 40562";"Budiharja, Kec. Cililin, Kabupaten Bandung Barat";"JAWA BARAT";"40562";"Indonesia";" 082119705643";"";"";"-6.9389351";"107.4437145";"https://maps.google.com/?cid=0x0:0x52b64b0da5a5f2aa";""
"toko bangunan";"Toko Bahan Bangunan";"TB PUTRA BAROKAH";"Jl. Pasirmeong Tonggoh Cililin, Budiharja, Kec. Cililin, Kabupaten Bandung Barat, Jawa Barat 40562";"Budiharja, Kec. Cililin, Kabupaten Bandung Barat";"JAWA BARAT";"40562";"Indonesia";" 081529954655";"";"";"-6.9429054";"107.4421734";"https://maps.google.com/?cid=0x0:0xfc89884bbc88c847";""
"toko bangunan";"Toko";"Jaya Tama. TB";"JL. Cililin Utara, No. 1, Bandung Barat, Cililin, Bandung, Kabupaten Bandung Barat, Jawa Barat 40562";"No. 1, Bandung Barat, Cililin, Bandung, Kabupaten Bandung Barat";"JAWA BARAT";"40562";"Indonesia";" 0226940554";"";"";"-6.9534481";"107.4599854";"https://maps.google.com/?cid=0x0:0xedbc2ef8a15a511c";""
"toko bangunan";"Toko Bahan Bangunan";"Tb.Sinar Mandiri";"Jl. Raya Cililin Sindang Kerta No.57, RT.01/RW.15, Batulayang, Kec. Cililin, Kabupaten Bandung Barat, Jawa Barat 40562";"RT.01/RW.15, Batulayang, Kec. Cililin, Kabupaten Bandung Barat";"JAWA BARAT";"40562";"Indonesia";"";"";"";"-6.9606827";"107.4470422";"https://maps.google.com/?cid=0x0:0xc2f5d6d7e616afa5";""
"toko bangunan";"Toko Bahan Bangunan";"TB.Bangun jaya";"Jl. Citapen - Ciraden No.37, Citapen, Kec. Cihampelas, Kabupaten Bandung Barat, Jawa Barat 40562";"Citapen, Kec. Cihampelas, Kabupaten Bandung Barat";"JAWA BARAT";"40562";"Indonesia";" 081321106401";"";"";"-6.9379798";"107.4958897";"https://maps.google.com/?cid=0x0:0x6812a2dc637d8825";""
"toko bangunan";"Toko Bahan Bangunan";"Tb. Ilham Jaya";"Karangtanjung, Kec. Cililin, Kabupaten Bandung Barat, Jawa Barat 40562";"Kec. Cililin, Kabupaten Bandung Barat";"JAWA BARAT";"40562";"Indonesia";"";"";"";"-6.9439315";"107.4682777";"https://maps.google.com/?cid=0x0:0x8103c41940cc28ff";""
"toko bangunan";"toko bangunan";"Toko Besi Sumber Baja Cililin";"Kp. cileutik, RT.1/RW.13, Cililin, Kec. Cililin, Kabupaten Bandung Barat, Jawa Barat 40562";"RT.1/RW.13, Cililin, Kec. Cililin, Kabupaten Bandung Barat";"JAWA BARAT";"40562";"Indonesia";" 0812114114";"";"";"-6.9537241";"107.4506861";"https://maps.google.com/?cid=0x0:0xe17fb83044b87e23";""
"toko bangunan";"Toko Bahan Bangunan";"T.B. Saluyu";"2C7Q+8RG, Ciririp Bangsaya, Mukapayung, Kec. Cililin, Kabupaten Bandung Barat, Jawa Barat 40562";"Ciririp Bangsaya, Mukapayung, Kec. Cililin, Kabupaten Bandung Barat";"JAWA BARAT";"40562";"Indonesia";"";"";"";"-6.9866901";"107.4395863";"https://maps.google.com/?cid=0x0:0x36350591bb2033ca";""
"toko bangunan";"Toko Bahan Bangunan";"Saputra Jaya Cipanji (SPJ Cipanji)";"Jalan Raya Cihampelas - citapen, Kp Jl. Raya Cipanji No.15, Cihampelas, Kec. Cihampelas, Kabupaten Bandung Barat, Jawa Barat 40562";"Kp Jl. Raya Cipanji No.15, Cihampelas, Kec. Cihampelas, Kabupaten Bandung Barat";"JAWA BARAT";"40562";"Indonesia";" 082121061367";"";"";"-6.9259013";"107.4814622";"https://maps.google.com/?cid=0x0:0x26253f20b9c0e7bf";""
"toko bangunan";"Toko Bahan Bangunan";"PD. Putera Mandiri";"Jalan Raya Cipetir, Karangtanjung, Kec. Cililin, Kabupaten Bandung Barat, Jawa Barat 40562";"Karangtanjung, Kec. Cililin, Kabupaten Bandung Barat";"JAWA BARAT";"40562";"Indonesia";" 0895416180995";"";"";"-6.9522794";"107.4609264";"https://maps.google.com/?cid=0x0:0x4f4ffad2a458d2b6";""
"toko bangunan";"Toko Bahan Bangunan";"Saputra Jaya 1";"Jl. Sasak Bubur No.24, Mekarmukti, Kec. Cihampelas, Kabupaten Bandung Barat, Jawa Barat 40562";"Mekarmukti, Kec. Cihampelas, Kabupaten Bandung Barat";"JAWA BARAT";"40562";"Indonesia";" 02286006119";"";"";"-6.9322756";"107.4756641";"https://maps.google.com/?cid=0x0:0xc010d211869347a5";""
"toko bangunan";"Toko Bahan Bangunan";"Citra Gypsum";"3F28+562, Jl. Manapa, Karangtanjung, Kec. Cililin, Kabupaten Bandung Barat, Jawa Barat 40562";"Jl. Manapa, Karangtanjung, Kec. Cililin, Kabupaten Bandung Barat";"JAWA BARAT";"40562";"Indonesia";" 081220532646";"";"";"-6.9496223";"107.4655163";"https://maps.google.com/?cid=0x0:0x7313466f4c34aa4f";""
"toko bangunan";"Toko Bahan Bangunan";"Tb Ss jaya";"Jl. Pangauban No.40, Pangauban, Kec. Batujajar, Kabupaten Bandung Barat, Jawa Barat 40561";"Pangauban, Kec. Batujajar, Kabupaten Bandung Barat";"JAWA BARAT";"40561";"Indonesia";" 02287780766";"";"";"-6.9061246";"107.46204";"https://maps.google.com/?cid=0x0:0x35b99459643380c7";""
"toko bangunan";"toko bangunan";"Jawa Barat 40562";"Kec. Cihampelas, Kabupaten Bandung Barat, Jawa Barat";"Kabupaten Bandung Barat, Jawa Barat";"JAWA BARAT";"";"Indonesia";"";"";"";"-6.9546601";"107.4558555";"https://maps.google.com/?cid=0x0:0x1c00c5eb568ebed0";""
"toko bangunan";"Toko Bahan Bangunan";"Citra Jaya Mart";"blok, Sinar jaya No.016, RW.RT.002, Batujajar Bar., Kec. Batujajar, Kabupaten Bandung Barat, Jawa Barat 40561";"Sinar jaya No.016, RW.RT.002, Batujajar Bar., Kec. Batujajar, Kabupaten Bandung Barat";"JAWA BARAT";"40561";"Indonesia";" 08562018338";"";"";"-6.9245471";"107.496024";"https://maps.google.com/?cid=0x0:0x846780b3f67773a4";""
"toko bangunan";"Toko Bahan Bangunan";"Tb Am Jaya";"Jl. Raya Pembangunan No.500, Mekarjaya, Kec. Cihampelas, Kabupaten Bandung Barat, Jawa Barat 40562";"Mekarjaya, Kec. Cihampelas, Kabupaten Bandung Barat";"JAWA BARAT";"40562";"Indonesia";"";"";"";"-6.9100815";"107.4489419";"https://maps.google.com/?cid=0x0:0xa499a8c830a5e140";""
"toko bangunan";"toko bangunan";"Avian Brands JSM Citapen";"Jl. Raya Cihampelas Jl. Citapen - Ciraden No.99 A, RT.03/RW.09, Citapen, Kec. Cihampelas, Bandung, Jawa Barat 40562";"RT.03/RW.09, Citapen, Kec. Cihampelas, Bandung";"JAWA BARAT";"40562";"Indonesia";" 089637354687";"";"";"-6.933733";"107.4976578";"https://maps.google.com/?cid=0x0:0x8d5227dcddf53533";""
"toko bangunan";"Toko Bahan Bangunan";"Toko Bahan Bangunan Makmur Jaya Mandiri";"Citapen, Kec. Cihampelas, Kabupaten Bandung Barat, Jawa Barat 40562";"Kec. Cihampelas, Kabupaten Bandung Barat";"JAWA BARAT";"40562";"Indonesia";"";"";"";"-6.9416196";"107.4968192";"https://maps.google.com/?cid=0x0:0xde40d12d197d2420";""
"toko bangunan";"Toko Bahan Bangunan";"TB. Berkah - Situwangi";"Genteng No.19-51, Cipatik, Kec. Cihampelas, Kabupaten Bandung Barat, Jawa Barat 40562";"Cipatik, Kec. Cihampelas, Kabupaten Bandung Barat";"JAWA BARAT";"40562";"Indonesia";" 08122184933";"";"";"-6.9416744";"107.5110017";"https://maps.google.com/?cid=0x0:0x37ff4d641ff639f0";""
"toko bangunan";"Toko Perlengkapan Rumah";"TB Karya Mulya";"no.514 sukarame,, Jl. Raya Cipatat, Cipatat, Kec. Cipatat, Kabupaten Bandung Barat, Jawa Barat 40554";"Jl. Raya Cipatat, Cipatat, Kec. Cipatat, Kabupaten Bandung Barat";"JAWA BARAT";"40554";"Indonesia";"";"";"";"-6.8318699";"107.3654924";"https://maps.google.com/?cid=0x0:0xbdf041ba8b1c6e98";""
"toko bangunan";"Pemasok Bahan Bangunan";"Toko Bangunan 4 Saudara";"Kp. Jambudipa No.01, RW.08, Kertamukti, Kec. Cipatat, Kabupaten Bandung Barat, Jawa Barat 40554";"RW.08, Kertamukti, Kec. Cipatat, Kabupaten Bandung Barat";"JAWA BARAT";"40554";"Indonesia";" 083100705241";"";"";"-6.8155006";"107.3804875";"https://maps.google.com/?cid=0x0:0xfeac3a16a4636345";""
"toko bangunan";"Pemasok Bahan Bangunan";"Kurnia Jaya";"Jl. Raya Rajamandala No.439, Rajamandala Kulon, Kec. Cipatat, Kabupaten Bandung Barat, Jawa Barat 40554";"Rajamandala Kulon, Kec. Cipatat, Kabupaten Bandung Barat";"JAWA BARAT";"40554";"Indonesia";" 08176900030";"";"";"-6.832928";"107.3496769";"https://maps.google.com/?cid=0x0:0xec3c0d753377b0fa";""
"toko bangunan";"Toko Bahan Bangunan";"TB Material Abah";"Kp. Cisadang No 24, Rajamandalakulon, Rajamandala Kulon, Kec. Cipatat, Kabupaten Bandung Barat, Jawa Barat 40554";"Rajamandalakulon, Rajamandala Kulon, Kec. Cipatat, Kabupaten Bandung Barat";"JAWA BARAT";"40554";"Indonesia";"";"";"";"-6.8296157";"107.3482385";"https://maps.google.com/?cid=0x0:0x32c1c688c432c98c";""
"toko bangunan";"Toko Bahan Bangunan";"Tb. Pm. Jaya - Cipatat";"58MV+WJG, Jl. Cipeundeuy - Rajamandala, Sarimukti, Kec. Cipatat, Kabupaten Bandung Barat, Jawa Barat 40554";"Jl. Cipeundeuy - Rajamandala, Sarimukti, Kec. Cipatat, Kabupaten Bandung Barat";"JAWA BARAT";"40554";"Indonesia";"";"";"";"-6.8151767";"107.3440937";"https://maps.google.com/?cid=0x0:0x5531f87621861775";""
"toko bangunan";"Toko Bahan Bangunan";"Tb. Asri Jaya";"Jl. Raya Cipatat No.64, Cipatat, Kec. Cipatat, Kabupaten Bandung Barat, Jawa Barat 40554";"Cipatat, Kec. Cipatat, Kabupaten Bandung Barat";"JAWA BARAT";"40554";"Indonesia";"";"";"";"-6.8308636";"107.3691183";"https://maps.google.com/?cid=0x0:0xad12e2d06bd57d19";""
"toko bangunan";"Toko Bahan Bangunan";"TB Sinar Jaya";"59CC+GG8, Cipatat, Kec. Cipatat, Kabupaten Bandung Barat, Jawa Barat 40554";"Cipatat, Kec. Cipatat, Kabupaten Bandung Barat";"JAWA BARAT";"40554";"Indonesia";" 081910480398";"";"";"-6.8287071";"107.3713298";"https://maps.google.com/?cid=0x0:0x51683856e32de29f";""
"toko bangunan";"Toko Bahan Bangunan";"Toko besi BBM CIPATAT";"5997+24P, Cipatat, Kec. Cipatat, Kabupaten Bandung Barat, Jawa Barat 40554";"Cipatat, Kec. Cipatat, Kabupaten Bandung Barat";"JAWA BARAT";"40554";"Indonesia";" 082211234509";"";"";"-6.8324098";"107.3628369";"https://maps.google.com/?cid=0x0:0x9bbea7c55da37766";""
"toko bangunan";"Toko Bahan Bangunan";"TB Kurnia 2";"Jl. Raya Rajamandala No.430, Rajamandala Kulon, Kec. Cipatat, Kabupaten Bandung Barat, Jawa Barat 40554";"Rajamandala Kulon, Kec. Cipatat, Kabupaten Bandung Barat";"JAWA BARAT";"40554";"Indonesia";"";"";"";"-6.8327944";"107.3538558";"https://maps.google.com/?cid=0x0:0x9e151c0eb95d847b";""
"toko bangunan";"Jasa Konstruksi dan Bangunan";"TB Barokah";"Jl. Cibogo Sawo No.200, Cipatat, Kec. Cipatat, Kabupaten Bandung Barat, Jawa Barat 40554";"Cipatat, Kec. Cipatat, Kabupaten Bandung Barat";"JAWA BARAT";"40554";"Indonesia";"";"";"";"-6.8301375";"107.3720334";"https://maps.google.com/?cid=0x0:0xaaa65604fc1a9b14";""
"toko bangunan";"Toko Bahan Bangunan";"TB. Karya Makmur Sejahtera";"Jl. Raya Rajamandala, Mandalawangi, Kec. Cipatat, Kabupaten Bandung Barat, Jawa Barat 40554";"Mandalawangi, Kec. Cipatat, Kabupaten Bandung Barat";"JAWA BARAT";"40554";"Indonesia";" 08122228626";"";"";"-6.8322778";"107.3618288";"https://maps.google.com/?cid=0x0:0xff2900631bc7e858";""
"toko bangunan";"Jasa Konstruksi dan Bangunan";"DISTRIBUTOR PLAFON PVC BANDUNG BARAT AGEN";"Kp.sawah lega, RT.02/RW.17, Ciptaharja, Kec. Cipatat, Kabupaten Bandung Barat, Jawa Barat 40554";"RT.02/RW.17, Ciptaharja, Kec. Cipatat, Kabupaten Bandung Barat";"JAWA BARAT";"40554";"Indonesia";" 085314508967";"";"";"-6.8326164";"107.3542678";"https://maps.google.com/?cid=0x0:0x492d9480911cf044";""
"toko bangunan";"Toko Bahan Bangunan";"TB Rahayu Jaya";"588X+Q5X, Jl. Cibogo Sawo, Mandalawangi, Kec. Cipatat, Kabupaten Bandung Barat, Jawa Barat 40554";"Jl. Cibogo Sawo, Mandalawangi, Kec. Cipatat, Kabupaten Bandung Barat";"JAWA BARAT";"40554";"Indonesia";" 0226900139";"";"";"-6.8330053";"107.3479715";"https://maps.google.com/?cid=0x0:0x76df16e27e182657";""
"toko bangunan";"Tukang Kayu";"ZN Putra Mandiri";"59FH+38H, Jl. Cibogo Sawo, Cipatat, Kec. Cipatat, Kabupaten Bandung Barat, Jawa Barat 40554";"Jl. Cibogo Sawo, Cipatat, Kec. Cipatat, Kabupaten Bandung Barat";"JAWA BARAT";"40554";"Indonesia";" 08313122475";"";"";"-6.8273012";"107.3783571";"https://maps.google.com/?cid=0x0:0x2b57d037abf3d3f0";""
"toko bangunan";"toko bangunan";"Cv alumunindo jaya steel";"Jl. Raya Rajamandala No.5, Rajamandala Kulon, Kec. Cipatat, Kabupaten Bandung Barat, Jawa Barat 40554";"Rajamandala Kulon, Kec. Cipatat, Kabupaten Bandung Barat";"JAWA BARAT";"40554";"Indonesia";"";"";"";"-6.8326646";"107.355509";"https://maps.google.com/?cid=0x0:0x68c9615b07eeb285";""
"toko bangunan";"Toko Bahan Bangunan";"Toko Bangunan Barokah";"Jl. Raya Cipatat No.477, Cipatat, Kec. Cipatat, Kabupaten Bandung Barat, Jawa Barat 40554";"Cipatat, Kec. Cipatat, Kabupaten Bandung Barat";"JAWA BARAT";"40554";"Indonesia";" 0895346999331";"";"";"-6.8305598";"107.3710569";"https://maps.google.com/?cid=0x0:0x24aaebce2fab42e1";""
"toko bangunan";"Toko Cat";"Toko Cat Tembok Kiloan TOPNAS PAINT";"Rajamandala Kulon, Kec. Cipatat, Kabupaten Bandung Barat, Jawa Barat 40554";"Kec. Cipatat, Kabupaten Bandung Barat";"JAWA BARAT";"40554";"Indonesia";" 08562001428";"";"";"-6.8325655";"107.3541096";"https://maps.google.com/?cid=0x0:0xc6ee10d5c16eeccf";""
"toko bangunan";"Toko Bahan Bangunan";"TB. Sinar Hafiz";"5968+CW9, Cipatat, Kec. Cipatat, Kabupaten Bandung Barat, Jawa Barat 40554";"Cipatat, Kec. Cipatat, Kabupaten Bandung Barat";"JAWA BARAT";"40554";"Indonesia";" 082289707494";"";"";"-6.8389592";"107.3673439";"https://maps.google.com/?cid=0x0:0xbbc57b9e4c529ca2";""
"toko bangunan";"toko bangunan";"Cipatat";"Kec. Cipatat, Kabupaten Bandung Barat, Jawa Barat";"Kabupaten Bandung Barat, Jawa Barat";"JAWA BARAT";"";"Indonesia";"";"";"";"-6.8328448";"107.3487512";"https://maps.google.com/?cid=0x0:0x401e8f1fc28c5f0";""
"toko bangunan";"toko bangunan";"Indo Super Grosir Rajamandala";"Jl. Raya Rajamandala, Rajamandala Kulon, Kec. Cipatat, Kabupaten Bandung Barat, Jawa Barat 40554";"Rajamandala Kulon, Kec. Cipatat, Kabupaten Bandung Barat";"JAWA BARAT";"40554";"Indonesia";"";"";"";"-6.8332284";"107.3452313";"https://maps.google.com/?cid=0x0:0x1ea8ccb249414178";""
"toko bangunan";"Kantor Perusahaan";"TB GAVIN PRAKARSA";"Jl. Raya Cipatat No.200, Cipatat, Kec. Cipatat, Kabupaten Bandung Barat, Jawa Barat 40554";"Cipatat, Kec. Cipatat, Kabupaten Bandung Barat";"JAWA BARAT";"40554";"Indonesia";" 085721329009";"";"";"-6.8299295";"107.3720697";"https://maps.google.com/?cid=0x0:0x339fa73837f0df8e";""
"toko bangunan";"Toko Bahan Bangunan";"Toko Besi Amih";"5CM9+VVQ, Cirawamekar, Kec. Cipatat, Kabupaten Bandung Barat, Jawa Barat 40554";"Cirawamekar, Kec. Cipatat, Kabupaten Bandung Barat";"JAWA BARAT";"40554";"Indonesia";"";"";"";"-6.8152961";"107.4197194";"https://maps.google.com/?cid=0x0:0xe8c1cec094efade3";""
"toko bangunan";"Produsen Rangka Baja Atap";"CV. SUKARAME TUNGGAL JAYA";"Jl. Desa Ciptaharja No.11, Ciptaharja, Kec. Cipatat, Kabupaten Bandung Barat, Jawa Barat 40554";"Ciptaharja, Kec. Cipatat, Kabupaten Bandung Barat";"JAWA BARAT";"40554";"Indonesia";" 081224706660";"";"";"-6.8336256";"107.3681086";"https://maps.google.com/?cid=0x0:0xd294e3d827b72a9";""
"toko bangunan";"Pemasok Bahan Bangunan";"CV.HIBER (Suplier bahan bangunan)";"6C5M+43Q, kp Cikubang, RT.01/RW.05, Nyalindung, Kec. Cipatat, Kabupaten Bandung Barat, Jawa Barat 40554";"kp Cikubang, RT.01/RW.05, Nyalindung, Kec. Cipatat, Kabupaten Bandung Barat";"JAWA BARAT";"40554";"Indonesia";" 087722756878";"";"";"-6.7921613";"107.4327308";"https://maps.google.com/?cid=0x0:0xe9c6d5b796183391";""
"toko bangunan";"toko bangunan";"Toko Bangunan SB Jaya";"6C3G+HC6, Sumurbandung, Kec. Cipatat, Kabupaten Bandung Barat, Jawa Barat 40554";"Sumurbandung, Kec. Cipatat, Kabupaten Bandung Barat";"JAWA BARAT";"40554";"Indonesia";" 081809702400";"";"";"-6.7960923";"107.4260061";"https://maps.google.com/?cid=0x0:0xa06798b68ed1935e";""
"toko bangunan";"toko bangunan";"Baja sakti Mandala";"58FX+W86, Ciburahol, Rajamandala Kulon, Kec. Cipatat, Kabupaten Bandung Barat, Jawa Barat 40554";"Ciburahol, Rajamandala Kulon, Kec. Cipatat, Kabupaten Bandung Barat";"JAWA BARAT";"40554";"Indonesia";" 083112601517";"";"";"-6.8252221";"107.3482625";"https://maps.google.com/?cid=0x0:0x9d0c0369b7f15d14";""
"toko bangunan";"Toko Bahan Bangunan";"TB AKMAL JAYA BAROKAH";"Jl, kp Ciburahol No.RT.4, Rajamandala Kulon, rw020, Kabupaten Bandung Barat, Jawa Barat 40554";"kp Ciburahol No.RT.4, Rajamandala Kulon, rw020, Kabupaten Bandung Barat";"JAWA BARAT";"40554";"Indonesia";" 081809100848";"";"";"-6.8244178";"107.3485036";"https://maps.google.com/?cid=0x0:0xf6f19a5a92b82b08";""
"toko bangunan";"Toko Bahan Bangunan";"ENDANG MEBEUL";"Jl. Cijengkol Subang, Nyalindung, Kec. Cipatat, Kabupaten Bandung Barat, Jawa Barat 40554";"Nyalindung, Kec. Cipatat, Kabupaten Bandung Barat";"JAWA BARAT";"40554";"Indonesia";" 085221440899";"";"";"-6.7901455";"107.4424231";"https://maps.google.com/?cid=0x0:0x284109b81d6dea1c";""
"toko bangunan";"Toko Bahan Bangunan";"TB. Berkah Jaya";"Jl. Raya Wantilan-Cipeundeuy, Cipeundeuy, Kec. Cipeundeuy, Kabupaten Subang, Jawa Barat 41272";"Cipeundeuy, Kec. Cipeundeuy, Kabupaten Subang";"JAWA BARAT";"41272";"Indonesia";" 085215616838";"";"";"-6.4985689";"107.5856125";"https://maps.google.com/?cid=0x0:0x18c0e76231ec65b1";""
"toko bangunan";"Pemasok Bahan Bangunan";"Toko Bahan Bangunan Yadi";"79PF+653, Unnamed Road, Sirnagalih, Kecamaten Cipeundeuy, Kabupaten Bandung Barat, Jawa Barat 40558";"Unnamed Road, Sirnagalih, Kecamaten Cipeundeuy, Kabupaten Bandung Barat";"JAWA BARAT";"40558";"Indonesia";"";"";"";"-6.7144757";"107.3729239";"https://maps.google.com/?cid=0x0:0x3334a12a15da1454";""
"toko bangunan";"Toko Bahan Bangunan";"Super Bangunan Supermarket Bahan Bangun No #1";"Jl. Raya Cikaret No.8, Harapan Jaya, Kec. Cibinong, Kabupaten Bogor, Jawa Barat 16914";"Harapan Jaya, Kec. Cibinong, Kabupaten Bogor";"JAWA BARAT";"16914";"Indonesia";" 085710923235";"";"/url?q>>u003dhttps://www.superbangunan.co.id/>>u0026opi>>u003d79508299>>u0026sa>>u003dU>>u0026ved>>u003d0ahUKEwjiroeE-b-LAxXOklYBHV2jJskQ61gIFigS>>u0026usg>>u003dAOvVaw1Sc6g6RcEx7gggwD4MNHww";"-6.4669858";"106.8393338";"https://maps.google.com/?cid=0x0:0x53373791abd65da6";""
"toko bangunan";"Toko Bahan Bangunan";"Tb Marga Jaya";"79C2+6JV, Jl. Cipeundeuy - Ciroyom, Margalaksana, Kecamaten Cipeundeuy, Kabupaten Bandung Barat, Jawa Barat 40558";"Jl. Cipeundeuy - Ciroyom, Margalaksana, Kecamaten Cipeundeuy, Kabupaten Bandung Barat";"JAWA BARAT";"40558";"Indonesia";" 08174883014";"";"";"-6.7293824";"107.3515423";"https://maps.google.com/?cid=0x0:0xb26120566b364512";""
"toko bangunan";"Toko Bahan Bangunan";"Tb. Berkah Jaya";"79W2+8C7, Jl. Cirata, Ciroyom, Kecamaten Cipeundeuy, Kabupaten Bandung Barat, Jawa Barat 40558";"Jl. Cirata, Ciroyom, Kecamaten Cipeundeuy, Kabupaten Bandung Barat";"JAWA BARAT";"40558";"Indonesia";"";"";"";"-6.7042096";"107.3510384";"https://maps.google.com/?cid=0x0:0xaf3d6787242162c9";""
"toko bangunan";"Toko Bahan Bangunan";"Tb Mekar Jaya";"Jl. Cipeundeuy - Ciroyom No.57, Cipeundeuy, Kecamaten Cipeundeuy, Kabupaten Bandung Barat, Jawa Barat 40558";"Cipeundeuy, Kecamaten Cipeundeuy, Kabupaten Bandung Barat";"JAWA BARAT";"40558";"Indonesia";"";"";"";"-6.7345341";"107.3560284";"https://maps.google.com/?cid=0x0:0x85e126a969548fbd";""
"toko bangunan";"Toko Bahan Bangunan";"TB Rakasiwi Putra";"79F8+5PW, Sukahaji, Kecamaten Cipeundeuy, Kabupaten Bandung Barat, Jawa Barat 40558";"Sukahaji, Kecamaten Cipeundeuy, Kabupaten Bandung Barat";"JAWA BARAT";"40558";"Indonesia";"";"";"";"-6.7270046";"107.366833";"https://maps.google.com/?cid=0x0:0xd85ee81ab9abd40a";""
"toko bangunan";"Toko Bahan Bangunan";"TB BJA";"Kp rontog No.RT 004/011, Sukahaji, Kecamaten Cipeundeuy, Kabupaten Bandung Barat, Jawa Barat 40558";"Sukahaji, Kecamaten Cipeundeuy, Kabupaten Bandung Barat";"JAWA BARAT";"40558";"Indonesia";" 081214104959";"";"";"-6.7321251";"107.3543384";"https://maps.google.com/?cid=0x0:0x227985c32dcf06f6";""
"toko bangunan";"Toko Bahan Bangunan";"TB. Na Musti Jaya";"69VC+M9P, Jl. Cijati, Jatimekar, Kecamaten Cipeundeuy, Kabupaten Bandung Barat, Jawa Barat 40558";"Jl. Cijati, Jatimekar, Kecamaten Cipeundeuy, Kabupaten Bandung Barat";"JAWA BARAT";"40558";"Indonesia";" 083820381729";"";"";"-6.7557843";"107.3709579";"https://maps.google.com/?cid=0x0:0x2863889cf0e17c8f";""
"toko bangunan";"Toko bahan makanan";"CV Tiga Saudara";"69M4+62J, Jl. Cipeundeuy - Rajamandala, Nanggeleng, Kecamaten Cipeundeuy, Kabupaten Bandung Barat, Jawa Barat 40558";"Jl. Cipeundeuy - Rajamandala, Nanggeleng, Kecamaten Cipeundeuy, Kabupaten Bandung Barat";"JAWA BARAT";"40558";"Indonesia";" 02286866354";"";"";"-6.7669058";"107.3550247";"https://maps.google.com/?cid=0x0:0xb9b4a87cd16c21aa";""
"toko bangunan";"Toko Bahan Bangunan";"PD.Inti Bangunan";"79W2+78G, Jl. Cirata, Ciroyom, Kecamaten Cipeundeuy, Kabupaten Bandung Barat, Jawa Barat 40558";"Jl. Cirata, Ciroyom, Kecamaten Cipeundeuy, Kabupaten Bandung Barat";"JAWA BARAT";"40558";"Indonesia";"";"";"";"-6.7041929";"107.3507902";"https://maps.google.com/?cid=0x0:0xf0c4fa8a9c83f614";""
"toko bangunan";"toko bangunan";"TB. DK WIJAYA";"Kp Jl. Cirahayu, RT.003/RW.008, Nanggeleng, Kecamaten Cipeundeuy, Kabupaten Bandung Barat, Jawa Barat 40558";"RT.003/RW.008, Nanggeleng, Kecamaten Cipeundeuy, Kabupaten Bandung Barat";"JAWA BARAT";"40558";"Indonesia";" 083100479991";"";"";"-6.7694947";"107.3666922";"https://maps.google.com/?cid=0x0:0xdd6c338f0844e09b";""
"toko bangunan";"Toko Bahan Bangunan";"Toko Besi Jaya Sakti";"79GQ+2MC, Ciharashas, Kecamaten Cipeundeuy, Kabupaten Bandung Barat, Jawa Barat 40558";"Ciharashas, Kecamaten Cipeundeuy, Kabupaten Bandung Barat";"JAWA BARAT";"40558";"Indonesia";"";"";"";"-6.7249386";"107.3891297";"https://maps.google.com/?cid=0x0:0x4eb3efa3a6bc2a1f";""
"toko bangunan";"Toko Bahan Bangunan";"TB Jaya Waluya 2";"6847+7CV, Citangkil, Margaluyu, Kecamaten Cipeundeuy, Kabupaten Bandung Barat, Jawa Barat 40558";"Citangkil, Margaluyu, Kecamaten Cipeundeuy, Kabupaten Bandung Barat";"JAWA BARAT";"40558";"Indonesia";" 083142482017";"";"";"-6.7942912";"107.3135655";"https://maps.google.com/?cid=0x0:0xb4f5796c8c3531ad";""
"toko bangunan";"Toko Bahan Bangunan";"TB JAYA WALUYA";"793C+V33, Jl. Ciburial, Jatimekar, Kecamaten Cipeundeuy, Kabupaten Bandung Barat, Jawa Barat 40558";"Jl. Ciburial, Jatimekar, Kecamaten Cipeundeuy, Kabupaten Bandung Barat";"JAWA BARAT";"40558";"Indonesia";" 082214680088";"";"";"-6.745566";"107.3706005";"https://maps.google.com/?cid=0x0:0xd4b4cf89e1573763";""
"toko bangunan";"Toko Bahan Bangunan";"PD RAMA SANDI";"Jl. Nanggeleng - Sirnaraja No.2, Sirnaraja, Kecamaten Cipeundeuy, Kabupaten Bandung Barat, Jawa Barat 40558";"Sirnaraja, Kecamaten Cipeundeuy, Kabupaten Bandung Barat";"JAWA BARAT";"40558";"Indonesia";" 02260607080";"";"";"-6.7700796";"107.3742781";"https://maps.google.com/?cid=0x0:0x752827e53028cf1b";""
"toko bangunan";"Toko";"TB. Kian Jaya";"Jalan Raya Cijoget, Lengkong, Kec. Cipeundeuy, Kabupaten Subang, Jawa Barat 41272";"Lengkong, Kec. Cipeundeuy, Kabupaten Subang";"JAWA BARAT";"41272";"Indonesia";" 081394496039";"";"";"-6.5105058";"107.6157966";"https://maps.google.com/?cid=0x0:0xee3b51ff48280258";""
"toko bangunan";"Toko Bahan Bangunan";"Toko Bahan Bangunan ZA";"79HG+RRW, Ciharashas, Kecamaten Cipeundeuy, Kabupaten Bandung Barat, Jawa Barat 40558";"Ciharashas, Kecamaten Cipeundeuy, Kabupaten Bandung Barat";"JAWA BARAT";"40558";"Indonesia";"";"";"";"-6.7203846";"107.3770693";"https://maps.google.com/?cid=0x0:0x8559759676d27cbf";""
"toko bangunan";"toko bangunan";"TB Cahaya Barokah (Pak Eda)";"Jln.PLTA Cirata.Kp.Ciharashas Desa Ciharashas.Kec.Cipeundeuy Kab.Bandung, Barat, Kabupaten Bandung Barat, Jawa Barat 40558";"Barat, Kabupaten Bandung Barat";"JAWA BARAT";"40558";"Indonesia";"";"";"";"-6.7276994";"107.3808083";"https://maps.google.com/?cid=0x0:0x7b457f47eec141a6";""
"toko bangunan";"Toko Bahan Bangunan";"MR Batako";"Kp. Hegarmanah, RT.1/RW.1, Nyenang, Kecamaten Cipeundeuy, Kabupaten Bandung Barat, Jawa Barat 40558";"RT.1/RW.1, Nyenang, Kecamaten Cipeundeuy, Kabupaten Bandung Barat";"JAWA BARAT";"40558";"Indonesia";" 083853154162";"";"";"-6.7422065";"107.3590445";"https://maps.google.com/?cid=0x0:0xb8d37297ad67a1db";""
"toko bangunan";"Toko Bahan Bangunan";"TB Rakasiwi";"7944+RMV, Jl. Nyenang, Nyenang, Cipeundeuy, West Bandung Regency, West Java 40558";"Jl. Nyenang, Nyenang, Cipeundeuy, West Bandung Regency";"JAWA BARAT";"40558";"Indonesia";" 081214048300";"";"";"-6.7428935";"107.3566609";"https://maps.google.com/?cid=0x0:0xe6451622aa43f97e";""
"toko bangunan";"Toko Swalayan";"TB. Mamat";"Jl Raya Cipendeuy kampung Cijoged rt:16 rw:05, Lengkong, Kec. Cipeundeuy, Kabupaten Subang, Jawa Barat 41272";"Lengkong, Kec. Cipeundeuy, Kabupaten Subang";"JAWA BARAT";"41272";"Indonesia";" 081322490734";"";"";"-6.5107294";"107.6160287";"https://maps.google.com/?cid=0x0:0xc76ea1b30eb38440";""
"toko bangunan";"Toko";"TB. Kian Jaya";"Jalan Raya Cijoget, Lengkong, Kec. Cipeundeuy, Kabupaten Subang, Jawa Barat 41272";"Lengkong, Kec. Cipeundeuy, Kabupaten Subang";"JAWA BARAT";"41272";"Indonesia";" 081394496039";"";"";"-6.5105058";"107.6157966";"https://maps.google.com/?cid=0x0:0xee3b51ff48280258";""
"toko bangunan";"Toko Bahan Bangunan";"TB. Berkah Jaya";"Jl. Raya Wantilan-Cipeundeuy, Cipeundeuy, Kec. Cipeundeuy, Kabupaten Subang, Jawa Barat 41272";"Cipeundeuy, Kec. Cipeundeuy, Kabupaten Subang";"JAWA BARAT";"41272";"Indonesia";" 085215616838";"";"";"-6.4985689";"107.5856125";"https://maps.google.com/?cid=0x0:0x18c0e76231ec65b1";""
"toko bangunan";"Toko Perlengkapan Rumah";"PD.Laksana";"Dusun Cibeunying Kolot Rt 019/008, Wantilan, Kec. Cipeundeuy, Kabupaten Subang, Jawa Barat 41272";"Wantilan, Kec. Cipeundeuy, Kabupaten Subang";"JAWA BARAT";"41272";"Indonesia";" 082215584666";"";"";"-6.4834268";"107.5948132";"https://maps.google.com/?cid=0x0:0xeaa92cc1004461f1";""
"toko bangunan";"toko bangunan";"Toko Bangunan (TB. AS)";"Kp. Kosar 2, RT./RW/RW.007/003, Kosar, Kec. Cipeundeuy, Kabupaten Subang, Jawa Barat 41272";"RT./RW/RW.007/003, Kosar, Kec. Cipeundeuy, Kabupaten Subang";"JAWA BARAT";"41272";"Indonesia";" 081224875874";"";"";"-6.4543383";"107.631166";"https://maps.google.com/?cid=0x0:0xebb46fc44444d60d";""
"toko bangunan";"Toko Bahan Bangunan";"Toko Bangunan Agung Jaya";"FHG9+MW5, kp ciistal, Cimayasari, Kec. Cipeundeuy, Kabupaten Subang, Jawa Barat 41272";"kp ciistal, Cimayasari, Kec. Cipeundeuy, Kabupaten Subang";"JAWA BARAT";"41272";"Indonesia";"";"";"";"-6.5233736";"107.5698697";"https://maps.google.com/?cid=0x0:0x840ab2e8e6205ba1";""
"toko bangunan";"Toko Bahan Bangunan";"Den Bahar SM matrial";"GJXH+M9, Kosar, Kec. Cipeundeuy, Kabupaten Subang, Jawa Barat 41262";"Kosar, Kec. Cipeundeuy, Kabupaten Subang";"JAWA BARAT";"41262";"Indonesia";" 085351315132";"";"";"-6.4507064";"107.6284009";"https://maps.google.com/?cid=0x0:0xa07dcda169aa0ef1";""
"toko bangunan";"Pemasok Bahan Bangunan";"TB. CEMARA";"GJR8+3JQ, Kp Sukasari, Sawangan, Kec. Cipeundeuy, Kabupaten Subang, Jawa Barat 41272";"Kp Sukasari, Sawangan, Kec. Cipeundeuy, Kabupaten Subang";"JAWA BARAT";"41272";"Indonesia";" 082126826644";"";"";"-6.4597907";"107.6166099";"https://maps.google.com/?cid=0x0:0x2638440e05f3151";""
"toko bangunan";"Toko Bahan Bangunan";"Toko Bangunan DUA SODARA 2";"RT.03 Rw02, Banggalamulya, Kec. Kalijati, Kabupaten Subang, Jawa Barat 41272";"Banggalamulya, Kec. Kalijati, Kabupaten Subang";"JAWA BARAT";"41272";"Indonesia";" 083838036323";"";"";"-6.5651449";"107.6054612";"https://maps.google.com/?cid=0x0:0xfa7d6868068f342";""
"toko bangunan";"Toko Perlengkapan Rumah";"TB.Putri Ikhtiar";"Jl. Raya Cipendeuy No.RT 24/06, Tanggulun Bar., Kec. Kalijati, Kabupaten Subang, Jawa Barat 41271";"Tanggulun Bar., Kec. Kalijati, Kabupaten Subang";"JAWA BARAT";"41271";"Indonesia";"";"";"";"-6.5216774";"107.6422016";"https://maps.google.com/?cid=0x0:0x7cb1c37e1b42528e";""
"toko bangunan";"Toko Perlengkapan Rumah";"TB Bangkit Jaya";"Jl. Raya Wantilan-Cipeundeuy No.247, Cipeundeuy, Kec. Cipeundeuy, Kabupaten Subang, Jawa Barat 41272";"Cipeundeuy, Kec. Cipeundeuy, Kabupaten Subang";"JAWA BARAT";"41272";"Indonesia";"";"";"";"-6.5035232";"107.572545";"https://maps.google.com/?cid=0x0:0x45625afcf1bda03d";""
"toko bangunan";"Pemasok Bingkai Foto Kayu";"Lestari KUSEN BETON";"GH4W+P9F, Cipeundeuy, Kec. Cipeundeuy, Kabupaten Subang, Jawa Barat";"Kabupaten Subang, Jawa Barat";"JAWA BARAT";"";"Indonesia";" 085520785630";"";"";"-6.493185";"107.5959372";"https://maps.google.com/?cid=0x0:0x1127910e433c75ff";""
"toko bangunan";"Toko";"TB PARDI SANNYO";"Jl. Kp. Krajan No.ds, Panyingkiran, Kec. Purwadadi, Kabupaten Subang, Jawa Barat 41261";"Panyingkiran, Kec. Purwadadi, Kabupaten Subang";"JAWA BARAT";"41261";"Indonesia";" 085793333321";"";"";"-6.4429642";"107.6549374";"https://maps.google.com/?cid=0x0:0xc65d5628440e98b9";""
"toko bangunan";"Toko Bahan Bangunan";"TB. Al Alam Makmur";"GJJ4+5J5, Jl. Sawangan, Sawangan, Kec. Cipeundeuy, Kabupaten Subang, Jawa Barat 41272";"Jl. Sawangan, Sawangan, Kec. Cipeundeuy, Kabupaten Subang";"JAWA BARAT";"41272";"Indonesia";"";"";"";"-6.4696244";"107.6065944";"https://maps.google.com/?cid=0x0:0x903ae4dbe8f4306c";""
"toko bangunan";"Toko Bahan Bangunan";"Toko Sumber Bangunan";"Jl. Bukit Indah Permai No.10 Blok NB1, Wanakerta, Kec. Bungursari, Kabupaten Purwakarta, Jawa Barat 41181";"Wanakerta, Kec. Bungursari, Kabupaten Purwakarta";"JAWA BARAT";"41181";"Indonesia";" 0812777297";"";"";"-6.4564892";"107.4678044";"https://maps.google.com/?cid=0x0:0x1458a463462c042c";""
"toko bangunan";"Toko Bahan Bangunan";"TB Laksana Jaya";"Jl Raya Citenjo No.Rt 02/06, Cimahi, Kec. Campaka, Kabupaten Purwakarta, Jawa Barat 41181";"Cimahi, Kec. Campaka, Kabupaten Purwakarta";"JAWA BARAT";"41181";"Indonesia";" 081227894496";"";"";"-6.4662436";"107.520313";"https://maps.google.com/?cid=0x0:0xf13562ff45353c1e";""
"toko bangunan";"toko bangunan";"TB.KUDULAKSANA JAYA";"depan kantor balai desa (rumah ayu th ina, Caracas 2, Caracas, Kec. Kalijati, Kabupaten Subang, Jawa Barat 41271";"Caracas 2, Caracas, Kec. Kalijati, Kabupaten Subang";"JAWA BARAT";"41271";"Indonesia";" 082246790739";"";"";"-6.4664695";"107.6434584";"https://maps.google.com/?cid=0x0:0x73c1463796eef00d";""
"toko bangunan";"Toko Bahan Bangunan";"Toko Bangunan Indah Jaya";"JHF9+W35, Tanjungrasa, Kec. Patokbeusi, Kabupaten Subang, Jawa Barat 41263";"Tanjungrasa, Kec. Patokbeusi, Kabupaten Subang";"JAWA BARAT";"41263";"Indonesia";"";"";"";"-6.3752295";"107.5677234";"https://maps.google.com/?cid=0x0:0x2d69281868c5c644";""
"toko bangunan";"Toko Bahan Bangunan";"Toko Bangunan Pribadi Jaya";"Karanganyar, Kec. Subang, Kabupaten Subang, Jawa Barat 41211";"Kec. Subang, Kabupaten Subang";"JAWA BARAT";"41211";"Indonesia";" 081220743995";"";"";"-6.559136";"107.761662";"https://maps.google.com/?cid=0x0:0x5b613fa9de9604ca";""
"toko bangunan";"toko bangunan";"Jawa Barat 41272";"Kec. Cipeundeuy, Kabupaten Subang, Jawa Barat";"Kabupaten Subang, Jawa Barat";"JAWA BARAT";"";"Indonesia";"";"";"";"-6.5385159";"107.5978577";"https://maps.google.com/?cid=0x0:0x1c00c5eb568ec6c0";""
"toko bangunan";"Toko Bahan Bangunan";"TB. Endah Jaya";"Jl. Pita Niaga Jl. Parahyangan Raya No.25, Cipeundeuy, Kec. Padalarang, Kabupaten Bandung Barat, Jawa Barat 40553";"Cipeundeuy, Kec. Padalarang, Kabupaten Bandung Barat";"JAWA BARAT";"40553";"Indonesia";" 02286802070";"";"";"-6.8668918";"107.4734757";"https://maps.google.com/?cid=0x0:0xa160498f24787834";""
"toko bangunan";"Toko Bahan Bangunan";"PD.Inti Bangunan";"79W2+78G, Jl. Cirata, Ciroyom, Kecamaten Cipeundeuy, Kabupaten Bandung Barat, Jawa Barat 40558";"Jl. Cirata, Ciroyom, Kecamaten Cipeundeuy, Kabupaten Bandung Barat";"JAWA BARAT";"40558";"Indonesia";"";"";"";"-6.7041929";"107.3507902";"https://maps.google.com/?cid=0x0:0xf0c4fa8a9c83f614";""
"toko bangunan";"Toko Bahan Bangunan";"Matrial Kayu Daya Laksana";"Raya Ciperudeng-Subang No.21, Cipeundeuy, Kec. Cipeundeuy, Kabupaten Subang, Jawa Barat 41272";"Cipeundeuy, Kec. Cipeundeuy, Kabupaten Subang";"JAWA BARAT";"41272";"Indonesia";" 081212555866";"";"";"-6.503311";"107.5657381";"https://maps.google.com/?cid=0x0:0x68d5f2edec3f9e90";""
"toko bangunan";"Toko Peralatan Tukang Kayu";"PT Sinar Cemerlang Sembilan";"Wantilan, Kec. Cipeundeuy, Kabupaten Subang, Jawa Barat 41272";"Kec. Cipeundeuy, Kabupaten Subang";"JAWA BARAT";"41272";"Indonesia";" 085711866968";"";"";"-6.4923057";"107.6037634";"https://maps.google.com/?cid=0x0:0x93f57f6788cfe8a1";""
"toko bangunan";"Toko Bahan Bangunan";"TB. Sukadami Jaya";"9G5F+69R, Jl. Raya Sukadami, Taringgul Tonggoh, Kec. Wanayasa, Kabupaten Purwakarta, Jawa Barat 41174";"Jl. Raya Sukadami, Taringgul Tonggoh, Kec. Wanayasa, Kabupaten Purwakarta";"JAWA BARAT";"41174";"Indonesia";" 087879940003";"";"";"-6.6418935";"107.5234022";"https://maps.google.com/?cid=0x0:0xa36ade6d83729076";""
"toko bangunan";"Toko Pakaian Anak";"Toko Bangunan";"Cicangkang Hilir, Kec. Cipongkor, Kabupaten Bandung Barat, Jawa Barat 40564";"Kec. Cipongkor, Kabupaten Bandung Barat";"JAWA BARAT";"40564";"Indonesia";" 083871895522";"";"";"-6.960914";"107.4057052";"https://maps.google.com/?cid=0x0:0xeb83a89a509c40d4";""
"toko bangunan";"Toko Bahan Bangunan";"TB Usaha Makmur";"38FP+WGC, Cijambu, Kec. Cipongkor, Kabupaten Bandung Barat, Jawa Barat 40564";"Cijambu, Kec. Cipongkor, Kabupaten Bandung Barat";"JAWA BARAT";"40564";"Indonesia";" 083820662578";"";"";"-6.9248935";"107.3363299";"https://maps.google.com/?cid=0x0:0xb7d7925855fb3ae0";""
"toko bangunan";"Toko Bahan Bangunan";"Anugrah jaya 1";"384C+C5H, Cibenda, Kec. Cipongkor, Kabupaten Bandung Barat, Jawa Barat 40564";"Cibenda, Kec. Cipongkor, Kabupaten Bandung Barat";"JAWA BARAT";"40564";"Indonesia";"";"";"";"-6.943481";"107.320901";"https://maps.google.com/?cid=0x0:0x62ebf2ff5d5f5fd";""
"toko bangunan";"Toko Bahan Bangunan";"TB Mitra Bersama";"386F+6C6, Cibenda, Kec. Cipongkor, Kabupaten Bandung Barat, Jawa Barat 40564";"Cibenda, Kec. Cipongkor, Kabupaten Bandung Barat";"JAWA BARAT";"40564";"Indonesia";" 081220430581";"";"";"-6.9394509";"107.323524";"https://maps.google.com/?cid=0x0:0xb6f3b0339528f535";""
"toko bangunan";"Toko Bahan Bangunan";"TB Anugerah Jaya";"29X7+V24, Neglasari, Kec. Cipongkor, Kabupaten Bandung Barat, Jawa Barat 40564";"Neglasari, Kec. Cipongkor, Kabupaten Bandung Barat";"JAWA BARAT";"40564";"Indonesia";"";"";"";"-6.9503547";"107.3625787";"https://maps.google.com/?cid=0x0:0x35445b8cd1e8c170";""
"toko bangunan";"Toko Bahan Bangunan";"Mekar Jaya Keramik";"Jl. Raya Citalem - Cijenuk, Citalem, Kec. Cipongkor, Kabupaten Bandung Barat, Jawa Barat 40564";"Citalem, Kec. Cipongkor, Kabupaten Bandung Barat";"JAWA BARAT";"40564";"Indonesia";"";"";"";"-6.9542149";"107.387491";"https://maps.google.com/?cid=0x0:0xfde4048fc0ae0d44";""
"toko bangunan";"Toko Bahan Bangunan";"TB.Fajar Jaya";"29GJ+RV4, Cijenuk, Kec. Cipongkor, Kabupaten Bandung Barat, Jawa Barat 40564";"Cijenuk, Kec. Cipongkor, Kabupaten Bandung Barat";"JAWA BARAT";"40564";"Indonesia";" 083829044566";"";"";"-6.9729897";"107.3821993";"https://maps.google.com/?cid=0x0:0x1eeb6dec8414b809";""
"toko bangunan";"Toko Bahan Bangunan";"TB Jaya Mandiri";"3984+HGX, Senayan Babakan, Sarinagen, Kec. Cipongkor, Kabupaten Bandung Barat, Jawa Barat 40564";"Senayan Babakan, Sarinagen, Kec. Cipongkor, Kabupaten Bandung Barat";"JAWA BARAT";"40564";"Indonesia";"";"";"";"-6.9335106";"107.3563621";"https://maps.google.com/?cid=0x0:0x5ac13801718f29f8";""
"toko bangunan";"Toko Bahan Bangunan";"TB Akbar Mandiri";"29WQ+46F Cijenuk, Jalan Raya, Citalem, Kec. Cipongkor, Kabupaten Bandung Barat, Jawa Barat 40564";"Jalan Raya, Citalem, Kec. Cipongkor, Kabupaten Bandung Barat";"JAWA BARAT";"40564";"Indonesia";"";"";"";"-6.9546773";"107.3880412";"https://maps.google.com/?cid=0x0:0x7ec3d7d460a0622f";""
"toko bangunan";"Toko Bahan Bangunan";"TB putri mawar";"2CX2+V3Q, Sukamulya, Kec. Cipongkor, Kabupaten Bandung Barat, Jawa Barat 40564";"Sukamulya, Kec. Cipongkor, Kabupaten Bandung Barat";"JAWA BARAT";"40564";"Indonesia";" 081809252868";"";"";"-6.9502954";"107.4002339";"https://maps.google.com/?cid=0x0:0xf462236353659e58";""
"toko bangunan";"Pemasok Bahan Bangunan";"Material Pa Enod";"28J7+3HG, Cintaasih, Kec. Cipongkor, Kabupaten Bandung Barat, Jawa Barat 40564";"Cintaasih, Kec. Cipongkor, Kabupaten Bandung Barat";"JAWA BARAT";"40564";"Indonesia";"";"";"";"-6.9698119";"107.3139426";"https://maps.google.com/?cid=0x0:0x25e3bf68c14d623c";""
"toko bangunan";"Toko Bahan Bangunan";"TB. Zidan Putra";"29HJ+JG7, Jl. Keramat Wali, Cijenuk, Kec. Cipongkor, Kabupaten Bandung Barat, Jawa Barat 40564";"Jl. Keramat Wali, Cijenuk, Kec. Cipongkor, Kabupaten Bandung Barat";"JAWA BARAT";"40564";"Indonesia";"";"";"";"-6.9709639";"107.3812968";"https://maps.google.com/?cid=0x0:0x61a608b8be48ac10";""
"toko bangunan";"Toko Bahan Bangunan";"Tb alatul faedah";"Gading Rt. 02 Rw. 01, Cibenda, Cijambu, Kec. Cipongkor, Kabupaten Bandung Barat, Jawa Barat 40564";"Cibenda, Cijambu, Kec. Cipongkor, Kabupaten Bandung Barat";"JAWA BARAT";"40564";"Indonesia";"";"";"";"-6.9264818";"107.3235873";"https://maps.google.com/?cid=0x0:0xced1d10bfc23ead5";""
"toko bangunan";"Toko Bahan Bangunan";"TB Berkah";"Senayan Babakan, Mekarsari, Kec. Cipongkor, Kabupaten Bandung Barat, Jawa Barat 40564";"Mekarsari, Kec. Cipongkor, Kabupaten Bandung Barat";"JAWA BARAT";"40564";"Indonesia";" 087821917060";"";"";"-6.9550376";"107.3668794";"https://maps.google.com/?cid=0x0:0x77addefffe2829bf";""
"toko bangunan";"Toko Bahan Bangunan";"TB Rizky Jaya";"29WV+28Q, Jl. Plta Saguling Cibanteng, Citalem, Kec. Cipongkor, Kabupaten Bandung Barat, Jawa Barat 40564";"Jl. Plta Saguling Cibanteng, Citalem, Kec. Cipongkor, Kabupaten Bandung Barat";"JAWA BARAT";"40564";"Indonesia";"";"";"";"-6.9549072";"107.3933448";"https://maps.google.com/?cid=0x0:0x4a8b9f36198f8179";""
"toko bangunan";"Toko Bahan Bangunan";"TB.USAHA BERKAH";"29WP+HVJ, Kp Jl. Cipereng, RT.004/RW.001, Citalem, Cipongkor, West Bandung Regency, West Java 40564";"Kp Jl. Cipereng, RT.004/RW.001, Citalem, Cipongkor, West Bandung Regency";"JAWA BARAT";"40564";"Indonesia";"";"";"";"-6.9535257";"107.3871487";"https://maps.google.com/?cid=0x0:0x9bfda75a7ea25c20";""
"toko bangunan";"Toko Bahan Bangunan";"TB. Laksana Rizki";"29WW+C57, Citalem, Kec. Cipongkor, Kabupaten Bandung Barat, Jawa Barat 40564";"Citalem, Kec. Cipongkor, Kabupaten Bandung Barat";"JAWA BARAT";"40564";"Indonesia";"";"";"";"-6.9539556";"107.3954202";"https://maps.google.com/?cid=0x0:0x2987a42860599a67";""
"toko bangunan";"Toko Bahan Bangunan";"TB Mekar Jaya 2";"Jl. Cijenuk - Sarinagen, Cijenuk, Kec. Cipongkor, Kabupaten Bandung Barat, Jawa Barat 40564";"Cijenuk, Kec. Cipongkor, Kabupaten Bandung Barat";"JAWA BARAT";"40564";"Indonesia";"";"";"";"-6.9583464";"107.3736856";"https://maps.google.com/?cid=0x0:0x356cb8d6ede28a2c";""
"toko bangunan";"Toko Bahan Bangunan";"TB. Rizik Rafa";"386F+HWG, Bojonghuni, RT.3/RW.03, Cibenda, Kec. Cipongkor, Kabupaten Bandung Barat, Jawa Barat 40564";"Bojonghuni, RT.3/RW.03, Cibenda, Kec. Cipongkor, Kabupaten Bandung Barat";"JAWA BARAT";"40564";"Indonesia";" 081218057682";"";"";"-6.938561";"107.3248246";"https://maps.google.com/?cid=0x0:0x35efe07b03d76790";""
"toko bangunan";"toko bangunan";"Kec. Cipongkor";"Kabupaten Bandung Barat, Jawa Barat";"Kabupaten Bandung Barat, Jawa Barat";"JAWA BARAT";"";"Indonesia";"";"";"";"-6.9204929";"107.3502495";"https://maps.google.com/?cid=0x0:0x4827b738feb07e7b";""
"toko bangunan";"Toko Bahan Bangunan";"Toko Bangunan Pasteur Perkasa";"29GM+G57, Pasir Tereup, Cijenuk, Kec. Cipongkor, Kabupaten Bandung Barat, Jawa Barat 40564";"Pasir Tereup, Cijenuk, Kec. Cipongkor, Kabupaten Bandung Barat";"JAWA BARAT";"40564";"Indonesia";" 087848886920";"";"";"-6.9737188";"107.3829232";"https://maps.google.com/?cid=0x0:0xf63b13b58e54b8c0";""
"toko bangunan";"Toko Bahan Bangunan";"TB FAMILY JAYA";"Jl. Ps. Joglo, Sirnagalih, Kec. Cipongkor, Kabupaten Bandung Barat, Jawa Barat 40564";"Sirnagalih, Kec. Cipongkor, Kabupaten Bandung Barat";"JAWA BARAT";"40564";"Indonesia";" 083174809720";"";"";"-6.9143787";"107.3237517";"https://maps.google.com/?cid=0x0:0xc69d7e4f090459cb";""
"toko bangunan";"Toko Bahan Bangunan";"TB Makmur Jaya";"389X+C7M, Senayan Babakan, Cijambu, Kec. Cipongkor, Kabupaten Bandung Barat, Jawa Barat 40564";"Senayan Babakan, Cijambu, Kec. Cipongkor, Kabupaten Bandung Barat";"JAWA BARAT";"40564";"Indonesia";"";"";"";"-6.9314145";"107.3481664";"https://maps.google.com/?cid=0x0:0xcb0c22cdbf8b3dda";""
"toko bangunan";"Toko Bahan Bangunan";"Tb Yogi Jaya";"Jl. Raya Cibanteng No.12, Citalem, Kec. Cipongkor, Kabupaten Bandung Barat, Jawa Barat 40564";"Citalem, Kec. Cipongkor, Kabupaten Bandung Barat";"JAWA BARAT";"40564";"Indonesia";"";"";"";"-6.9549644";"107.3933144";"https://maps.google.com/?cid=0x0:0x83f8848112f6703";""
"toko bangunan";"Toko Bahan Bangunan";"Indo Home";"Jl. Raya Puncak No.KM.14, Cibeureum, Kec. Cisarua, Kabupaten Bogor, Jawa Barat 16750";"Cibeureum, Kec. Cisarua, Kabupaten Bogor";"JAWA BARAT";"16750";"Indonesia";" 081285686746";"";"";"-6.686109";"106.9369201";"https://maps.google.com/?cid=0x0:0x74e8741c5211fdd7";""
"toko bangunan";"Toko Bahan Bangunan";"TB Subur Lanny, Puncak";"No, Jl. Raya Puncak - Cianjur No.845, Cibeureum, Kec. Cisarua, Kabupaten Bogor, Jawa Barat 16750";"Jl. Raya Puncak - Cianjur No.845, Cibeureum, Kec. Cisarua, Kabupaten Bogor";"JAWA BARAT";"16750";"Indonesia";" 081311508070";"";"";"-6.6871768";"106.9390535";"https://maps.google.com/?cid=0x0:0xb084e9f50a8b93e2";""
"toko bangunan";"Toko Cat";"Tb. Sinar Anugerah";"KM. .83, Cisarua, Jl. Raya Puncak No.38, Kec. Cisarua, Kabupaten Bogor, Jawa Barat 16750";"Cisarua, Jl. Raya Puncak No.38, Kec. Cisarua, Kabupaten Bogor";"JAWA BARAT";"16750";"Indonesia";" 025182558522";"";"";"-6.6872541";"106.9406575";"https://maps.google.com/?cid=0x0:0xabf4047bff74964f";""
"toko bangunan";"Toko Bahan Bangunan";"CV. Tugu Mas Jaya";"Jl. Raya Puncak - Cianjur No.30, Tugu Utara, Kec. Cisarua, Kabupaten Bogor, Jawa Barat 16750";"Tugu Utara, Kec. Cisarua, Kabupaten Bogor";"JAWA BARAT";"16750";"Indonesia";" 087722773228";"";"";"-6.6848788";"106.9528466";"https://maps.google.com/?cid=0x0:0x665f1ee3a56ce6f8";""
"toko bangunan";"Pemasok Bahan Bangunan";"TB. Candra Jaya";"Jalan Raya Puncak Km.83, Kelurahan Ciberem No.04, Cisarua, Cibeureum, Kec. Cisarua, Kabupaten Bogor, Jawa Barat 16750";"Kelurahan Ciberem No.04, Cisarua, Cibeureum, Kec. Cisarua, Kabupaten Bogor";"JAWA BARAT";"16750";"Indonesia";" 02518255469";"";"";"-6.6872361";"106.9382384";"https://maps.google.com/?cid=0x0:0xc4589c021e1591e6";""
"toko bangunan";"Toko";"TOKO BESI BOGOR - CAHAYA BAJA CISARUA";"depan plaza, Telkom, Jl. Raya Puncak, Leuwimalang, Kec. Cisarua, Kabupaten Bogor, Jawa Barat 16750";"Telkom, Jl. Raya Puncak, Leuwimalang, Kec. Cisarua, Kabupaten Bogor";"JAWA BARAT";"16750";"Indonesia";" 081220112023";"";"";"-6.6731169";"106.92752";"https://maps.google.com/?cid=0x0:0xcd8078b4daca0faf";""
"toko bangunan";"Toko Bahan Bangunan";"TB. HERLIN";"Jl. Raya Puncak No.KM 80, Citeko, Kec. Cisarua, Kabupaten Bogor, Jawa Barat 16750";"Citeko, Kec. Cisarua, Kabupaten Bogor";"JAWA BARAT";"16750";"Indonesia";" 081287733286";"";"";"-6.6785228";"106.9297594";"https://maps.google.com/?cid=0x0:0x5070e7b480827619";""
"toko bangunan";"Toko Cat";"Tb.Anugerah Abadi";"Jl. Taman Safari No.Km.83, RW.No.38, Cibeureum, Kec. Cisarua, Kabupaten Bogor, Jawa Barat 16750";"RW.No.38, Cibeureum, Kec. Cisarua, Kabupaten Bogor";"JAWA BARAT";"16750";"Indonesia";" 02518257269";"";"";"-6.6900861";"106.9418059";"https://maps.google.com/?cid=0x0:0xc76ad645b5a53529";""
"toko bangunan";"Toko Bahan Bangunan";"TB.Rohman Jaya Cisarua";"Ko.Gg.Pukat Jl. Cidokom, RT.03/RW.10, Kopo, Kec. Cisarua, Kabupaten Bogor, Jawa Barat 16750";"RT.03/RW.10, Kopo, Kec. Cisarua, Kabupaten Bogor";"JAWA BARAT";"16750";"Indonesia";" 083874719801";"";"/url?q>>u003dhttp://tbrohmanjaya.blogspot.com/2023/07/tbrohman-jaya-cisarua.html>>u0026opi>>u003d79508299>>u0026sa>>u003dU>>u0026ved>>u003d0ahUKEwj0tPDp-b-LAxVLA9sEHe41Fz4Q61gIFigS>>u0026usg>>u003dAOvVaw3DGI2jQiOJshnzDqqiHTlf";"-6.6790566";"106.9182248";"https://maps.google.com/?cid=0x0:0x9483f38ab780118a";""
"toko bangunan";"Toko Bahan Bangunan";"Tb Kampuh Jaya";"Jl. Labuan - Cianjur No.899, Tugu Utara, Kec. Cisarua, Kabupaten Bogor, Jawa Barat 16750";"Tugu Utara, Kec. Cisarua, Kabupaten Bogor";"JAWA BARAT";"16750";"Indonesia";"";"";"";"-6.6943405";"106.9643524";"https://maps.google.com/?cid=0x0:0x256e279d8c554eac";""
"toko bangunan";"Toko Bahan Bangunan";"Nugraha Transport";"8W6H+FVC, Jl. Citeko, Citeko, Kec. Cisarua, Kabupaten Bogor, Jawa Barat 16750";"Jl. Citeko, Citeko, Kec. Cisarua, Kabupaten Bogor";"JAWA BARAT";"16750";"Indonesia";" 085710236320";"";"";"-6.6888117";"106.9296523";"https://maps.google.com/?cid=0x0:0x4038f0727c4f27c";""
"toko bangunan";"Toko Bahan Bangunan";"Toko Bangunan Cahaya Alam";"Jalan cikopo selatan kampung sukabirus No, RT.03/RW.06, Gadog, Kec. Megamendung, Kabupaten Bogor, Jawa Barat 16770";"RT.03/RW.06, Gadog, Kec. Megamendung, Kabupaten Bogor";"JAWA BARAT";"16770";"Indonesia";"";"";"";"-6.6672434";"106.874674";"https://maps.google.com/?cid=0x0:0x345122b1d1c4f433";""
"toko bangunan";"Pemasok Bahan Bangunan";"Rahmat Jaya";"Jl.raya puncak kp ci lember, Jogjogan, Kec. Cisarua, Kabupaten Bogor, Jawa Barat 16750";"Jogjogan, Kec. Cisarua, Kabupaten Bogor";"JAWA BARAT";"16750";"Indonesia";" 085695982276";"";"";"-6.6577764";"106.9265016";"https://maps.google.com/?cid=0x0:0x738f7d140b43beab";""
"toko bangunan";"Toko Bahan Bangunan";"Toko Bangunan Gunung Agung";"JL Puncak Raya, KM 75, Cipayung, Cipayung Datar, Megamendung, Bogor Regency, West Java 16770";"KM 75, Cipayung, Cipayung Datar, Megamendung, Bogor Regency";"JAWA BARAT";"16770";"Indonesia";" 02518252543";"";"";"-6.6505127";"106.8965397";"https://maps.google.com/?cid=0x0:0xa93a2965a6df0efe";""
"toko bangunan";"Toko Cat";"Nippon paint sinar anugerah";"Jl.raya puncak km 83 No.38 Cisarua, Kabupaten Bogor, Jawa Barat";"Kabupaten Bogor, Jawa Barat";"JAWA BARAT";"";"Indonesia";" 089516901904";"";"";"-6.6844962";"106.9477468";"https://maps.google.com/?cid=0x0:0x77e08c73401e92fd";""
"toko bangunan";"Toko Bahan Bangunan";"TB.Mitra 1";"Jl. Raya Puncak - Cianjur No.Km 81, Citeko, Kec. Cisarua, Kabupaten Bogor, Jawa Barat 16750";"Citeko, Kec. Cisarua, Kabupaten Bogor";"JAWA BARAT";"16750";"Indonesia";" 089512069791";"";"";"-6.6814769";"106.9334484";"https://maps.google.com/?cid=0x0:0x762fbf0049d53c5a";""
"toko bangunan";"Toko Bahan Bangunan";"Pb Sahabat 3";"Citeko, Kec. Cisarua, Kabupaten Bogor, Jawa Barat 16750";"Kec. Cisarua, Kabupaten Bogor";"JAWA BARAT";"16750";"Indonesia";" 081284111676";"";"";"-6.6894155";"106.9285207";"https://maps.google.com/?cid=0x0:0xf9126269d88c1d74";""
"toko bangunan";"Pasar bahan bangunan";"Anugrah bronjong";"Jl. Raya Puncak - Gadog Cipayung, RT.01/RW.04, Cipayung Datar, kabupaten bogor, Kabupaten Bogor, Jawa Barat 16720";"RT.01/RW.04, Cipayung Datar, kabupaten bogor, Kabupaten Bogor";"JAWA BARAT";"16720";"Indonesia";" 081314317846";"";"";"-6.6867371";"106.9414644";"https://maps.google.com/?cid=0x0:0x1fdcbdcbc892c89a";""
"toko bangunan";"Toko Cat";"Toko Bangunan Timur Jaya";"Jl. Raya Puncak - Gadog, Gadog, Kec. Megamendung, Kabupaten Bogor, Jawa Barat 16720";"Gadog, Kec. Megamendung, Kabupaten Bogor";"JAWA BARAT";"16720";"Indonesia";" 02518244580";"";"";"-6.6543759";"106.8632321";"https://maps.google.com/?cid=0x0:0x2c887073a386cd30";""
"toko bangunan";"toko bangunan";"Jawa Barat 16750";"Kec. Cisarua, Kabupaten Bogor, Jawa Barat";"Kabupaten Bogor, Jawa Barat";"JAWA BARAT";"";"Indonesia";"";"";"";"-6.6950819";"106.947666";"https://maps.google.com/?cid=0x0:0x1c00c5eb51c82840";""
"toko bangunan";"Toko Bahan Bangunan";"Tb. Mitra 2";"JL Raya Puncak Cisarua, No. 53 RT 4 RW 10, Cisarua, Cidokom, Kopo, Bogor, Kabupaten Bogor, Jawa Barat 16750";"No. 53 RT 4 RW 10, Cisarua, Cidokom, Kopo, Bogor, Kabupaten Bogor";"JAWA BARAT";"16750";"Indonesia";" 085814653116";"";"";"-6.6814489";"106.9204718";"https://maps.google.com/?cid=0x0:0x3c9122668f1911e9";""
"toko bangunan";"Toko Bahan Bangunan";"TB. Muamalah";"JL Raya Puncak, RT 2 RW 4, Citeko, Cisarua, Cibeureum, Bogor, Kabupaten Bogor, Jawa Barat 16750";"RT 2 RW 4, Citeko, Cisarua, Cibeureum, Bogor, Kabupaten Bogor";"JAWA BARAT";"16750";"Indonesia";" 085692829431";"";"";"-6.6881132";"106.9335008";"https://maps.google.com/?cid=0x0:0x1840a657a7008bef";""
"toko bangunan";"Toko Bahan Bangunan";"Pb. Sukur";"Jl. Jogjogan No.29, Cilember, Kec. Cisarua, Kabupaten Bogor, Jawa Barat 16750";"Cilember, Kec. Cisarua, Kabupaten Bogor";"JAWA BARAT";"16750";"Indonesia";"";"";"";"-6.6618009";"106.9291389";"https://maps.google.com/?cid=0x0:0x11c41d27cfb54ee9";""
"toko bangunan";"Toko Perlengkapan Rumah";"Matrial Berkah Abadi";"5G99+4GQ, Jl. Ciloa, Pasirhalang, Kec. Cisarua, Kabupaten Bandung Barat, Jawa Barat 40551";"Jl. Ciloa, Pasirhalang, Kec. Cisarua, Kabupaten Bandung Barat";"JAWA BARAT";"40551";"Indonesia";" 02282783722";"";"";"-6.8321622";"107.5188508";"https://maps.google.com/?cid=0x0:0xc653423ad3ab9a6a";""
"toko bangunan";"Toko Bahan Bangunan";"TB Tani Subur";"Jl. Pasir Tugu, Tugumukti, Kec. Cisarua, Kabupaten Bandung Barat, Jawa Barat 40551";"Tugumukti, Kec. Cisarua, Kabupaten Bandung Barat";"JAWA BARAT";"40551";"Indonesia";" 0222700302";"";"";"-6.8073274";"107.5522715";"https://maps.google.com/?cid=0x0:0x7d19c09e300939ef";""
"toko bangunan";"Toko Bahan Bangunan";"TB. Rahayu Jaya";"5HQ7+G2R, Jl. Kolonel Masturi, Cipada, Kec. Cisarua, Kabupaten Bandung Barat, Jawa Barat 40551";"Jl. Kolonel Masturi, Cipada, Kec. Cisarua, Kabupaten Bandung Barat";"JAWA BARAT";"40551";"Indonesia";" 0222700882";"";"";"-6.8111475";"107.5625286";"https://maps.google.com/?cid=0x0:0x52156435d1d10594";""
"toko bangunan";"Toko Bahan Bangunan";"TB Central Nugraha";"Combloh No.272, Padaasih, Kec. Cisarua, Kabupaten Bandung Barat, Jawa Barat 40551";"Padaasih, Kec. Cisarua, Kabupaten Bandung Barat";"JAWA BARAT";"40551";"Indonesia";" 081224475652";"";"";"-6.851176";"107.5576288";"https://maps.google.com/?cid=0x0:0x80e9fcaeab45b015";""
"toko bangunan";"Pemasok Bahan Bangunan";"Gudang TB Mina Jaya";"5HM3+9X8, Jl. Kolonel Masturi, Jambudipa, Kec. Cisarua, Kabupaten Bandung Barat, Jawa Barat 40551";"Jl. Kolonel Masturi, Jambudipa, Kec. Cisarua, Kabupaten Bandung Barat";"JAWA BARAT";"40551";"Indonesia";" 089661254351";"";"";"-6.816583";"107.55495";"https://maps.google.com/?cid=0x0:0x577a9ef39909bd56";""
"toko bangunan";"Toko Bahan Bangunan";"Tb Sintya Jaya";"jl, Pasir Ranji No.32, Pasirlangu, Kec. Cisarua, Kabupaten Bandung Barat, Jawa Barat 40551";"Pasir Ranji No.32, Pasirlangu, Kec. Cisarua, Kabupaten Bandung Barat";"JAWA BARAT";"40551";"Indonesia";" 081809852487";"";"";"-6.8135277";"107.52124";"https://maps.google.com/?cid=0x0:0xe74ceea9d04fb218";""
"toko bangunan";"Toko Bahan Bangunan";"TB PUTRA JAYA MANDIRI";"6F9W+356, Kp Sadang, RT.01/RW.03, Sadangmekar, Kec. Cisarua, Kabupaten Bandung Barat, Jawa Barat 40551";"Kp Sadang, RT.01/RW.03, Sadangmekar, Kec. Cisarua, Kabupaten Bandung Barat";"JAWA BARAT";"40551";"Indonesia";" 083126214752";"";"";"-6.7818502";"107.4953981";"https://maps.google.com/?cid=0x0:0x8b3e2928ae125a9b";""
"toko bangunan";"Toko Bahan Bangunan";"TB. Sintia Jaya";"jl. Pasirlangu rt 02/01 desa, Pasirlangu, Kec. Cisarua, Kabupaten Bandung Barat, Jawa Barat 40551";"Pasirlangu, Kec. Cisarua, Kabupaten Bandung Barat";"JAWA BARAT";"40551";"Indonesia";" 081322169258";"";"";"-6.7917608";"107.544598";"https://maps.google.com/?cid=0x0:0xed171bf6a3d91287";""
"toko bangunan";"Toko Bahan Bangunan";"TB INTI METAL 2";"Jl. Kolonel Masturi No.325A, RT.001/RW.006, Kertawangi, Kec. Cisarua, Kabupaten Bandung Barat, Jawa Barat 40551";"RT.001/RW.006, Kertawangi, Kec. Cisarua, Kabupaten Bandung Barat";"JAWA BARAT";"40551";"Indonesia";" 02227013082";"";"";"-6.7975302";"107.573765";"https://maps.google.com/?cid=0x0:0xdb720135d66e4a5e";""
"toko bangunan";"Toko Bahan Bangunan";"TB. Anugrah Abadi 2";"Jalan Ciuyah No.14 RT 01 RW 09, Kp. Bongkak Wetan, Padaasih, Cisarua, Padaasih, Kec. Cisarua, Kota Cimahi, Jawa Barat 40512";"Kp. Bongkak Wetan, Padaasih, Cisarua, Padaasih, Kec. Cisarua, Kota Cimahi";"JAWA BARAT";"40512";"Indonesia";" 02287782285";"";"";"-6.84658";"107.562959";"https://maps.google.com/?cid=0x0:0x1b1fc9257d12de87";""
"toko bangunan";"Pemasok Peralatan Konstruksi";"PD. Berkah Abadi Parongpong";"Jl. Cigugur Girang, RT.004/RW.015, Cihideung, Kec. Parongpong, Kabupaten Bandung Barat, Jawa Barat 40559";"RT.004/RW.015, Cihideung, Kec. Parongpong, Kabupaten Bandung Barat";"JAWA BARAT";"40559";"Indonesia";" 081324384130";"";"";"-6.8047971";"107.5879704";"https://maps.google.com/?cid=0x0:0xf9c9ed201dee1155";""
"toko bangunan";"Toko Bahan Bangunan";"Indo Home";"Jl. Raya Puncak No.KM.14, Cibeureum, Kec. Cisarua, Kabupaten Bogor, Jawa Barat 16750";"Cibeureum, Kec. Cisarua, Kabupaten Bogor";"JAWA BARAT";"16750";"Indonesia";" 081285686746";"";"";"-6.686109";"106.9369201";"https://maps.google.com/?cid=0x0:0x74e8741c5211fdd7";""
"toko bangunan";"Toko Bahan Bangunan";"TB.BAROKAH MURNI JAYA";"Jl. Perkebunan Pangheotan, Sadangmekar, Kec. Cisarua, Kabupaten Bandung Barat, Jawa Barat 40551";"Sadangmekar, Kec. Cisarua, Kabupaten Bandung Barat";"JAWA BARAT";"40551";"Indonesia";"";"";"";"-6.791228";"107.4727852";"https://maps.google.com/?cid=0x0:0x71461da2b8144763";""
"toko bangunan";"Toko Bahan Bangunan";"TB. Tani Mukti 2";"Jl. Cileungsing, Pasirlangu, Kec. Cisarua, Kabupaten Bandung Barat, Jawa Barat 40551";"Pasirlangu, Kec. Cisarua, Kabupaten Bandung Barat";"JAWA BARAT";"40551";"Indonesia";" 085720003828";"";"";"-6.8034715";"107.5353304";"https://maps.google.com/?cid=0x0:0x4cc4aeb652bcf580";""
"toko bangunan";"Toko Bahan Bangunan";"TB. Anugrah Ti Rama";"6G7H+58F, Jl. Ps. Senen, Cipada, Kec. Cisarua, Kabupaten Bandung Barat, Jawa Barat 40551";"Jl. Ps. Senen, Cipada, Kec. Cisarua, Kabupaten Bandung Barat";"JAWA BARAT";"40551";"Indonesia";"";"";"";"-6.7870523";"107.528295";"https://maps.google.com/?cid=0x0:0x9ef07ef8209cb054";""
"toko bangunan";"Toko Bahan Bangunan";"TB. Cahaya family";"Jl. Kolonel Masturi Jl. Barulaksana No.4, Karyawangi, Kec. Parongpong, Kabupaten Bandung Barat, Jawa Barat 40559";"Karyawangi, Kec. Parongpong, Kabupaten Bandung Barat";"JAWA BARAT";"40559";"Indonesia";" 081809666548";"";"";"-6.8047748";"107.5848666";"https://maps.google.com/?cid=0x0:0x61663cad0f7b1774";""
"toko bangunan";"Toko Bahan Bangunan";"TB.KAROMAH";"Jl. Kolonel Masturi No.455, Jambudipa, Kec. Cisarua, Kabupaten Bandung Barat, Jawa Barat 40551";"Jambudipa, Kec. Cisarua, Kabupaten Bandung Barat";"JAWA BARAT";"40551";"Indonesia";" 081221555343";"";"";"-6.8177398";"107.5557267";"https://maps.google.com/?cid=0x0:0x92014ff243c0a33a";""
"toko bangunan";"Toko Bahan Bangunan";"TB. PUTRA SUGEMA";"Jl. Cibatu No.25, Cilame, Kec. Ngamprah, Kabupaten Bandung Barat, Jawa Barat 40552";"Cilame, Kec. Ngamprah, Kabupaten Bandung Barat";"JAWA BARAT";"40552";"Indonesia";" 0226622141";"";"";"-6.8493615";"107.516491";"https://maps.google.com/?cid=0x0:0x8984e0f0c679b7d2";""
"toko bangunan";"Toko Bahan Bangunan";"TB. Sumber Rejeki";"Jl. Kolonel Masturi No.161, Sukajaya, Kec. Lembang, Kabupaten Bandung Barat, Jawa Barat 40391";"Sukajaya, Kec. Lembang, Kabupaten Bandung Barat";"JAWA BARAT";"40391";"Indonesia";" 0222787745";"";"";"-6.8050206";"107.5926438";"https://maps.google.com/?cid=0x0:0x3f74f67e259a06e9";""
"toko bangunan";"toko bangunan";"Jawa Barat 40551";"Kec. Cisarua, Kabupaten Bandung Barat, Jawa Barat";"Kabupaten Bandung Barat, Jawa Barat";"JAWA BARAT";"";"Indonesia";"";"";"";"-6.7971206";"107.5386809";"https://maps.google.com/?cid=0x0:0x1c00c5eb568ebe40";""
"toko bangunan";"Toko Bahan Bangunan";"TB Berkah Abadi Cijamil";"5G99+5G4, Jl. Ciloa, Pasirhalang, Kec. Cisarua, Kabupaten Bandung Barat, Jawa Barat 40551";"Jl. Ciloa, Pasirhalang, Kec. Cisarua, Kabupaten Bandung Barat";"JAWA BARAT";"40551";"Indonesia";" 081331661476";"";"";"-6.832118";"107.5188223";"https://maps.google.com/?cid=0x0:0x39762c9a82706ac4";""
"toko bangunan";"Toko Bahan Bangunan";"TB Subur Lanny, Puncak";"No, Jl. Raya Puncak - Cianjur No.845, Cibeureum, Kec. Cisarua, Kabupaten Bogor, Jawa Barat 16750";"Jl. Raya Puncak - Cianjur No.845, Cibeureum, Kec. Cisarua, Kabupaten Bogor";"JAWA BARAT";"16750";"Indonesia";" 081311508070";"";"";"-6.6871768";"106.9390535";"https://maps.google.com/?cid=0x0:0xb084e9f50a8b93e2";""
"toko bangunan";"toko bangunan";"TB SUBUR JAYA";"5GXP+VFW, Pasirlangu, Kec. Cisarua, Kabupaten Bandung Barat, Jawa Barat 40551";"Pasirlangu, Kec. Cisarua, Kabupaten Bandung Barat";"JAWA BARAT";"40551";"Indonesia";" 082263009858";"";"";"-6.8002595";"107.5362162";"https://maps.google.com/?cid=0x0:0xc5ec3c99a7af27f";""
"toko bangunan";"Toko Bahan Bangunan";"Turus Bapa herman";"Gantungan Purabaya No.182, Pasirhalang, Kec. Cisarua, Kabupaten Bandung Barat, Jawa Barat 40551";"Pasirhalang, Kec. Cisarua, Kabupaten Bandung Barat";"JAWA BARAT";"40551";"Indonesia";"";"";"";"-6.8230541";"107.5322567";"https://maps.google.com/?cid=0x0:0x41542739b22911d5";""
"toko bangunan";"Toko Cat";"Tb. Sinar Anugerah";"KM. .83, Cisarua, Jl. Raya Puncak No.38, Kec. Cisarua, Kabupaten Bogor, Jawa Barat 16750";"Cisarua, Jl. Raya Puncak No.38, Kec. Cisarua, Kabupaten Bogor";"JAWA BARAT";"16750";"Indonesia";" 025182558522";"";"";"-6.6872541";"106.9406575";"https://maps.google.com/?cid=0x0:0xabf4047bff74964f";""
"toko bangunan";"Toko Bahan Bangunan";"Indo Home";"Jl. Raya Puncak No.KM.14, Cibeureum, Kec. Cisarua, Kabupaten Bogor, Jawa Barat 16750";"Cibeureum, Kec. Cisarua, Kabupaten Bogor";"JAWA BARAT";"16750";"Indonesia";" 081285686746";"";"";"-6.686109";"106.9369201";"https://maps.google.com/?cid=0x0:0x74e8741c5211fdd7";""
"toko bangunan";"Toko Bahan Bangunan";"Tb. Gumilang";"Jl. Pangeran Bungsu, Kebonkalapa, Kec. Cisarua, Kabupaten Sumedang, Jawa Barat 45357";"Kebonkalapa, Kec. Cisarua, Kabupaten Sumedang";"JAWA BARAT";"45357";"Indonesia";"";"";"";"-6.8283946";"107.9528884";"https://maps.google.com/?cid=0x0:0x9ed8782b28ce43bc";""
"toko bangunan";"Toko Bahan Bangunan";"Toko Bangunan PUNCAK CAHAYA ABADI";"Jl. Raya Pemuda No.45, RT.3/RW.04, Sasak Panjang, Kec. Tajur Halang, Kabupaten Bogor, Jawa Barat 16320";"RT.3/RW.04, Sasak Panjang, Kec. Tajur Halang, Kabupaten Bogor";"JAWA BARAT";"16320";"Indonesia";" 081212110919";"";"";"-6.4629588";"106.7659637";"https://maps.google.com/?cid=0x0:0xee7c6d02d3f2ccb6";""
"toko bangunan";"Toko Cat";"Tb.Anugerah Abadi";"Jl. Taman Safari No.Km.83, RW.No.38, Cibeureum, Kec. Cisarua, Kabupaten Bogor, Jawa Barat 16750";"RW.No.38, Cibeureum, Kec. Cisarua, Kabupaten Bogor";"JAWA BARAT";"16750";"Indonesia";" 02518257269";"";"";"-6.6900861";"106.9418059";"https://maps.google.com/?cid=0x0:0xc76ad645b5a53529";""
"toko bangunan";"Toko Mebel";"Matrial Alam Jaya";"5XG8+CVR, Cisarua, Kec. Cisarua, Kabupaten Sumedang, Jawa Barat 45355";"Cisarua, Kec. Cisarua, Kabupaten Sumedang";"JAWA BARAT";"45355";"Indonesia";"";"";"";"-6.8238794";"107.9671517";"https://maps.google.com/?cid=0x0:0x90089f44b7e11b27";""
"toko bangunan";"Pemasok Bahan Bangunan";"TB. Puncak Jaya";"Jalan Raya Puncak, Km. 83 Batulayang, Cibeureum, Cisarua, Kec. Cisarua, Kabupaten Bogor, Jawa Barat 16750";"Km. 83 Batulayang, Cibeureum, Cisarua, Kec. Cisarua, Kabupaten Bogor";"JAWA BARAT";"16750";"Indonesia";" 089612007707";"";"";"-6.6863666";"106.9444946";"https://maps.google.com/?cid=0x0:0x1f342d1f1529eb70";""
"toko bangunan";"Toko Bahan Bangunan";"TB.Rohman Jaya Cisarua";"Ko.Gg.Pukat Jl. Cidokom, RT.03/RW.10, Kopo, Kec. Cisarua, Kabupaten Bogor, Jawa Barat 16750";"RT.03/RW.10, Kopo, Kec. Cisarua, Kabupaten Bogor";"JAWA BARAT";"16750";"Indonesia";" 083874719801";"";"/url?q>>u003dhttp://tbrohmanjaya.blogspot.com/2023/07/tbrohman-jaya-cisarua.html>>u0026opi>>u003d79508299>>u0026sa>>u003dU>>u0026ved>>u003d0ahUKEwjO7ayg-r-LAxUp4zQHHWWFLN8Q61gIFigS>>u0026usg>>u003dAOvVaw1x95kViplIZTQFuKYSQ_dl";"-6.6790566";"106.9182248";"https://maps.google.com/?cid=0x0:0x9483f38ab780118a";""
"toko bangunan";"Toko Bahan Bangunan";"TOKO BESI SUHUD JAYA CIMALAKA";"5XP7+HVH, Mandalaherang, Kec. Cimalaka, Kabupaten Sumedang, Jawa Barat 45353";"Mandalaherang, Kec. Cimalaka, Kabupaten Sumedang";"JAWA BARAT";"45353";"Indonesia";" 082321429745";"";"";"-6.813557";"107.9647339";"https://maps.google.com/?cid=0x0:0x2e2ba0d93a7d9cc5";""
"toko bangunan";"Toko Bahan Bangunan";"Toko Bangunan AZ";"Cipadung situraja, RT.03/RW.09, Situraja Utara, Kec. Situraja, Kabupaten Sumedang, Jawa Barat 45371";"RT.03/RW.09, Situraja Utara, Kec. Situraja, Kabupaten Sumedang";"JAWA BARAT";"45371";"Indonesia";" 085954972359";"";"/url?q>>u003dhttps://wa.me/message/AAN7CH7HJRQBN1>>u0026opi>>u003d79508299>>u0026sa>>u003dU>>u0026ved>>u003d0ahUKEwjTlJ2i-r-LAxVVQ_EDHcE5JOIQ61gIFigS>>u0026usg>>u003dAOvVaw0HCYw4s2HhFZinZQ80rqLX";"-6.8326513";"108.0168982";"https://maps.google.com/?cid=0x0:0x3fae30bb6c728861";""
"toko bangunan";"Toko Bahan Bangunan";"TB.Adiluhung";"5WPX+PPW, Jl. Raya Cimalaka Cipadung, Cimalaka, Kec. Tanjungkerta, Kabupaten Sumedang, Jawa Barat 45354";"Jl. Raya Cimalaka Cipadung, Cimalaka, Kec. Tanjungkerta, Kabupaten Sumedang";"JAWA BARAT";"45354";"Indonesia";" 081310364168";"";"";"-6.8131392";"107.9493162";"https://maps.google.com/?cid=0x0:0x95bd84899e152073";""
"toko bangunan";"Toko Bahan Bangunan";"TOKO BANGUNAN H. A";"5WPG+QVW, Situwangi, Jatihurip, Kec. Sumedang Utara, Kabupaten Sumedang, Jawa Barat 45621";"Situwangi, Jatihurip, Kec. Sumedang Utara, Kabupaten Sumedang";"JAWA BARAT";"45621";"Indonesia";"";"";"";"-6.8130204";"107.9272146";"https://maps.google.com/?cid=0x0:0x409c71c19d355ed0";""
"toko bangunan";"Toko Bahan Bangunan";"PD. Sinar Harapan";"Jl. Mayor Abdurahman, Kelurahan No.41, RT.02/RW.04, Kotakaler, Kec. Sumedang Utara, Kabupaten Sumedang, Jawa Barat 45322";"Kelurahan No.41, RT.02/RW.04, Kotakaler, Kec. Sumedang Utara, Kabupaten Sumedang";"JAWA BARAT";"45322";"Indonesia";" 081224614181";"";"/url?q>>u003dhttps://pdsinarharapan.wixsite.com/sumedang>>u0026opi>>u003d79508299>>u0026sa>>u003dU>>u0026ved>>u003d0ahUKEwiZvuij-r-LAxXMk1YBHUaGGrIQ61gIFigS>>u0026usg>>u003dAOvVaw1B6qBCn_ze3ksd6Az-QrKU";"-6.8461234";"107.9241588";"https://maps.google.com/?cid=0x0:0x686f8ae16d2252e8";""
"toko bangunan";"Distributor Baja";"Toko rangka besi beton berkah abadi sumedang";"Rancamulya, Kec. Sumedang Utara, Kabupaten Sumedang, Jawa Barat 45621";"Kec. Sumedang Utara, Kabupaten Sumedang";"JAWA BARAT";"45621";"Indonesia";" 081324061508";"";"";"-6.8418451";"107.937068";"https://maps.google.com/?cid=0x0:0x67a9b519b5e77cbf";""
"toko bangunan";"Toko Cat";"Toko Bangunan Timur Jaya";"Jl. Raya Puncak - Gadog, Gadog, Kec. Megamendung, Kabupaten Bogor, Jawa Barat 16720";"Gadog, Kec. Megamendung, Kabupaten Bogor";"JAWA BARAT";"16720";"Indonesia";" 02518244580";"";"";"-6.6543759";"106.8632321";"https://maps.google.com/?cid=0x0:0x2c887073a386cd30";""
"toko bangunan";"Toko Bahan Bangunan";"TB Pak Totong";"5X7X+PMF, Sukatali, Kec. Situraja, Kabupaten Sumedang, Jawa Barat 45371";"Sukatali, Kec. Situraja, Kabupaten Sumedang";"JAWA BARAT";"45371";"Indonesia";"";"";"";"-6.8356759";"107.9991795";"https://maps.google.com/?cid=0x0:0xb2acc9c1582cf15";""
"toko bangunan";"toko bangunan";"TB. RPM";"7X8X+G2H, Conggeang Buah Dua, Dusun Kaungluwuk, Conggeang Kulon, Kec. Buahdua, Kabupaten Sumedang, Jawa Barat 45392";"Conggeang Buah Dua, Dusun Kaungluwuk, Conggeang Kulon, Kec. Buahdua, Kabupaten Sumedang";"JAWA BARAT";"45392";"Indonesia";"";"";"";"-6.7336817";"107.9976053";"https://maps.google.com/?cid=0x0:0x19c2110daefef2ac";""
"toko bangunan";"Toko";"TOKO BESI BOGOR - CAHAYA BAJA CISARUA";"depan plaza, Telkom, Jl. Raya Puncak, Leuwimalang, Kec. Cisarua, Kabupaten Bogor, Jawa Barat 16750";"Telkom, Jl. Raya Puncak, Leuwimalang, Kec. Cisarua, Kabupaten Bogor";"JAWA BARAT";"16750";"Indonesia";" 081220112023";"";"/url?q>>u003dhttps://cahayabajaidn.com/>>u0026opi>>u003d79508299>>u0026sa>>u003dU>>u0026ved>>u003d0ahUKEwjKge2l-r-LAxVdcKQEHWzgL5QQ61gIFigS>>u0026usg>>u003dAOvVaw1PlREMtcNs3NRKDuvg96Wp";"-6.6731169";"106.92752";"https://maps.google.com/?cid=0x0:0xcd8078b4daca0faf";""
"toko bangunan";"Toko Bahan Bangunan";"Pb. Sukur";"Jl. Jogjogan No.29, Cilember, Kec. Cisarua, Kabupaten Bogor, Jawa Barat 16750";"Cilember, Kec. Cisarua, Kabupaten Bogor";"JAWA BARAT";"16750";"Indonesia";"";"";"";"-6.6618009";"106.9291389";"https://maps.google.com/?cid=0x0:0x11c41d27cfb54ee9";""
"toko bangunan";"Toko Bahan Bangunan";"TB. Maju 91 Sumedang";"Jl. Mayor Abdurahman No.91, Kotakaler, Kec. Sumedang Utara, Kabupaten Sumedang, Jawa Barat 45322";"Kotakaler, Kec. Sumedang Utara, Kabupaten Sumedang";"JAWA BARAT";"45322";"Indonesia";" 085100700221";"";"/url?q>>u003dhttp://www.tokobesimaju.blogspot.com/>>u0026opi>>u003d79508299>>u0026sa>>u003dU>>u0026ved>>u003d0ahUKEwjnkYGp-r-LAxWXSPEDHcWIN6YQ61gIFigS>>u0026usg>>u003dAOvVaw1B2Tukx9EY8uLttoa121DA";"-6.8437275";"107.9247868";"https://maps.google.com/?cid=0x0:0x1572ff400b2bb8b3";""
"toko bangunan";"Toko Bahan Bangunan";"Toko Bangunan Cahaya Alam";"Jalan cikopo selatan kampung sukabirus No, RT.03/RW.06, Gadog, Kec. Megamendung, Kabupaten Bogor, Jawa Barat 16770";"RT.03/RW.06, Gadog, Kec. Megamendung, Kabupaten Bogor";"JAWA BARAT";"16770";"Indonesia";"";"";"";"-6.6672434";"106.874674";"https://maps.google.com/?cid=0x0:0x345122b1d1c4f433";""
"toko bangunan";"Pemasok Bahan Bangunan";"TB. Candra Jaya";"Jalan Raya Puncak Km.83, Kelurahan Ciberem No.04, Cisarua, Cibeureum, Kec. Cisarua, Kabupaten Bogor, Jawa Barat 16750";"Kelurahan Ciberem No.04, Cisarua, Cibeureum, Kec. Cisarua, Kabupaten Bogor";"JAWA BARAT";"16750";"Indonesia";" 02518255469";"";"";"-6.6872361";"106.9382384";"https://maps.google.com/?cid=0x0:0xc4589c021e1591e6";""
"toko bangunan";"Toko Bahan Bangunan";"TB. HERLIN";"Jl. Raya Puncak No.KM 80, Citeko, Kec. Cisarua, Kabupaten Bogor, Jawa Barat 16750";"Citeko, Kec. Cisarua, Kabupaten Bogor";"JAWA BARAT";"16750";"Indonesia";" 081287733286";"";"";"-6.6785228";"106.9297594";"https://maps.google.com/?cid=0x0:0x5070e7b480827619";""
"toko bangunan";"Toko Bahan Bangunan";"Nugraha Transport";"8W6H+FVC, Jl. Citeko, Citeko, Kec. Cisarua, Kabupaten Bogor, Jawa Barat 16750";"Jl. Citeko, Citeko, Kec. Cisarua, Kabupaten Bogor";"JAWA BARAT";"16750";"Indonesia";" 085710236320";"";"";"-6.6888117";"106.9296523";"https://maps.google.com/?cid=0x0:0x4038f0727c4f27c";""
"toko bangunan";"Toko Bahan Bangunan";"Tb.barkot jaya";"8WJV+G7F, Jogjogan, Kec. Cisarua, Kabupaten Bogor, Jawa Barat 16750";"Jogjogan, Kec. Cisarua, Kabupaten Bogor";"JAWA BARAT";"16750";"Indonesia";"";"";"";"-6.6686976";"106.9431834";"https://maps.google.com/?cid=0x0:0x738db402c2e7f06d";""
"toko bangunan";"Toko Bahan Bangunan";"Tb Kampuh Jaya";"Jl. Labuan - Cianjur No.899, Tugu Utara, Kec. Cisarua, Kabupaten Bogor, Jawa Barat 16750";"Tugu Utara, Kec. Cisarua, Kabupaten Bogor";"JAWA BARAT";"16750";"Indonesia";"";"";"";"-6.6943405";"106.9643524";"https://maps.google.com/?cid=0x0:0x256e279d8c554eac";""
"toko bangunan";"Toko Bahan Bangunan";"Tb. Mitra 2";"JL Raya Puncak Cisarua, No. 53 RT 4 RW 10, Cisarua, Cidokom, Kopo, Bogor, Kabupaten Bogor, Jawa Barat 16750";"No. 53 RT 4 RW 10, Cisarua, Cidokom, Kopo, Bogor, Kabupaten Bogor";"JAWA BARAT";"16750";"Indonesia";" 085814653116";"";"";"-6.6814489";"106.9204718";"https://maps.google.com/?cid=0x0:0x3c9122668f1911e9";""
"toko bangunan";"Toko Bahan Bangunan";"TOKO BANGUNAN MEKAR JAYA ABADI";"9V4W+CC6, Jl. Terobosan, Cipayung Datar, Kec. Megamendung, Kabupaten Bogor, Jawa Barat 16770";"Jl. Terobosan, Cipayung Datar, Kec. Megamendung, Kabupaten Bogor";"JAWA BARAT";"16770";"Indonesia";"";"";"";"-6.6440314";"106.8960748";"https://maps.google.com/?cid=0x0:0x82a04a64cd067502";""
"toko bangunan";"toko bangunan";"Jawa Barat 45355";"Kec. Cisarua, Kabupaten Sumedang, Jawa Barat";"Kabupaten Sumedang, Jawa Barat";"JAWA BARAT";"";"Indonesia";"";"";"";"-6.8270449";"107.9709613";"https://maps.google.com/?cid=0x0:0x6b05d1adeb733d13";""
"toko bangunan";"Pusat Perbelanjaan";"Toko Besi Berkat Jaya Sentosa (GUNUNGHALU)";"X8J5+44J, Jl. Raya Simpang Asin, RT.02/RW.03, Sirnajaya, Kec. Gununghalu, Kabupaten Bandung Barat, Jawa Barat 40565";"Jl. Raya Simpang Asin, RT.02/RW.03, Sirnajaya, Kec. Gununghalu, Kabupaten Bandung Barat";"JAWA BARAT";"40565";"Indonesia";" 081394418833";"";"";"-7.0196624";"107.307752";"https://maps.google.com/?cid=0x0:0x73fd65d17c9e5800";""
"toko bangunan";"Toko Perlengkapan Rumah";""Bintang Jaya.A" Toko Bahan Bangunan";"X7RC+PHQ, Gunungn Halu Jl. Desa Bunijaya, Bunijaya, Kec. Gununghalu, Kabupaten Bandung Barat, Jawa Barat 40565";"Gunungn Halu Jl. Desa Bunijaya, Bunijaya, Kec. Gununghalu, Kabupaten Bandung Barat";"JAWA BARAT";"40565";"Indonesia";"";"";"";"-7.0081545";"107.2714904";"https://maps.google.com/?cid=0x0:0x4cb49b7882ae1792";""
"toko bangunan";"Pasar bahan bangunan";"TB GR Jaya";"X8F7+X76, Jl. Raya Gn. Halu, Sirnajaya, Kec. Gununghalu, Kabupaten Bandung Barat, Jawa Barat 40565";"Jl. Raya Gn. Halu, Sirnajaya, Kec. Gununghalu, Kabupaten Bandung Barat";"JAWA BARAT";"40565";"Indonesia";"";"";"";"-7.0250977";"107.3131302";"https://maps.google.com/?cid=0x0:0xb53bcf7525387107";""
"toko bangunan";"Toko Bahan Bangunan";"Toko Bahan Bangunan Saluyu";"Jl. Cipaningga Girang, Pasirhuni, Kec. Cimaung, Kabupaten Bandung, Jawa Barat 40374";"Pasirhuni, Kec. Cimaung, Kabupaten Bandung";"JAWA BARAT";"40374";"Indonesia";" 081320406944";"";"/url?q>>u003dhttps://www.instagram.com/cv.saluyugp/channel/>>u0026opi>>u003d79508299>>u0026sa>>u003dU>>u0026ved>>u003d0ahUKEwjO9enO-r-LAxVij68BHdCOPbwQ61gIFigS>>u0026usg>>u003dAOvVaw2h3x6X_45g5qhR653bfYTp";"-7.091821";"107.5749277";"https://maps.google.com/?cid=0x0:0xc79ad566940de4b8";""
"toko bangunan";"Tukang Kayu";"PD.AZZAHRA MANDIRI";"jl. simpang, RT.002/RW.003, Sirnajaya, Kec. Gununghalu, Kabupaten Bandung Barat, Jawa Barat 40565";"RT.002/RW.003, Sirnajaya, Kec. Gununghalu, Kabupaten Bandung Barat";"JAWA BARAT";"40565";"Indonesia";" 087823097628";"";"";"-7.0174431";"107.3063267";"https://maps.google.com/?cid=0x0:0x56b307578841a449";""
"toko bangunan";"Toko Bahan Bangunan";"TB. Panca Anugrah Depok";"Depok, Kec. Pancoran Mas, Kota Depok, Jawa Barat 16439";"Kec. Pancoran Mas, Kota Depok";"JAWA BARAT";"16439";"Indonesia";" 0217522095";"";"";"-6.412447";"106.8165645";"https://maps.google.com/?cid=0x0:0x308e4b17116cb14f";""
"toko bangunan";"Toko Swalayan";"Toko Bangunan Sinar Baru";"Jl. Masjid Nurul Huda s/d Eretan, Tirtajaya, Kec. Sukmajaya, Kota Depok, Jawa Barat 16412";"Tirtajaya, Kec. Sukmajaya, Kota Depok";"JAWA BARAT";"16412";"Indonesia";"";"";"";"-6.4149523";"106.8229501";"https://maps.google.com/?cid=0x0:0x80f08caa6fe07555";""
"toko bangunan";"Toko Bahan Bangunan";"Tb. Qaisar Agung";"Jl. Bojong Pd. Terong No.46, Bojong Pd. Terong, Kec. Cipayung, Kota Depok, Jawa Barat 16436";"Bojong Pd. Terong, Kec. Cipayung, Kota Depok";"JAWA BARAT";"16436";"Indonesia";"";"";"";"-6.4280948";"106.8045214";"https://maps.google.com/?cid=0x0:0xbbdf64101b53baad";""
"toko bangunan";"Toko Bahan Bangunan";"Rajendra - Toko aksesoris furniture, alumunium dan bangunan";"HRGF+QPC, Jl. Katim Palaza, Kalimulya, Kec. Cilodong, Kota Depok, Jawa Barat 16413";"Jl. Katim Palaza, Kalimulya, Kec. Cilodong, Kota Depok";"JAWA BARAT";"16413";"Indonesia";" 08151858489";"";"";"-6.4230568";"106.8242578";"https://maps.google.com/?cid=0x0:0x70f0a58d34d0f101";""
"toko bangunan";"Toko Bahan Bangunan";"TB Hj Ikin";"X8J4+8G2, Jalan Cidadap, RT.2/RW.9, Kampung Banyuresmi, Kec. Gununghalu, Kabupaten Bandung Barat, Jawa Barat";"Kabupaten Bandung Barat, Jawa Barat";"JAWA BARAT";"";"Indonesia";"";"";"";"-7.0192407";"107.3062663";"https://maps.google.com/?cid=0x0:0xda497592c501fb55";""
"toko bangunan";"toko bangunan";"Toko Bangunan Jaelani";"X8VP+VGW, Wargasaluyu, Kec. Gununghalu, Kabupaten Bandung Barat, Jawa Barat 40565";"Wargasaluyu, Kec. Gununghalu, Kabupaten Bandung Barat";"JAWA BARAT";"40565";"Indonesia";"";"";"";"-7.0052631";"107.3363282";"https://maps.google.com/?cid=0x0:0xdf133ec55793d1f0";""
"toko bangunan";"toko bangunan";"Jawa Barat 40565";"Kec. Gununghalu, Kabupaten Bandung Barat, Jawa Barat";"Kabupaten Bandung Barat, Jawa Barat";"JAWA BARAT";"";"Indonesia";"";"";"";"-7.0426048";"107.3139304";"https://maps.google.com/?cid=0x0:0x1c00c5eb568ebf00";""
"toko bangunan";"Toko Bahan Bangunan";"TB. Tunggal Jaya";"Jl. Raya Tangkuban Parahu No.18, Kayuambon, Kec. Lembang, Kabupaten Bandung Barat, Jawa Barat 40391";"Kayuambon, Kec. Lembang, Kabupaten Bandung Barat";"JAWA BARAT";"40391";"Indonesia";" 081952931848";"";"";"-6.813762";"107.623256";"https://maps.google.com/?cid=0x0:0xae270891c2d0c098";""
"toko bangunan";"Toko Bahan Bangunan";"Tunggal Jaya Lembang";"Jl. Raya Tangkuban Parahu No.118, Cibogo, Kec. Lembang, Kabupaten Bandung Barat, Jawa Barat 40391";"Cibogo, Kec. Lembang, Kabupaten Bandung Barat";"JAWA BARAT";"40391";"Indonesia";" 087733170913";"";"";"-6.8115498";"107.6353258";"https://maps.google.com/?cid=0x0:0x172457398b5ce1d";""
