Category;Real Category;Business Name;Address;City;State;Postal Code;Country;Phone;Email;Website;Latitude;Longitude;Map Link;Details Link
"hotel";"hotel";"OYO 92117 Fa Homestay Syariah";"76, Jl. Raya Babat - Bojonegoro No.1, Banaran, Kabupaten Lamongan, Jawa Timur 62271";"Jl. Raya Babat - Bojonegoro No.1, Banaran, Kabupaten Lamongan";"JAWA TIMUR";"62271";"Indonesia";" 02129707601";"";"";"-7.1100787";"112.1615594";"https://maps.google.com/?cid=0x0:0x4eef81b10500de19";""
"hotel";"hotel";"FA Hotel Babat";"Jl. Raya Babat - Bojonegoro, Gedu, Banaran, Kec. Babat, Kabupaten Lamongan, Jawa Timur";"Kabupaten Lamongan, Jawa Timur";"JAWA TIMUR";"";"Indonesia";" 0895417300072";"";"";"-7.1104013";"112.1609461";"https://maps.google.com/?cid=0x0:0x6c35266097176db5";""
"hotel";"hotel";"Hotel Bougenville Syari'ah";"RSM, barat Jl. Jaksa Agung Suprapto, Sarirejo, Sukorejo, Kec. Lamongan, Kabupaten Lamongan, Jawa Timur 62215";"barat Jl. Jaksa Agung Suprapto, Sarirejo, Sukorejo, Kec. Lamongan, Kabupaten Lamongan";"JAWA TIMUR";"62215";"Indonesia";" 082145641835";"";"/url?q>>u003dhttps://instagram.com/hotelboegenviel%3Figshid%3DYmMyMTA2M2Y%3D>>u0026opi>>u003d79508299>>u0026sa>>u003dU>>u0026ved>>u003d0ahUKEwiWopOc4OmLAxX8yzgGHTV1BGAQ61gIFigS>>u0026usg>>u003dAOvVaw37S9QdY-gOCekVsjDxnyFY";"-7.109202";"112.4028056";"https://maps.google.com/?cid=0x0:0xa80502cfd1e5c2c0";""
"hotel";"hotel";"Hotel Arut Syari'ah";"Jalan Raya Lamongan-Babat Km 5 Sukoanyar, Kruwul, Karanglangit, Kabupaten Lamongan, Jawa Timur";"Kabupaten Lamongan, Jawa Timur";"JAWA TIMUR";"";"Indonesia";" 081249551903";"";"";"-7.1023496";"112.3684112";"https://maps.google.com/?cid=0x0:0xcb12c230cb9c75c4";""
"hotel";"hotel";"Hotel Elresas";"Jl. KH. Ahmad Dahlan No.24, Kauman, Sidoharjo, Kec. Lamongan, Kabupaten Lamongan, Jawa Timur 62214";"Kauman, Sidoharjo, Kec. Lamongan, Kabupaten Lamongan";"JAWA TIMUR";"62214";"Indonesia";" 0322322777";"";"";"-7.1220778";"112.4146219";"https://maps.google.com/?cid=0x0:0x41cfa325a41badee";""
"hotel";"hotel";"N/A";"";"";"JAWA TIMUR";"";"Indonesia";"";"";"";"";"";"https://maps.google.com/?cid=0x0:0x41cfa325a41badee%7C/g/11bt_hc7my%7Cen-ID";""
"hotel";"hotel";"Hotel Aqiilah Syariah";"Jl. Raya Deket, Gajah, Rejosari, Kec. Deket, Kabupaten Lamongan, Jawa Timur 62291";"Gajah, Rejosari, Kec. Deket, Kabupaten Lamongan";"JAWA TIMUR";"62291";"Indonesia";" 085707740422";"";"";"-7.1175863";"112.45091";"https://maps.google.com/?cid=0x0:0xb9cc2f60924367b";""
"hotel";"hotel";"Grand Hagawa Lamongan";"rumah sakit, 62216 Lamongan, Jawa Timur, 62217, Kec. Lamongan, Kabupaten Lamongan, Jawa Timur 62208";"Lamongan";"JAWA TIMUR";"62216";"Indonesia";" 0895417300072";"";"";"-7.1184799";"112.406608";"https://maps.google.com/?cid=0x0:0x3c24509245d95b77";""
"hotel";"hotel";"Hotel Grand Mahkota";"Jl. Sunan Drajat No.4-8, Kauman, Sidoharjo, Kec. Lamongan, Kabupaten Lamongan, Jawa Timur 62214";"Kauman, Sidoharjo, Kec. Lamongan, Kabupaten Lamongan";"JAWA TIMUR";"62214";"Indonesia";" 082231199933";"";"/url?q>>u003dhttp://hotelmahkota.com/>>u0026opi>>u003d79508299>>u0026sa>>u003dU>>u0026ved>>u003d0ahUKEwijieSf4OmLAxWQzDgGHRywG3cQ61gIFigS>>u0026usg>>u003dAOvVaw2dRKdyXFVPn4QaFu-agkHt";"-7.1224216";"112.4151704";"https://maps.google.com/?cid=0x0:0xc041f17942481398";""
"hotel";"hotel";"N/A";"";"";"JAWA TIMUR";"";"Indonesia";"";"";"";"";"";"https://maps.google.com/?cid=0x0:0xc041f17942481398%7C/g/11cjj1c_mq%7Cen-ID";""
"hotel";"hotel";"Hotel Bintang Tuban";"33PJ+5V8, Jl. Tuban - Babat, Dondong, Gedongombo, Kec. Tuban, Kabupaten Tuban, Jawa Timur 62381";"Jl. Tuban - Babat, Dondong, Gedongombo, Kec. Tuban, Kabupaten Tuban";"JAWA TIMUR";"62381";"Indonesia";" 02129706666";"";"";"-6.9145996";"112.0821957";"https://maps.google.com/?cid=0x0:0x95c88fe5e4a9b519";""
"hotel";"hotel";"N/A";"";"";"JAWA TIMUR";"";"Indonesia";"";"";"";"";"";"https://maps.google.com/?cid=0x0:0x95c88fe5e4a9b519%7C/g/11css7vt8d%7Cen-ID";""
"hotel";"hotel";"Hotel Indonesia Tuban";"Jl. KH. Mustain No.17, Kutorejo, Kec. Tuban, Kabupaten Tuban, Jawa Timur 62311";"Kutorejo, Kec. Tuban, Kabupaten Tuban";"JAWA TIMUR";"62311";"Indonesia";" 0356329800";"";"";"-6.8973008";"112.0642524";"https://maps.google.com/?cid=0x0:0x97e0f24d1da4a151";""
"hotel";"hotel";"Hotel Syari'ah Lamongan";"Jl. Raya Mantup No.43, Kucur, Sidomukti, Kec. Lamongan, Kabupaten Lamongan, Jawa Timur 62218";"Kucur, Sidomukti, Kec. Lamongan, Kabupaten Lamongan";"JAWA TIMUR";"62218";"Indonesia";" 085733773626";"";"";"-7.1453685";"112.4116061";"https://maps.google.com/?cid=0x0:0x26cce5b3d5559a82";""
"hotel";"hotel";"Hotel Mahkota";"42JG+XJR, Jembel, Jabung, Sugihwaras, Kec. Jenu, Kabupaten Tuban, Jawa Timur 62352";"Jembel, Jabung, Sugihwaras, Kec. Jenu, Kabupaten Tuban";"JAWA TIMUR";"62352";"Indonesia";" 0356328591";"";"";"-6.8675044";"112.0265162";"https://maps.google.com/?cid=0x0:0x5d324a4b4e0a528d";""
"hotel";"hotel";"N/A";"";"";"JAWA TIMUR";"";"Indonesia";"";"";"";"";"";"https://maps.google.com/?cid=0x0:0x26cce5b3d5559a82%7C/g/11bx1s8gsh%7Cen-ID";""
"hotel";"hotel";"Hotel Wijaya";"VCM8+GP4, Jl. Lamongrejo No.59, Lamongan, Sidokumpul, Kec. Lamongan, Kabupaten Lamongan, Jawa Timur 62214";"Jl. Lamongrejo No.59, Lamongan, Sidokumpul, Kec. Lamongan, Kabupaten Lamongan";"JAWA TIMUR";"62214";"Indonesia";" 0322321192";"";"";"-7.1161948";"112.416834";"https://maps.google.com/?cid=0x0:0xda6f0eafc4e3b786";""
"hotel";"hotel";"Hotel 77, Tuban";"33WH+8Q5, Jalan, Wire, Gedongombo, Semanding, Tuban Regency, East Java 62381";"Jalan, Wire, Gedongombo, Semanding, Tuban Regency";"JAWA TIMUR";"62381";"Indonesia";" 03568833786";"";"";"-6.9042352";"112.0794746";"https://maps.google.com/?cid=0x0:0x94c590acd7b554ab";""
"hotel";"hotel";"N/A";"";"";"JAWA TIMUR";"";"Indonesia";"";"";"";"";"";"https://maps.google.com/?cid=0x0:0x8be96842b3a209f9%7C/g/11jfl3v69q%7Cen-ID";""
"hotel";"hotel";"OYO 3434 Penginapan Keluarga Syariah";"61, Jl. Merpati No.61, Krajan, Banjarmendalan, Kec. Lamongan, Kabupaten Lamongan, Jawa Timur 62211";"Jl. Merpati No.61, Krajan, Banjarmendalan, Kec. Lamongan, Kabupaten Lamongan";"JAWA TIMUR";"62211";"Indonesia";" 02129707601";"";"/url?q>>u003dhttps://www.oyorooms.com/ID/101462/%3Futm_source%3DGMB_ID%26utm_medium%3DOrganic%26utm_campaign%3DID_LAM001%26latitude%3D-7.11646148123045%26longitude%3D112.420091126114%26locale%3Did>>u0026opi>>u003d79508299>>u0026sa>>u003dU>>u0026ved>>u003d0ahUKEwihntGo4OmLAxWLxzgGHfoGAc8Q61gIFigS>>u0026usg>>u003dAOvVaw1CZAMa7bhty3Ims8A8iROM";"-7.1164615";"112.4200911";"https://maps.google.com/?cid=0x0:0x8be96842b3a209f9";""
"hotel";"hotel";"KABILA HOTEL";"ruko permata, Jl. Panglima Sudirman Kav. I, Dapur Utara, Sidokumpul, Kec. Lamongan, Kabupaten Lamongan, Jawa Timur 62212";"Jl. Panglima Sudirman Kav. I, Dapur Utara, Sidokumpul, Kec. Lamongan, Kabupaten Lamongan";"JAWA TIMUR";"62212";"Indonesia";" 0322315332";"";"";"-7.1134531";"112.4237974";"https://maps.google.com/?cid=0x0:0xdd3d6700df3d1979";""
"hotel";"hotel";"OYO 3500 D'chandra Family Syariah";"Ngimbang, Lamongan Regency, East Java, Lamongan, Kabupaten Lamongan, Jawa Barat 62273";"Lamongan Regency, East Java, Lamongan, Kabupaten Lamongan";"JAWA TIMUR";"62273";"Indonesia";" 02129707601";"";"/url?q>>u003dhttps://www.oyorooms.com/ID/hotels-in-Lamongan/%3Futm_source%3DGMB_ID_SO%26utm_medium%3DOrganic%26utm_campaign%3DID_LAM002%26locale%3Did>>u0026opi>>u003d79508299>>u0026sa>>u003dU>>u0026ved>>u003d0ahUKEwiBzZ-q4OmLAxUSVmwGHT1CA9kQ61gIFigS>>u0026usg>>u003dAOvVaw3b3rqPUvyJzoBMN5Cg3UYI";"-7.2854828";"112.2129592";"https://maps.google.com/?cid=0x0:0xe6711defc36c4c87";""
"hotel";"hotel";"OYO 92736 Bougenville Rover";"62281 Lamongan, Jawa Timur, 62218, alun alun, Lamongan, Lamongan Regency, East Java 62821";"Lamongan";"JAWA TIMUR";"62281";"Indonesia";" 02129707601";"";"/url?q>>u003dhttps://www.oyorooms.com/ID/215648/%3Futm_source%3DGMB_ID%26utm_medium%3DOrganic%26utm_campaign%3DID_LAM013%26latitude%3D-7.128222038186777%26longitude%3D112.41939341649413%26locale%3Did>>u0026opi>>u003d79508299>>u0026sa>>u003dU>>u0026ved>>u003d0ahUKEwjv3KCq4OmLAxV12DgGHUe1DEkQ61gIFigS>>u0026usg>>u003dAOvVaw12-7bFusw5VLLpAZW_L6rY";"-7.128222";"112.4193934";"https://maps.google.com/?cid=0x0:0xf4de67c62eb44f72";""
"hotel";"hotel";"OYO 91868 Nusa Indah Guest House Syariah";"Depot Asih Jaya, 28 Lamongan, East Java, 62217, Lamongan, Lamongan Regency, East Java 62214";"East Java,";"JAWA TIMUR";"62217";"Indonesia";" 02129707601";"";"";"-7.1149226";"112.4066461";"https://maps.google.com/?cid=0x0:0x35efec934691c10c";""
"hotel";"hotel";"Babat";"Banaran, Babat, Kec. Babat, Kabupaten Lamongan, Jawa Timur";"Kabupaten Lamongan, Jawa Timur";"JAWA TIMUR";"";"Indonesia";"";"";"";"-7.1041351";"112.1707782";"https://maps.google.com/?cid=0x0:0x258be7cc708f0699";""
"hotel";"hotel";"OYO 91848 Kost As-salaam Syariah";"10A, Jl. Sumargo Gg. Bougenville No.10A, Tlogoanyar, Kec. Lamongan, Kabupaten Lamongan, Jawa Timur 62218";"Jl. Sumargo Gg. Bougenville No.10A, Tlogoanyar, Kec. Lamongan, Kabupaten Lamongan";"JAWA TIMUR";"62218";"Indonesia";" 02129707601";"";"/url?q>>u003dhttps://www.oyorooms.com/ID/195201/%3Futm_source%3DGMB_ID%26utm_medium%3DOrganic%26utm_campaign%3DID_LAM010%26latitude%3D-7.1287598225191555%26longitude%3D112.41909518837929%26locale%3Did>>u0026opi>>u003d79508299>>u0026sa>>u003dU>>u0026ved>>u003d0ahUKEwi9q7ar4OmLAxVSS2cHHUFRJ7IQ61gIFigS>>u0026usg>>u003dAOvVaw3dnsuG5UcO889AIv6ka4lC";"-7.1287598";"112.4190952";"https://maps.google.com/?cid=0x0:0x511dfb2ec7923b89";""
"hotel";"hotel";"OYO 3706 Griya Tentrem Syariah";"Jl. Veteran No.150, Tlogoanyar, Kec. Lamongan, Kabupaten Lamongan, Jawa Timur 62218";"Tlogoanyar, Kec. Lamongan, Kabupaten Lamongan";"JAWA TIMUR";"62218";"Indonesia";" 02129707601";"";"/url?q>>u003dhttps://www.oyorooms.com/ID/hotels-in-Lamongan/%3Futm_source%3DGMB_ID_SO%26utm_medium%3DOrganic%26utm_campaign%3DID_LAM005%26locale%3Did>>u0026opi>>u003d79508299>>u0026sa>>u003dU>>u0026ved>>u003d0ahUKEwjSmIes4OmLAxXWxTgGHe2dLasQ61gIFigS>>u0026usg>>u003dAOvVaw3SsA1CwXUAYiNGt3Bmgzlc";"-7.1249585";"112.4217189";"https://maps.google.com/?cid=0x0:0x1f6bf2072356ef45";""
"hotel";"hotel";"N/A";"";"";"JAWA TIMUR";"";"Indonesia";"";"";"";"";"";"https://maps.google.com/?cid=0x0:0x1f6bf2072356ef45%7C/g/11j67l4m81%7Cen-ID";""
"hotel";"hotel";"SPOT ON 90586 Hagawa Syariah Homestay";"62217, Jl. Sunan Kalijaga Gg. Manggis No.25, Kec. Lamongan, Kabupaten Lamongan, Jawa Timur 62215";"Jl. Sunan Kalijaga Gg. Manggis No.25, Kec. Lamongan, Kabupaten Lamongan";"JAWA TIMUR";"62215";"Indonesia";" 02129707601";"";"/url?q>>u003dhttps://www.oyorooms.com/ID/113922/%3Futm_source%3DGMB_ID%26utm_medium%3DOrganic%26utm_campaign%3DID_LAM007%26latitude%3D-7.1192082%26longitude%3D112.4094827%26locale%3Did>>u0026opi>>u003d79508299>>u0026sa>>u003dU>>u0026ved>>u003d0ahUKEwi-ycCs4OmLAxVWzzgGHUNHAT0Q61gIFigS>>u0026usg>>u003dAOvVaw0DesJKDh8hCkwWbgYIB0bc";"-7.1192152";"112.4094834";"https://maps.google.com/?cid=0x0:0x5b6ac4b8bad74b01";""
"hotel";"hotel";"Jatim lamongan";"P47C+V7F, Suren, Bluluk, Kec. Bluluk, Kabupaten Lamongan, Jawa Timur 62274";"Suren, Bluluk, Kec. Bluluk, Kabupaten Lamongan";"JAWA TIMUR";"62274";"Indonesia";"";"";"";"-7.2853061";"112.1206661";"https://maps.google.com/?cid=0x0:0xcb42c5d11859d0f9";""
"hotel";"Rumah wisata";"Omah e mbah e dika";"M4QG+VJV, Tempuran, Cangkring, Kec. Bluluk, Kabupaten Lamongan, Jawa Timur 62274";"Tempuran, Cangkring, Kec. Bluluk, Kabupaten Lamongan";"JAWA TIMUR";"62274";"Indonesia";"";"";"";"-7.3102547";"112.1265389";"https://maps.google.com/?cid=0x0:0x3698dfe070bab66e";""
"hotel";"hotel";"Dzihan Aji Wibowo";"Dusun Sengon, Cangkring, Kec. Bluluk, Kabupaten Lamongan, Jawa Timur 62274";"Cangkring, Kec. Bluluk, Kabupaten Lamongan";"JAWA TIMUR";"62274";"Indonesia";"";"";"";"-7.3108494";"112.1280789";"https://maps.google.com/?cid=0x0:0x5898690a4e0fb8f5";""
"hotel";"Hotel";"Rumah cak mur";"M4QG+JJF, Tempuran, Cangkring, Kec. Bluluk, Kabupaten Lamongan, Jawa Timur 62274";"Tempuran, Cangkring, Kec. Bluluk, Kabupaten Lamongan";"JAWA TIMUR";"62274";"Indonesia";"";"";"";"-7.310868";"112.1279065";"https://maps.google.com/?cid=0x0:0x1a98e63643a97555";""
"hotel";"Gedung Apartemen";"Omah ku";"P32W+HQW, Kayen, Talunrejo, Kec. Bluluk, Kabupaten Lamongan, Jawa Timur 62274";"Kayen, Talunrejo, Kec. Bluluk, Kabupaten Lamongan";"JAWA TIMUR";"62274";"Indonesia";"";"";"";"-7.2985125";"112.0969531";"https://maps.google.com/?cid=0x0:0x72e9689834e45dfa";""
"hotel";"hotel";"Jawa Timur 62274";"Kec. Bluluk, Kabupaten Lamongan, Jawa Timur";"Kabupaten Lamongan, Jawa Timur";"JAWA TIMUR";"";"Indonesia";"";"";"";"-7.2885628";"112.1310986";"https://maps.google.com/?cid=0x0:0x1c00c5eb5b53f960";""
"hotel";"hotel";"Desa";"P4CJ+5PW, Polaman, Bluluk, Kec. Bluluk, Kabupaten Lamongan, Jawa Timur 62274";"Polaman, Bluluk, Kec. Bluluk, Kabupaten Lamongan";"JAWA TIMUR";"62274";"Indonesia";"";"";"";"-7.2795157";"112.1318283";"https://maps.google.com/?cid=0x0:0xce09c5e9394aa84b";""
"hotel";"hotel";"Tanjung Kodok Beach Resort Lamongan";"Jl. Raya Paciran, Paciran, Kec. Paciran, Kabupaten Lamongan, Jawa Timur 62264";"Paciran, Kec. Paciran, Kabupaten Lamongan";"JAWA TIMUR";"62264";"Indonesia";" 0322666000";"";"/url?q>>u003dhttp://www.tanjungkodokbeachresort.com/>>u0026opi>>u003d79508299>>u0026sa>>u003dU>>u0026ved>>u003d0ahUKEwiH8K3u4emLAxWFSWwGHaqvL7sQ61gIFigS>>u0026usg>>u003dAOvVaw0wB7M9M28GEcp9FKjBB7TO";"-6.8665967";"112.357741";"https://maps.google.com/?cid=0x0:0xd30a4707034bb0c";""
"hotel";"hotel";"Hotel Sunan Drajat";"Makam Sunan Drajat, Jl. Raya Dagan No.Depan, Banjaranyar, Banjarwati, Kec. Paciran, Kabupaten Lamongan, Jawa Timur 62264";"Jl. Raya Dagan No.Depan, Banjaranyar, Banjarwati, Kec. Paciran, Kabupaten Lamongan";"JAWA TIMUR";"62264";"Indonesia";" 081249610144";"";"/url?q>>u003dhttps://perekonomian.ppsd.or.id/>>u0026opi>>u003d79508299>>u0026sa>>u003dU>>u0026ved>>u003d0ahUKEwi_09Tu4emLAxXNTGcHHVqFNtEQ61gIFigS>>u0026usg>>u003dAOvVaw3XPCUDnmjlFFTdLymyQTix";"-6.8855409";"112.3923268";"https://maps.google.com/?cid=0x0:0x530f9fe64d6c8c36";""
"hotel";"Agen Tiket";"Wisata Bahari Lamongan (WBL)";"Jl. Raya Paciran, Paciran, Kec. Paciran, Kabupaten Lamongan, Jawa Timur 62276";"Paciran, Kec. Paciran, Kabupaten Lamongan";"JAWA TIMUR";"62276";"Indonesia";" 0322666111";"";"/url?q>>u003dhttps://wisatabaharilamongan.com/>>u0026opi>>u003d79508299>>u0026sa>>u003dU>>u0026ved>>u003d0ahUKEwiJ-u_u4emLAxV21DgGHUK_AAkQ61gIFigS>>u0026usg>>u003dAOvVaw0-UJdF2CLoH7PsMt_NX-AS";"-6.8667365";"112.3608866";"https://maps.google.com/?cid=0x0:0x1eb952764236c3c8";""
"hotel";"hotel";"ANGGUN HOMESTAY SYARIAH";"Penanjan, Jl. Pramuka, RT.002/RW.001, Paciran, Kec. Paciran, Kabupaten Lamongan, Jawa Timur 62264";"Jl. Pramuka, RT.002/RW.001, Paciran, Kec. Paciran, Kabupaten Lamongan";"JAWA TIMUR";"62264";"Indonesia";" 081234511831";"";"";"-6.869402";"112.3540581";"https://maps.google.com/?cid=0x0:0x398a7288696f2e77";""
"hotel";"hotel";"Hotel Bintang Tuban";"33PJ+5V8, Jl. Tuban - Babat, Dondong, Gedongombo, Kec. Tuban, Kabupaten Tuban, Jawa Timur 62381";"Jl. Tuban - Babat, Dondong, Gedongombo, Kec. Tuban, Kabupaten Tuban";"JAWA TIMUR";"62381";"Indonesia";" 02129706666";"";"";"-6.9145996";"112.0821957";"https://maps.google.com/?cid=0x0:0x95c88fe5e4a9b519";""
"hotel";"hotel";"N/A";"";"";"JAWA TIMUR";"";"Indonesia";"";"";"";"";"";"https://maps.google.com/?cid=0x0:0x95c88fe5e4a9b519%7C/g/11css7vt8d%7Cen-ID";""
"hotel";"hotel";"Hotel Indonesia Tuban";"Jl. KH. Mustain No.17, Kutorejo, Kec. Tuban, Kabupaten Tuban, Jawa Timur 62311";"Kutorejo, Kec. Tuban, Kabupaten Tuban";"JAWA TIMUR";"62311";"Indonesia";" 0356329800";"";"";"-6.8973008";"112.0642524";"https://maps.google.com/?cid=0x0:0x97e0f24d1da4a151";""
"hotel";"hotel";"Brondong";"Sedayulawas, Kec. Brondong, Kabupaten Lamongan, Jawa Timur";"Kabupaten Lamongan, Jawa Timur";"JAWA TIMUR";"";"Indonesia";"";"";"";"-6.88272";"112.271004";"https://maps.google.com/?cid=0x0:0xc5463548a497d909";""
"hotel";"hotel";"Grand Kencana Guesthouse Syariah near Wisata Bahari Lamongan";"49M4+9G9, Jl. Raya Daendles, Paciran, Kec. Paciran, Kabupaten Lamongan, Jawa Timur 62264";"Jl. Raya Daendles, Paciran, Kec. Paciran, Kabupaten Lamongan";"JAWA TIMUR";"62264";"Indonesia";" 0895417300072";"";"";"-6.866938";"112.3565411";"https://maps.google.com/?cid=0x0:0xaa14b69f9c363d98";""
"hotel";"hotel";"Shafina Guesthouse";"Paciran, Kec. Paciran, Kabupaten Lamongan, Jawa Timur 62264";"Kec. Paciran, Kabupaten Lamongan";"JAWA TIMUR";"62264";"Indonesia";" 081357669616";"";"/url?q>>u003dhttps://shafinaguesthouse.blogspot.com/>>u0026opi>>u003d79508299>>u0026sa>>u003dU>>u0026ved>>u003d0ahUKEwjcsLXx4emLAxUWSWwGHQMXJnkQ61gIFigS>>u0026usg>>u003dAOvVaw0Llu_WVjflW70gG-ONwTqA";"-6.8692576";"112.3530499";"https://maps.google.com/?cid=0x0:0x83297f4327bea915";""
"hotel";"hotel";"Hotel Bougenville Syari'ah";"RSM, barat Jl. Jaksa Agung Suprapto, Sarirejo, Sukorejo, Kec. Lamongan, Kabupaten Lamongan, Jawa Timur 62215";"barat Jl. Jaksa Agung Suprapto, Sarirejo, Sukorejo, Kec. Lamongan, Kabupaten Lamongan";"JAWA TIMUR";"62215";"Indonesia";" 082145641835";"";"/url?q>>u003dhttps://instagram.com/hotelboegenviel%3Figshid%3DYmMyMTA2M2Y%3D>>u0026opi>>u003d79508299>>u0026sa>>u003dU>>u0026ved>>u003d0ahUKEwiW897x4emLAxWNTGwGHTVrK50Q61gIFigS>>u0026usg>>u003dAOvVaw1qjHD70Q3xU2Km4PdKZBll";"-7.109202";"112.4028056";"https://maps.google.com/?cid=0x0:0xa80502cfd1e5c2c0";""
"hotel";"hotel";"Hotel Grand Mahkota";"Jl. Sunan Drajat No.4-8, Kauman, Sidoharjo, Kec. Lamongan, Kabupaten Lamongan, Jawa Timur 62214";"Kauman, Sidoharjo, Kec. Lamongan, Kabupaten Lamongan";"JAWA TIMUR";"62214";"Indonesia";" 082231199933";"";"/url?q>>u003dhttp://hotelmahkota.com/>>u0026opi>>u003d79508299>>u0026sa>>u003dU>>u0026ved>>u003d0ahUKEwim5v7x4emLAxUJXGwGHTxRKBAQ61gIFigS>>u0026usg>>u003dAOvVaw2mYH4F_IH_bG8aS7pBmEvN";"-7.1224216";"112.4151704";"https://maps.google.com/?cid=0x0:0xc041f17942481398";""
"hotel";"hotel";"N/A";"";"";"JAWA TIMUR";"";"Indonesia";"";"";"";"";"";"https://maps.google.com/?cid=0x0:0xc041f17942481398%7C/g/11cjj1c_mq%7Cen-ID";""
"hotel";"hotel";"Hotel Syari'ah Lamongan";"Jl. Raya Mantup No.43, Kucur, Sidomukti, Kec. Lamongan, Kabupaten Lamongan, Jawa Timur 62218";"Kucur, Sidomukti, Kec. Lamongan, Kabupaten Lamongan";"JAWA TIMUR";"62218";"Indonesia";" 085733773626";"";"";"-7.1453685";"112.4116061";"https://maps.google.com/?cid=0x0:0x26cce5b3d5559a82";""
"hotel";"hotel";"N/A";"";"";"JAWA TIMUR";"";"Indonesia";"";"";"";"";"";"https://maps.google.com/?cid=0x0:0x26cce5b3d5559a82%7C/g/11bx1s8gsh%7Cen-ID";""
"hotel";"hotel";"Hotel Wijaya";"VCM8+GP4, Jl. Lamongrejo No.59, Lamongan, Sidokumpul, Kec. Lamongan, Kabupaten Lamongan, Jawa Timur 62214";"Jl. Lamongrejo No.59, Lamongan, Sidokumpul, Kec. Lamongan, Kabupaten Lamongan";"JAWA TIMUR";"62214";"Indonesia";" 0322321192";"";"";"-7.1161948";"112.416834";"https://maps.google.com/?cid=0x0:0xda6f0eafc4e3b786";""
"hotel";"hotel";"Grand Wisma Hotel (Syariah)";"Jl. Pahlawan No.09, Pagerwojo, Sukomulyo, Kec. Lamongan, Kabupaten Lamongan, Jawa Timur 62216";"Pagerwojo, Sukomulyo, Kec. Lamongan, Kabupaten Lamongan";"JAWA TIMUR";"62216";"Indonesia";" 088212185037";"";"";"-7.1181753";"112.4026107";"https://maps.google.com/?cid=0x0:0xf738a1d75ef9ac7d";""
"hotel";"hotel";"Hotel Elresas";"Jl. KH. Ahmad Dahlan No.24, Kauman, Sidoharjo, Kec. Lamongan, Kabupaten Lamongan, Jawa Timur 62214";"Kauman, Sidoharjo, Kec. Lamongan, Kabupaten Lamongan";"JAWA TIMUR";"62214";"Indonesia";" 0322322777";"";"";"-7.1220778";"112.4146219";"https://maps.google.com/?cid=0x0:0x41cfa325a41badee";""
"hotel";"hotel";"N/A";"";"";"JAWA TIMUR";"";"Indonesia";"";"";"";"";"";"https://maps.google.com/?cid=0x0:0x41cfa325a41badee%7C/g/11bt_hc7my%7Cen-ID";""
"hotel";"hotel";"Hotel Bougenville Syari'ah";"RSM, barat Jl. Jaksa Agung Suprapto, Sarirejo, Sukorejo, Kec. Lamongan, Kabupaten Lamongan, Jawa Timur 62215";"barat Jl. Jaksa Agung Suprapto, Sarirejo, Sukorejo, Kec. Lamongan, Kabupaten Lamongan";"JAWA TIMUR";"62215";"Indonesia";" 082145641835";"";"/url?q>>u003dhttps://instagram.com/hotelboegenviel%3Figshid%3DYmMyMTA2M2Y%3D>>u0026opi>>u003d79508299>>u0026sa>>u003dU>>u0026ved>>u003d0ahUKEwiG1ebS4umLAxXRRioJHfyuNksQ61gIFigS>>u0026usg>>u003dAOvVaw0e9gZR6vA5Txh8w228oH7L";"-7.109202";"112.4028056";"https://maps.google.com/?cid=0x0:0xa80502cfd1e5c2c0";""
"hotel";"hotel";"Puri Karomah";"Weru, Deket Kulon, Kec. Deket, Kabupaten Lamongan, Jawa Timur 62291";"Deket Kulon, Kec. Deket, Kabupaten Lamongan";"JAWA TIMUR";"62291";"Indonesia";" 085718570547";"";"/url?q>>u003dhttps://www.instagram.com/purikaromah.lmg/%3Fhl%3Did>>u0026opi>>u003d79508299>>u0026sa>>u003dU>>u0026ved>>u003d0ahUKEwjUxPrS4umLAxXx6KACHdv-OUIQ61gIFigS>>u0026usg>>u003dAOvVaw1-Gxt9qoghrRJeCDprFeoo";"-7.1156897";"112.4390457";"https://maps.google.com/?cid=0x0:0x20de22b196c51545";""
"hotel";"hotel";"Hotel Arut Syari'ah";"Jalan Raya Lamongan-Babat Km 5 Sukoanyar, Kruwul, Karanglangit, Kabupaten Lamongan, Jawa Timur";"Kabupaten Lamongan, Jawa Timur";"JAWA TIMUR";"";"Indonesia";" 081249551903";"";"";"-7.1023496";"112.3684112";"https://maps.google.com/?cid=0x0:0xcb12c230cb9c75c4";""
"hotel";"hotel";"Hotel Sunan Drajat";"Makam Sunan Drajat, Jl. Raya Dagan No.Depan, Banjaranyar, Banjarwati, Kec. Paciran, Kabupaten Lamongan, Jawa Timur 62264";"Jl. Raya Dagan No.Depan, Banjaranyar, Banjarwati, Kec. Paciran, Kabupaten Lamongan";"JAWA TIMUR";"62264";"Indonesia";" 081249610144";"";"/url?q>>u003dhttps://perekonomian.ppsd.or.id/>>u0026opi>>u003d79508299>>u0026sa>>u003dU>>u0026ved>>u003d0ahUKEwi3yenT4umLAxUyTmwGHd5VN7sQ61gIFigS>>u0026usg>>u003dAOvVaw3Tr_2xgiYrBMjADr_Owoif";"-6.8855409";"112.3923268";"https://maps.google.com/?cid=0x0:0x530f9fe64d6c8c36";""
"hotel";"hotel";"éL Hotel Malang";"Green Hills Residence Jalan Bukit Palem Raya No.13, Kendalsari, Ngijo, Kec. Karang Ploso, Kabupaten Malang, Jawa Timur 65152";"Kendalsari, Ngijo, Kec. Karang Ploso, Kabupaten Malang";"JAWA TIMUR";"65152";"Indonesia";" 0341469090";"";"/url?q>>u003dhttps://malang.el-hotels.com/>>u0026opi>>u003d79508299>>u0026sa>>u003dU>>u0026ved>>u003d0ahUKEwjKiYHU4umLAxVdyDgGHU9BJMIQ61gIFigS>>u0026usg>>u003dAOvVaw2LsV0Fqg0EVW7d-6fSx1Gf";"-7.9022006";"112.6056572";"https://maps.google.com/?cid=0x0:0xfe03a3a9e8830dac";""
"hotel";"hotel";"N/A";"";"";"JAWA TIMUR";"";"Indonesia";"";"";"";"";"";"https://maps.google.com/?cid=0x0:0xfe03a3a9e8830dac%7C/g/11b6dfdysp%7Cen-ID";""
"hotel";"hotel";"Hotel Grand Mahkota";"Jl. Sunan Drajat No.4-8, Kauman, Sidoharjo, Kec. Lamongan, Kabupaten Lamongan, Jawa Timur 62214";"Kauman, Sidoharjo, Kec. Lamongan, Kabupaten Lamongan";"JAWA TIMUR";"62214";"Indonesia";" 082231199933";"";"";"-7.1224216";"112.4151704";"https://maps.google.com/?cid=0x0:0xc041f17942481398";""
"hotel";"hotel";"N/A";"";"";"JAWA TIMUR";"";"Indonesia";"";"";"";"";"";"https://maps.google.com/?cid=0x0:0xc041f17942481398%7C/g/11cjj1c_mq%7Cen-ID";""
"hotel";"hotel";"Grand Hagawa Lamongan";"rumah sakit, 62216 Lamongan, Jawa Timur, 62217, Kec. Lamongan, Kabupaten Lamongan, Jawa Timur 62208";"Lamongan";"JAWA TIMUR";"62216";"Indonesia";" 0895417300072";"";"";"-7.1184799";"112.406608";"https://maps.google.com/?cid=0x0:0x3c24509245d95b77";""
"hotel";"hotel";"The Capital Hotel Surabaya";"Jl. Raya Jemursari No.258, Prapen, Kec. Tenggilis Mejoyo, Surabaya, Jawa Timur 60237";"Prapen, Kec. Tenggilis Mejoyo, Surabaya";"JAWA TIMUR";"60237";"Indonesia";" 083135766266";"";"";"-7.3132446";"112.7565062";"https://maps.google.com/?cid=0x0:0x40009ae1ac51b665";""
"hotel";"hotel";"N/A";"";"";"JAWA TIMUR";"";"Indonesia";"";"";"";"";"";"https://maps.google.com/?cid=0x0:0x40009ae1ac51b665%7C/g/12hlb9vtp%7Cen-ID";""
"hotel";"hotel";"OYO 3702 Homestay Bougenville";"Jalan Sumargo, Gg. Bougenville No.26, Tlogoanyar, Kec. Lamongan, Kabupaten Lamongan, Jawa Timur 62265";"Gg. Bougenville No.26, Tlogoanyar, Kec. Lamongan, Kabupaten Lamongan";"JAWA TIMUR";"62265";"Indonesia";" 081358607784";"";"";"-7.1282099";"112.4193344";"https://maps.google.com/?cid=0x0:0xf7919b3b8b880c37";""
"hotel";"hotel";"Puri Karomah Syariah";"Jl. Raya Deket, Deket Kulon, Kec. Karangbinangun, Kabupaten Lamongan, Jawa Timur 62291";"Deket Kulon, Kec. Karangbinangun, Kabupaten Lamongan";"JAWA TIMUR";"62291";"Indonesia";" 0895417300072";"";"";"-7.1151097";"112.4309557";"https://maps.google.com/?cid=0x0:0x9e6a62a7639bb8c9";""
"hotel";"hotel";"OYO Life 93036 Eddy Homestay Syariah";"Jl. Jetis Indah plaza No.42, Jetis, Kec. Lamongan, Kabupaten Lamongan, Jawa Timur 62211";"Jetis, Kec. Lamongan, Kabupaten Lamongan";"JAWA TIMUR";"62211";"Indonesia";" 02129707601";"";"";"-7.1196773";"112.423457";"https://maps.google.com/?cid=0x0:0xdde5b8ce8a0a0a61";""
"hotel";"hotel";"OYO 91848 Kost As-salaam Syariah";"10A, Jl. Sumargo Gg. Bougenville No.10A, Tlogoanyar, Kec. Lamongan, Kabupaten Lamongan, Jawa Timur 62218";"Jl. Sumargo Gg. Bougenville No.10A, Tlogoanyar, Kec. Lamongan, Kabupaten Lamongan";"JAWA TIMUR";"62218";"Indonesia";" 02129707601";"";"/url?q>>u003dhttps://www.oyorooms.com/ID/195201/%3Futm_source%3DGMB_ID%26utm_medium%3DOrganic%26utm_campaign%3DID_LAM010%26latitude%3D-7.1287598225191555%26longitude%3D112.41909518837929%26locale%3Did>>u0026opi>>u003d79508299>>u0026sa>>u003dU>>u0026ved>>u003d0ahUKEwi47ZLX4umLAxXwUGwGHfzyOMgQ61gIFigS>>u0026usg>>u003dAOvVaw1202bwlehEyHpCrUQEnMtP";"-7.1287598";"112.4190952";"https://maps.google.com/?cid=0x0:0x511dfb2ec7923b89";""
"hotel";"hotel";"KABILA HOTEL";"ruko permata, Jl. Panglima Sudirman Kav. I, Dapur Utara, Sidokumpul, Kec. Lamongan, Kabupaten Lamongan, Jawa Timur 62212";"Jl. Panglima Sudirman Kav. I, Dapur Utara, Sidokumpul, Kec. Lamongan, Kabupaten Lamongan";"JAWA TIMUR";"62212";"Indonesia";" 0322315332";"";"";"-7.1134531";"112.4237974";"https://maps.google.com/?cid=0x0:0xdd3d6700df3d1979";""
"hotel";"hotel";"SPOT ON 93147 Rumah Kos Shilah Habib";"Jalan Raya Daendels No.115, Tumenggungan, Sumurgayam, Lamongan, Lamongan Regency, East Java 62264";"Tumenggungan, Sumurgayam, Lamongan, Lamongan Regency";"JAWA TIMUR";"62264";"Indonesia";" 0817788016";"";"";"-7.1181115";"112.4149582";"https://maps.google.com/?cid=0x0:0xc68be21e40f931bc";""
"hotel";"hotel";"Assalaam Homestay Syariah RedPartner";"Gg. Bugenvil No.2-22, Tlogoanyar, Kec. Lamongan, Kabupaten Lamongan, Jawa Timur 62218";"Tlogoanyar, Kec. Lamongan, Kabupaten Lamongan";"JAWA TIMUR";"62218";"Indonesia";" 0895417300072";"";"/url?q>>u003dhttps://www.reddoorz.com/en-ph/hotel/indonesia/lamongan/lamongan/banjarmendalan/assalaam-homestay-syariah-redpartner%3Futm_source%3DGoogle%26utm_medium%3Dmybusiness%26utm_campaign%3Dwebclick>>u0026opi>>u003d79508299>>u0026sa>>u003dU>>u0026ved>>u003d0ahUKEwjBlZPY4umLAxVG4jgGHZT-KG4Q61gIFigS>>u0026usg>>u003dAOvVaw2ixXG89Wqhgu1sV-f49wXb";"-7.1292717";"112.4189427";"https://maps.google.com/?cid=0x0:0x1e2978941071f6f7";""
"hotel";"hotel";"FA Hotel Babat";"Jl. Raya Babat - Bojonegoro, Gedu, Banaran, Kec. Babat, Kabupaten Lamongan, Jawa Timur";"Kabupaten Lamongan, Jawa Timur";"JAWA TIMUR";"";"Indonesia";" 0895417300072";"";"";"-7.1104013";"112.1609461";"https://maps.google.com/?cid=0x0:0x6c35266097176db5";""
"hotel";"hotel";"Hotel Wijaya";"VCM8+GP4, Jl. Lamongrejo No.59, Lamongan, Sidokumpul, Kec. Lamongan, Kabupaten Lamongan, Jawa Timur 62214";"Jl. Lamongrejo No.59, Lamongan, Sidokumpul, Kec. Lamongan, Kabupaten Lamongan";"JAWA TIMUR";"62214";"Indonesia";" 0322321192";"";"";"-7.1161948";"112.416834";"https://maps.google.com/?cid=0x0:0xda6f0eafc4e3b786";""
"hotel";"hotel";"Jawa Timur 62291";"Kec. Deket, Kabupaten Lamongan, Jawa Timur";"Kabupaten Lamongan, Jawa Timur";"JAWA TIMUR";"";"Indonesia";"";"";"";"-7.1102164";"112.4649083";"https://maps.google.com/?cid=0x0:0x1c00c5eb5b53f9c0";""
"hotel";"hotel";"Hotel";"Jl. Kayoon No.1, Embong Kaliasin, Kec. Genteng, Surabaya, Jawa Timur 60271";"Embong Kaliasin, Kec. Genteng, Surabaya";"JAWA TIMUR";"60271";"Indonesia";"";"";"";"-7.266422";"112.749453";"https://maps.google.com/?cid=0x0:0x945282b7989ead94";""
"hotel";"hotel";"OYO 3434 Penginapan Keluarga Syariah";"61, Jl. Merpati No.61, Krajan, Banjarmendalan, Kec. Lamongan, Kabupaten Lamongan, Jawa Timur 62211";"Jl. Merpati No.61, Krajan, Banjarmendalan, Kec. Lamongan, Kabupaten Lamongan";"JAWA TIMUR";"62211";"Indonesia";" 02129707601";"";"/url?q>>u003dhttps://www.oyorooms.com/ID/101462/%3Futm_source%3DGMB_ID%26utm_medium%3DOrganic%26utm_campaign%3DID_LAM001%26latitude%3D-7.11646148123045%26longitude%3D112.420091126114%26locale%3Did>>u0026opi>>u003d79508299>>u0026sa>>u003dU>>u0026ved>>u003d0ahUKEwiu-4Pa4umLAxU6XWwGHfRhOcUQ61gIFigS>>u0026usg>>u003dAOvVaw1A7Sx6FSt6dc2KR92p8LAO";"-7.1164615";"112.4200911";"https://maps.google.com/?cid=0x0:0x8be96842b3a209f9";""
"hotel";"hotel";"N/A";"";"";"JAWA TIMUR";"";"Indonesia";"";"";"";"";"";"https://maps.google.com/?cid=0x0:0x8be96842b3a209f9%7C/g/11jfl3v69q%7Cen-ID";""
"hotel";"hotel";"Grand Kencana Guesthouse Syariah near Wisata Bahari Lamongan";"49M4+9G9, Jl. Raya Daendles, Paciran, Kec. Paciran, Kabupaten Lamongan, Jawa Timur 62264";"Jl. Raya Daendles, Paciran, Kec. Paciran, Kabupaten Lamongan";"JAWA TIMUR";"62264";"Indonesia";" 0895417300072";"";"";"-6.866938";"112.3565411";"https://maps.google.com/?cid=0x0:0xaa14b69f9c363d98";""
"hotel";"hotel";"HENNOYUSTIAN HOMESTAY";"Jl. Pramuka, RT.02/RW.01, Paciran, Penanjan, Paciran, Lamongan Regency, East Java 62264";"RT.02/RW.01, Paciran, Penanjan, Paciran, Lamongan Regency";"JAWA TIMUR";"62264";"Indonesia";" 082228000403";"";"";"-6.8693847";"112.3535777";"https://maps.google.com/?cid=0x0:0x53a31617b42dda4b";""
"hotel";"hotel";"Hotel Sunan Drajat";"Makam Sunan Drajat, Jl. Raya Dagan No.Depan, Banjaranyar, Banjarwati, Kec. Paciran, Kabupaten Lamongan, Jawa Timur 62264";"Jl. Raya Dagan No.Depan, Banjaranyar, Banjarwati, Kec. Paciran, Kabupaten Lamongan";"JAWA TIMUR";"62264";"Indonesia";" 081249610144";"";"/url?q>>u003dhttps://perekonomian.ppsd.or.id/>>u0026opi>>u003d79508299>>u0026sa>>u003dU>>u0026ved>>u003d0ahUKEwiJyY254-mLAxUdzzgGHaUwCOYQ61gIFigS>>u0026usg>>u003dAOvVaw0YOy8zTYqKwYJn4fgo93fi";"-6.8855409";"112.3923268";"https://maps.google.com/?cid=0x0:0x530f9fe64d6c8c36";""
"hotel";"hotel";"Hotel Arut Syari'ah";"Jalan Raya Lamongan-Babat Km 5 Sukoanyar, Kruwul, Karanglangit, Kabupaten Lamongan, Jawa Timur";"Kabupaten Lamongan, Jawa Timur";"JAWA TIMUR";"";"Indonesia";" 081249551903";"";"";"-7.1023496";"112.3684112";"https://maps.google.com/?cid=0x0:0xcb12c230cb9c75c4";""
"hotel";"hotel";"Hotel Aqiilah Syariah";"Jl. Raya Deket, Gajah, Rejosari, Kec. Deket, Kabupaten Lamongan, Jawa Timur 62291";"Gajah, Rejosari, Kec. Deket, Kabupaten Lamongan";"JAWA TIMUR";"62291";"Indonesia";" 085707740422";"";"";"-7.1175863";"112.45091";"https://maps.google.com/?cid=0x0:0xb9cc2f60924367b";""
"hotel";"hotel";"Grand Hagawa Lamongan";"rumah sakit, 62216 Lamongan, Jawa Timur, 62217, Kec. Lamongan, Kabupaten Lamongan, Jawa Timur 62208";"Lamongan";"JAWA TIMUR";"62216";"Indonesia";" 0895417300072";"";"";"-7.1184799";"112.406608";"https://maps.google.com/?cid=0x0:0x3c24509245d95b77";""
"hotel";"hotel";"Hotel Grand Mahkota";"Jl. Sunan Drajat No.4-8, Kauman, Sidoharjo, Kec. Lamongan, Kabupaten Lamongan, Jawa Timur 62214";"Kauman, Sidoharjo, Kec. Lamongan, Kabupaten Lamongan";"JAWA TIMUR";"62214";"Indonesia";" 082231199933";"";"";"-7.1224216";"112.4151704";"https://maps.google.com/?cid=0x0:0xc041f17942481398";""
"hotel";"hotel";"N/A";"";"";"JAWA TIMUR";"";"Indonesia";"";"";"";"";"";"https://maps.google.com/?cid=0x0:0xc041f17942481398%7C/g/11cjj1c_mq%7Cen-ID";""
"hotel";"hotel";"OYO Life 93036 Eddy Homestay Syariah";"Jl. Jetis Indah plaza No.42, Jetis, Kec. Lamongan, Kabupaten Lamongan, Jawa Timur 62211";"Jetis, Kec. Lamongan, Kabupaten Lamongan";"JAWA TIMUR";"62211";"Indonesia";" 02129707601";"";"";"-7.1196773";"112.423457";"https://maps.google.com/?cid=0x0:0xdde5b8ce8a0a0a61";""
"hotel";"hotel";"OYO 3702 Homestay Bougenville";"Jalan Sumargo, Gg. Bougenville No.26, Tlogoanyar, Kec. Lamongan, Kabupaten Lamongan, Jawa Timur 62265";"Gg. Bougenville No.26, Tlogoanyar, Kec. Lamongan, Kabupaten Lamongan";"JAWA TIMUR";"62265";"Indonesia";" 081358607784";"";"";"-7.1282099";"112.4193344";"https://maps.google.com/?cid=0x0:0xf7919b3b8b880c37";""
"hotel";"hotel";"Puri Karomah Syariah";"Jl. Raya Deket, Deket Kulon, Kec. Karangbinangun, Kabupaten Lamongan, Jawa Timur 62291";"Deket Kulon, Kec. Karangbinangun, Kabupaten Lamongan";"JAWA TIMUR";"62291";"Indonesia";" 0895417300072";"";"";"-7.1151097";"112.4309557";"https://maps.google.com/?cid=0x0:0x9e6a62a7639bb8c9";""
"hotel";"hotel";"OYO 91848 Kost As-salaam Syariah";"10A, Jl. Sumargo Gg. Bougenville No.10A, Tlogoanyar, Kec. Lamongan, Kabupaten Lamongan, Jawa Timur 62218";"Jl. Sumargo Gg. Bougenville No.10A, Tlogoanyar, Kec. Lamongan, Kabupaten Lamongan";"JAWA TIMUR";"62218";"Indonesia";" 02129707601";"";"/url?q>>u003dhttps://www.oyorooms.com/ID/195201/%3Futm_source%3DGMB_ID%26utm_medium%3DOrganic%26utm_campaign%3DID_LAM010%26latitude%3D-7.1287598225191555%26longitude%3D112.41909518837929%26locale%3Did>>u0026opi>>u003d79508299>>u0026sa>>u003dU>>u0026ved>>u003d0ahUKEwjqmpe84-mLAxXQxzgGHdhDPVYQ61gIFigS>>u0026usg>>u003dAOvVaw2zjvQszHTrzknH5ZSEYigH";"-7.1287598";"112.4190952";"https://maps.google.com/?cid=0x0:0x511dfb2ec7923b89";""
"hotel";"hotel";"Assalaam Homestay Syariah RedPartner";"Gg. Bugenvil No.2-22, Tlogoanyar, Kec. Lamongan, Kabupaten Lamongan, Jawa Timur 62218";"Tlogoanyar, Kec. Lamongan, Kabupaten Lamongan";"JAWA TIMUR";"62218";"Indonesia";" 0895417300072";"";"/url?q>>u003dhttps://www.reddoorz.com/en-ph/hotel/indonesia/lamongan/lamongan/banjarmendalan/assalaam-homestay-syariah-redpartner%3Futm_source%3DGoogle%26utm_medium%3Dmybusiness%26utm_campaign%3Dwebclick>>u0026opi>>u003d79508299>>u0026sa>>u003dU>>u0026ved>>u003d0ahUKEwiBobC84-mLAxUixTgGHex3NzwQ61gIFigS>>u0026usg>>u003dAOvVaw2_SnaAg-KEXuVuXCqoSzSb";"-7.1292717";"112.4189427";"https://maps.google.com/?cid=0x0:0x1e2978941071f6f7";""
"hotel";"hotel";"KABILA HOTEL";"ruko permata, Jl. Panglima Sudirman Kav. I, Dapur Utara, Sidokumpul, Kec. Lamongan, Kabupaten Lamongan, Jawa Timur 62212";"Jl. Panglima Sudirman Kav. I, Dapur Utara, Sidokumpul, Kec. Lamongan, Kabupaten Lamongan";"JAWA TIMUR";"62212";"Indonesia";" 0322315332";"";"";"-7.1134531";"112.4237974";"https://maps.google.com/?cid=0x0:0xdd3d6700df3d1979";""
"hotel";"hotel";"OYO 93159 Homestay Sehat";"Jl. Raya Kedamean No.1, Area Sawah/Kebun, Kedamean, Kec. Kedamean, Kabupaten Gresik, Jawa Timur 61175";"Area Sawah/Kebun, Kedamean, Kec. Kedamean, Kabupaten Gresik";"JAWA TIMUR";"61175";"Indonesia";" 08561019776";"";"";"-7.3164232";"112.5652682";"https://maps.google.com/?cid=0x0:0xdcd404a263854740";""
"hotel";"hotel";"OYO 92267 Nurul Homestay Syariah";"Rt 2 Rw 5, Tanjungan, Gresik, Jawa Timur, 61257, Gresik, Gresik Regency, East Java 60000";"Tanjungan, Gresik, Jawa Timur,";"JAWA TIMUR";"61257";"Indonesia";" 0817788016";"";"";"-7.3682178";"112.5887401";"https://maps.google.com/?cid=0x0:0x6701b101c61ec9ce";""
"hotel";"hotel";"OYO 3434 Penginapan Keluarga Syariah";"61, Jl. Merpati No.61, Krajan, Banjarmendalan, Kec. Lamongan, Kabupaten Lamongan, Jawa Timur 62211";"Jl. Merpati No.61, Krajan, Banjarmendalan, Kec. Lamongan, Kabupaten Lamongan";"JAWA TIMUR";"62211";"Indonesia";" 02129707601";"";"/url?q>>u003dhttps://www.oyorooms.com/ID/101462/%3Futm_source%3DGMB_ID%26utm_medium%3DOrganic%26utm_campaign%3DID_LAM001%26latitude%3D-7.11646148123045%26longitude%3D112.420091126114%26locale%3Did>>u0026opi>>u003d79508299>>u0026sa>>u003dU>>u0026ved>>u003d0ahUKEwiC-_u94-mLAxX4zjgGHXd8CmsQ61gIFigS>>u0026usg>>u003dAOvVaw33GbiGntaFGGNNL0w0JMej";"-7.1164615";"112.4200911";"https://maps.google.com/?cid=0x0:0x8be96842b3a209f9";""
"hotel";"hotel";"N/A";"";"";"JAWA TIMUR";"";"Indonesia";"";"";"";"";"";"https://maps.google.com/?cid=0x0:0x8be96842b3a209f9%7C/g/11jfl3v69q%7Cen-ID";""
"hotel";"hotel";"OYO LIFE 91594 Bungah Residence Syariah";"HDI Family Centre, 27, Kec. Bungah, Kabupaten Gresik, Jawa Timur 60000";"27, Kec. Bungah, Kabupaten Gresik";"JAWA TIMUR";"60000";"Indonesia";" 02129707601";"";"";"-7.0574515";"112.5763952";"https://maps.google.com/?cid=0x0:0x9882468791002704";""
"hotel";"hotel";"Orchid Family Residence";"Jl. Veteran Gg. Pelajar No.29, Dapur Timur, Banjarmendalan, Kec. Lamongan, Kabupaten Lamongan, Jawa Timur 62212";"Dapur Timur, Banjarmendalan, Kec. Lamongan, Kabupaten Lamongan";"JAWA TIMUR";"62212";"Indonesia";" 02129706666";"";"";"-7.1150089";"112.4214185";"https://maps.google.com/?cid=0x0:0x8904220d62bb33b7";""
"hotel";"hotel";"N/A";"";"";"JAWA TIMUR";"";"Indonesia";"";"";"";"";"";"https://maps.google.com/?cid=0x0:0x8904220d62bb33b7%7C/g/11j67l1qsj%7Cen-ID";""
"hotel";"hotel";"Ed Ning Hotel";"Jl. Mega Mendung No.9, Pisang Candi, Kec. Sukun, Kota Malang, Jawa Timur 65146";"Pisang Candi, Kec. Sukun, Kota Malang";"JAWA TIMUR";"65146";"Indonesia";" 0341568116";"";"";"-7.9704565";"112.6078609";"https://maps.google.com/?cid=0x0:0x11999da4427cc219";""
"hotel";"hotel";"N/A";"";"";"JAWA TIMUR";"";"Indonesia";"";"";"";"";"";"https://maps.google.com/?cid=0x0:0x11999da4427cc219%7C/g/11srlvs3y2%7Cen-ID";""
"hotel";"hotel";"N/A";"";"";"JAWA TIMUR";"";"Indonesia";"";"";"";"";"";"https://maps.google.com/?cid=0x0:0x1f6bf2072356ef45%7C/g/11j67l4m81%7Cen-ID";""
"hotel";"hotel";"OYO 3706 Griya Tentrem Syariah";"Jl. Veteran No.150, Tlogoanyar, Kec. Lamongan, Kabupaten Lamongan, Jawa Timur 62218";"Tlogoanyar, Kec. Lamongan, Kabupaten Lamongan";"JAWA TIMUR";"62218";"Indonesia";" 02129707601";"";"/url?q>>u003dhttps://www.oyorooms.com/ID/hotels-in-Lamongan/%3Futm_source%3DGMB_ID_SO%26utm_medium%3DOrganic%26utm_campaign%3DID_LAM005%26locale%3Did>>u0026opi>>u003d79508299>>u0026sa>>u003dU>>u0026ved>>u003d0ahUKEwi6ycfA4-mLAxUIRWcHHWGsGZIQ61gIFigS>>u0026usg>>u003dAOvVaw0jf2VddU7Bp4Or0P5chVhD";"-7.1249585";"112.4217189";"https://maps.google.com/?cid=0x0:0x1f6bf2072356ef45";""
"hotel";"hotel";"Hotel Angsa Lestari";"Jl. Jenderal Gatot Subroto No.1, Kampungmandar, Kec. Banyuwangi, Kabupaten Banyuwangi, Jawa Timur 68421";"Kampungmandar, Kec. Banyuwangi, Kabupaten Banyuwangi";"JAWA TIMUR";"68421";"Indonesia";" 02129707601";"";"/url?q>>u003dhttps://www.oyorooms.com/ID/hotels-in-Banyuwangi/%3Futm_source%3DGMB_ID_SO%26utm_medium%3DOrganic%26utm_campaign%3DID_BWI048%26locale%3Did>>u0026opi>>u003d79508299>>u0026sa>>u003dU>>u0026ved>>u003d0ahUKEwjQx-HA4-mLAxXtTWwGHXByKXgQ61gIFigS>>u0026usg>>u003dAOvVaw1lQhJXi_G6YfxiE_6Vq6L4";"-8.2103215";"114.3788771";"https://maps.google.com/?cid=0x0:0x993a88c89330d4b7";""
"hotel";"hotel";"N/A";"";"";"JAWA TIMUR";"";"Indonesia";"";"";"";"";"";"https://maps.google.com/?cid=0x0:0x993a88c89330d4b7%7C/g/1hm241q9_%7Cen-ID";""
"hotel";"hotel";"Jawa Timur 62292";"Bangkok, Kec. Glagah, Kabupaten Lamongan, Jawa Timur";"Kabupaten Lamongan, Jawa Timur";"JAWA TIMUR";"";"Indonesia";"";"";"";"-7.067586";"112.5125893";"https://maps.google.com/?cid=0x0:0x1c00c5eb5b53f9d0";""
"hotel";"hotel";"Javalindra Homestay";"Prum. Kusuma Resort Blog C-5, Dusun Krajan, Olehsari, Kec. Glagah, Kabupaten Banyuwangi, Jawa Timur 68432";"Dusun Krajan, Olehsari, Kec. Glagah, Kabupaten Banyuwangi";"JAWA TIMUR";"68432";"Indonesia";"";"";"";"-8.2159413";"114.3167962";"https://maps.google.com/?cid=0x0:0x81ebba4b95b71088";""
"hotel";"hotel";"HOME STAY ERLANGGA DJOYO";"Biting, Seloliman, Kec. Trawas, Kabupaten Mojokerto, Jawa Timur 61375";"Seloliman, Kec. Trawas, Kabupaten Mojokerto";"JAWA TIMUR";"61375";"Indonesia";" 081330506071";"";"";"-7.5995029";"112.5840009";"https://maps.google.com/?cid=0x0:0x6917973bccccf4ae";""
"hotel";"hotel";"Penginapan Raharjo (ꦥꦼꦔꦶꦤꦥꦤ꧀ꦫꦲꦂꦗ)";"X8GM+26R, Pantai, Parangtritis, Kec. Kretek, Kabupaten Bantul, Daerah Istimewa Yogyakarta 55772";"Pantai, Parangtritis, Kec. Kretek, Kabupaten Bantul";"JAWA TIMUR";"55772";"Indonesia";" 0274368529";"";"";"-8.0248937";"110.3330135";"https://maps.google.com/?cid=0x0:0x229e40fda067492a";""
"hotel";"hotel";"Aston Banyuwangi Hotel  Conference Center";"Jl. Brawijaya, Lingkungan Cuking Rw., Mojopanggung, Kec. Giri, Kabupaten Banyuwangi, Jawa Timur 68425";"Lingkungan Cuking Rw., Mojopanggung, Kec. Giri, Kabupaten Banyuwangi";"JAWA TIMUR";"68425";"Indonesia";" 03333383888";"";"/url?q>>u003dhttps://www.astonhotelsinternational.com/id/hotel/view/55/aston-banyuwangi-hotel---conference-center>>u0026opi>>u003d79508299>>u0026sa>>u003dU>>u0026ved>>u003d0ahUKEwjW6In94-mLAxWjyDgGHe5MAPEQ61gIFigS>>u0026usg>>u003dAOvVaw1e2TZCdo6vZf-aG1LeAT00";"-8.2199486";"114.3530662";"https://maps.google.com/?cid=0x0:0xf0267439cd75b194";""
"hotel";"hotel";"N/A";"";"";"JAWA TIMUR";"";"Indonesia";"";"";"";"";"";"https://maps.google.com/?cid=0x0:0xf0267439cd75b194%7C/g/11cs1rf670%7Cen-ID";""
"hotel";"hotel";"Jala Sutra Cottages";"Jl. Stasiun Karangasem, Lingkungan Krajan Rt, Bakungan, Kec. Glagah, Kabupaten Banyuwangi, Jawa Timur 68431";"Lingkungan Krajan Rt, Bakungan, Kec. Glagah, Kabupaten Banyuwangi";"JAWA TIMUR";"68431";"Indonesia";" 081252207514";"";"";"-8.2223555";"114.3414268";"https://maps.google.com/?cid=0x0:0xd74c1e173f317126";""
"hotel";"hotel";"N/A";"";"";"JAWA TIMUR";"";"Indonesia";"";"";"";"";"";"https://maps.google.com/?cid=0x0:0xd9913dc019c01052%7C/g/11b7llv38n%7Cen-ID";""
"hotel";"hotel";"Homestay Bata Merah";"Jl. Gembrung No.98, Lingkungan Karang Ase, Bakungan, Kec. Glagah, Kabupaten Banyuwangi, Jawa Timur 68431";"Lingkungan Karang Ase, Bakungan, Kec. Glagah, Kabupaten Banyuwangi";"JAWA TIMUR";"68431";"Indonesia";" 085817447885";"";"";"-8.2176017";"114.3463486";"https://maps.google.com/?cid=0x0:0x288a1773d3745547";""
"hotel";"hotel";"Trion Homestay";"Jl. Kuntulan No.149 Lantai 1, Lingkungan Karang Ase, Bakungan, Kec. Glagah, Kabupaten Banyuwangi, Jawa Timur 68431";"Lingkungan Karang Ase, Bakungan, Kec. Glagah, Kabupaten Banyuwangi";"JAWA TIMUR";"68431";"Indonesia";" 082330811300";"";"";"-8.2163344";"114.3447187";"https://maps.google.com/?cid=0x0:0xd24a983a7c4662be";""
"hotel";"hotel";"N/A";"";"";"JAWA TIMUR";"";"Indonesia";"";"";"";"";"";"https://maps.google.com/?cid=0x0:0xfb1ea4e1456dbee0%7C/g/11c485ld9w%7Cen-ID";""
"hotel";"hotel";"eL Hotel Banyuwangi";"Jl. Raya Jember No.KM.7, Krajan, Dadapan, Kec. Kabat, Kabupaten Banyuwangi, Jawa Timur 68461";"Krajan, Dadapan, Kec. Kabat, Kabupaten Banyuwangi";"JAWA TIMUR";"68461";"Indonesia";" 03333382999";"";"";"-8.2594605";"114.3370047";"https://maps.google.com/?cid=0x0:0xfb1ea4e1456dbee0";""
"hotel";"hotel";"Luminor Hotel Banyuwangi";"Jl. Yos Sudarso No.66, Lingkungan Sukowidi, Klatak, Kec. Kalipuro, Kabupaten Banyuwangi, Jawa Timur 68421";"Lingkungan Sukowidi, Klatak, Kec. Kalipuro, Kabupaten Banyuwangi";"JAWA TIMUR";"68421";"Indonesia";" 03333385000";"";"/url?q>>u003dhttps://www.luminorhotel.com/>>u0026opi>>u003d79508299>>u0026sa>>u003dU>>u0026ved>>u003d0ahUKEwiVrMT_4-mLAxVERmcHHZhmIW4Q61gIFigS>>u0026usg>>u003dAOvVaw0NxftaNZZl3obw2D8XW2Eo";"-8.1830133";"114.3818953";"https://maps.google.com/?cid=0x0:0xa1d48b1d3e5a055c";""
"hotel";"hotel";"N/A";"";"";"JAWA TIMUR";"";"Indonesia";"";"";"";"";"";"https://maps.google.com/?cid=0x0:0xa1d48b1d3e5a055c%7C/g/11fjxf626g%7Cen-ID";""
"hotel";"hotel";"Ikhtiar Surya Hotel";"Jl. Gajah Mada No.9, Lingkungan Cuking Rw., Mojopanggung, Kec. Giri, Kabupaten Banyuwangi, Jawa Timur 68425";"Lingkungan Cuking Rw., Mojopanggung, Kec. Giri, Kabupaten Banyuwangi";"JAWA TIMUR";"68425";"Indonesia";" 0333423631";"";"";"-8.2137929";"114.354785";"https://maps.google.com/?cid=0x0:0x8a4861c5981bed1c";""
"hotel";"hotel";"Didus Homestay Bed and Breakfast";"Dusun Watu Ulo Jalan Darma Putra No.5, RT.01/RW.01, Dusun Krajan, Rejosari, Kec. Glagah, Kabupaten Banyuwangi, Jawa Timur 68432";"RT.01/RW.01, Dusun Krajan, Rejosari, Kec. Glagah, Kabupaten Banyuwangi";"JAWA TIMUR";"68432";"Indonesia";" 085161533218";"";"";"-8.2282292";"114.339173";"https://maps.google.com/?cid=0x0:0x25bf138f276c5214";""
"hotel";"hotel";"Adara Homestay";"Gg. Kemuning Besar, Dusun Krajan, Rejosari, Kec. Glagah, Kabupaten Banyuwangi, Jawa Timur 68432";"Dusun Krajan, Rejosari, Kec. Glagah, Kabupaten Banyuwangi";"JAWA TIMUR";"68432";"Indonesia";" 081358738545";"";"";"-8.2277261";"114.3418292";"https://maps.google.com/?cid=0x0:0xdbcfea10e1b39165";""
"hotel";"hotel";"Kokoon Hotel Banyuwangi";"Jl. Raya Jember No.KM. 7, Krajan, Dadapan, Kec. Kabat, Kabupaten Banyuwangi, Jawa Timur 68461";"Krajan, Dadapan, Kec. Kabat, Kabupaten Banyuwangi";"JAWA TIMUR";"68461";"Indonesia";" 03333386000";"";"/url?q>>u003dhttps://www.kokoonhotelsvillas.com/banyuwangi/>>u0026opi>>u003d79508299>>u0026sa>>u003dU>>u0026ved>>u003d0ahUKEwi-05mB5OmLAxU9TGcHHYgoHyEQ61gIFigS>>u0026usg>>u003dAOvVaw116BIW1tZqX-zezUjILjbY";"-8.2575002";"114.3373285";"https://maps.google.com/?cid=0x0:0xfbc3c6ad4bc9927d";""
"hotel";"hotel";"N/A";"";"";"JAWA TIMUR";"";"Indonesia";"";"";"";"";"";"https://maps.google.com/?cid=0x0:0xfbc3c6ad4bc9927d%7C/g/11fd4xtdvb%7Cen-ID";""
"hotel";"hotel";"PT Ijen Traveller Indonesia - Rental Sepeda Motor dan Homestay Banyuwangi";"Lingkungan Karangasem, Bakungan, Kec. Glagah, Kabupaten Banyuwangi, Jawa Timur 68431";"Bakungan, Kec. Glagah, Kabupaten Banyuwangi";"JAWA TIMUR";"68431";"Indonesia";" 081232835964";"";"";"-8.2213217";"114.3415864";"https://maps.google.com/?cid=0x0:0x5e796ff910cdcbdf";""
"hotel";"hotel";"Nitha Homestay";"Lingkungan Krajan Rt, Bakungan, Kec. Glagah, Kabupaten Banyuwangi, Jawa Timur 68431";"Bakungan, Kec. Glagah, Kabupaten Banyuwangi";"JAWA TIMUR";"68431";"Indonesia";" 081259456096";"";"";"-8.222781";"114.3412423";"https://maps.google.com/?cid=0x0:0xebe87165a543e56d";""
"hotel";"hotel";"Hotel Blambangan";"Kepatihan, Kec. Banyuwangi, Kabupaten Banyuwangi, Jawa Timur 68411";"Kec. Banyuwangi, Kabupaten Banyuwangi";"JAWA TIMUR";"68411";"Indonesia";" 0333411222";"";"/url?q>>u003dhttps://mailchi.mp/e8eb26a87b9b/hotel-blambangan-banyuwangi>>u0026opi>>u003d79508299>>u0026sa>>u003dU>>u0026ved>>u003d0ahUKEwj517KC5OmLAxVR4zgGHWqyKCMQ61gIFigS>>u0026usg>>u003dAOvVaw2hEbAa4ZDvwjNmQw-cCTXT";"-8.2133952";"114.3762106";"https://maps.google.com/?cid=0x0:0xcc7937838714adbc";""
"hotel";"hotel";"N/A";"";"";"JAWA TIMUR";"";"Indonesia";"";"";"";"";"";"https://maps.google.com/?cid=0x0:0xcc7937838714adbc%7C/g/11rrr9y2s5%7Cen-ID";""
"hotel";"hotel";"SNOOZE Ijen Hostel";"Jl. Borobudur No.27, Taman Baru, Kec. Banyuwangi, Kabupaten Banyuwangi, Jawa Timur 68416";"Taman Baru, Kec. Banyuwangi, Kabupaten Banyuwangi";"JAWA TIMUR";"68416";"Indonesia";" 082143898778";"";"";"-8.2220957";"114.3637386";"https://maps.google.com/?cid=0x0:0xc8f26d41ec151602";""
"hotel";"hotel";"N/A";"";"";"JAWA TIMUR";"";"Indonesia";"";"";"";"";"";"https://maps.google.com/?cid=0x0:0xc8f26d41ec151602%7C/g/11fqkqm9p7%7Cen-ID";""
"hotel";"hotel";"RedDoorz near Banyuwangi Kota Train Station";"Jl. Stasiun Karangasem, Lingkungan Krajan Rt, Bakungan, Kec. Glagah, Kabupaten Banyuwangi, Jawa Timur 68432";"Lingkungan Krajan Rt, Bakungan, Kec. Glagah, Kabupaten Banyuwangi";"JAWA TIMUR";"68432";"Indonesia";" 0895417300072";"";"";"-8.2238726";"114.340555";"https://maps.google.com/?cid=0x0:0xcf5932908f0607da";""
"hotel";"hotel";"Joglo Homestay";"Jl. Stasiun Karangasem No.666, Lingkungan Watu Ulo R, Bakungan, Kec. Glagah, Kabupaten Banyuwangi, Jawa Timur 68431";"Lingkungan Watu Ulo R, Bakungan, Kec. Glagah, Kabupaten Banyuwangi";"JAWA TIMUR";"68431";"Indonesia";"";"";"";"-8.2191004";"114.3424392";"https://maps.google.com/?cid=0x0:0x6b5976814c64bfb0";""
"hotel";"hotel";"Juda Homestay";"Jl. Rejosari No.34A, Dusun Lalangan, Rejosari, Kec. Glagah, Kabupaten Banyuwangi, Jawa Timur 68432";"Dusun Lalangan, Rejosari, Kec. Glagah, Kabupaten Banyuwangi";"JAWA TIMUR";"68432";"Indonesia";" 081938688900";"";"";"-8.2212837";"114.3355038";"https://maps.google.com/?cid=0x0:0x2dbbdbf30a1aff48";""
"hotel";"hotel";"ILLIRA Hotel Banyuwangi";"Jl. Yos Sudarso No.81-83, Lingkungan Sukowidi, Klatak, Kec. Kalipuro, Kabupaten Banyuwangi, Jawa Timur 68421";"Lingkungan Sukowidi, Klatak, Kec. Kalipuro, Kabupaten Banyuwangi";"JAWA TIMUR";"68421";"Indonesia";" 03333384888";"";"/url?q>>u003dhttp://illirahotel.com/>>u0026opi>>u003d79508299>>u0026sa>>u003dU>>u0026ved>>u003d0ahUKEwjx-9WE5OmLAxWLxzgGHfoGAc8Q61gIFigS>>u0026usg>>u003dAOvVaw1OehxFDRWYdQgSyJn-hicH";"-8.1856346";"114.3800506";"https://maps.google.com/?cid=0x0:0x38e11d350a384c26";""
"hotel";"hotel";"N/A";"";"";"JAWA TIMUR";"";"Indonesia";"";"";"";"";"";"https://maps.google.com/?cid=0x0:0x38e11d350a384c26%7C/g/11g8cy7vl0%7Cen-ID";""
"hotel";"hotel";"Ndalem Mataram";"Jl. K.H. Agus Salim No.18, Taman Baru, Kec. Banyuwangi, Kabupaten Banyuwangi, Jawa Timur 68416";"Taman Baru, Kec. Banyuwangi, Kabupaten Banyuwangi";"JAWA TIMUR";"68416";"Indonesia";" 085334575797";"";"/url?q>>u003dhttps://www.booking.com/Share-gzMUk8>>u0026opi>>u003d79508299>>u0026sa>>u003dU>>u0026ved>>u003d0ahUKEwjEnq6F5OmLAxWmwzgGHY9yHDUQ61gIFigS>>u0026usg>>u003dAOvVaw3UdPF5gQvjH0aaWtPk3gwX";"-8.2278736";"114.3612828";"https://maps.google.com/?cid=0x0:0x75025f0abe471461";""
"hotel";"hotel";"Jawa Timur 68431";"Kec. Glagah, Kabupaten Banyuwangi, Jawa Timur";"Kabupaten Banyuwangi, Jawa Timur";"JAWA TIMUR";"";"Indonesia";"";"";"";"-8.2205428";"114.3430571";"https://maps.google.com/?cid=0x0:0x1c00c5eb5b542f00";""
"hotel";"hotel";"Sans Borobudur Banyuwangi";"Jl. Terusan Borobudur No.4, Taman Baru, Kec. Banyuwangi, Kabupaten Banyuwangi, Jawa Timur 68411";"Taman Baru, Kec. Banyuwangi, Kabupaten Banyuwangi";"JAWA TIMUR";"68411";"Indonesia";" 0895417300072";"";"";"-8.2211612";"114.3604904";"https://maps.google.com/?cid=0x0:0x38a2ac85335712a1";""
"hotel";"hotel";"Banyu Homestay";"Jl. Raya Lijen No. 348-350, Glagah, Krajan, Glagah, Kec. Glagah, Kabupaten Banyuwangi, Jawa Timur 68432";"Glagah, Krajan, Glagah, Kec. Glagah, Kabupaten Banyuwangi";"JAWA TIMUR";"68432";"Indonesia";" 085232721255";"";"";"-8.218673";"114.3099885";"https://maps.google.com/?cid=0x0:0x3a6e1e68000de359";""
"hotel";"hotel";"The Osing Bamboo Resort - A Liberta Collection";"Kec, Jl. Perkebunan Kalibendo No.Km. 5 No. 9, Dusun Wonosari, Taman Suruh, Kec. Glagah, Kabupaten Banyuwangi, Jawa Timur 68432";"Jl. Perkebunan Kalibendo No.Km. 5 No. 9, Dusun Wonosari, Taman Suruh, Kec. Glagah, Kabupaten Banyuwangi";"JAWA TIMUR";"68432";"Indonesia";" 082229022349";"";"/url?q>>u003dhttps://libertahotels.com/hotel/index%3Fuid%3D9cf476b3-4a6a-4e43-ba48-0c881fdb3d88%26id%3D16%26checkin%3D2024/10/31%26checkout%3D2024/11/01%26room%3D1%26guest%3D1>>u0026opi>>u003d79508299>>u0026sa>>u003dU>>u0026ved>>u003d0ahUKEwjoya_l5OmLAxUSyTgGHT4VJcEQ61gIFigS>>u0026usg>>u003dAOvVaw2jsPLYAw3-S-qWW40nHe5g";"-8.191011";"114.3031118";"https://maps.google.com/?cid=0x0:0x3bff14b25cc55182";""
"hotel";"hotel";"eL Hotel Banyuwangi";"Jl. Raya Jember No.KM.7, Krajan, Dadapan, Kec. Kabat, Kabupaten Banyuwangi, Jawa Timur 68461";"Krajan, Dadapan, Kec. Kabat, Kabupaten Banyuwangi";"JAWA TIMUR";"68461";"Indonesia";" 03333382999";"";"/url?q>>u003dhttp://banyuwangi.el-hotels.com/>>u0026opi>>u003d79508299>>u0026sa>>u003dU>>u0026ved>>u003d0ahUKEwiwhM_l5OmLAxWfSGwGHd7IMy0Q61gIFigS>>u0026usg>>u003dAOvVaw2_TTl5w03JGSYSV_BJcCgp";"-8.2594605";"114.3370047";"https://maps.google.com/?cid=0x0:0xfb1ea4e1456dbee0";""
"hotel";"hotel";"Domisili Ijen Cliff By Fays Hospitality";"Desa Jelun RT 03/ RW 04, Kec. Licin, Dusun Ledok, Jelun, Banyuwangi, Kabupaten Banyuwangi, Jawa Timur 68454";"Kec. Licin, Dusun Ledok, Jelun, Banyuwangi, Kabupaten Banyuwangi";"JAWA TIMUR";"68454";"Indonesia";" 08818199991";"";"/url?q>>u003dhttps://www.fayshospitality.com/our-villas-ijen-cliff/>>u0026opi>>u003d79508299>>u0026sa>>u003dU>>u0026ved>>u003d0ahUKEwim-qjm5OmLAxUmnGMGHQfrCdkQ61gIFigS>>u0026usg>>u003dAOvVaw3o7zhUyfO_-hlRPTM4l--W";"-8.222861";"114.265762";"https://maps.google.com/?cid=0x0:0xfb8afa95f1d94615";""
"hotel";"hotel";"Celcius Villa Camp  Cafe";"Jl. Mas Wagio, Kebonan, Paspan, Kec. Glagah, Kabupaten Banyuwangi, Jawa Timur 68432";"Kebonan, Paspan, Kec. Glagah, Kabupaten Banyuwangi";"JAWA TIMUR";"68432";"Indonesia";" 085186808661";"";"";"-8.2220131";"114.3100548";"https://maps.google.com/?cid=0x0:0xdc1d0297aeccd64c";""
"hotel";"hotel";"KEDATON WETAN HOMESTAY AND CULTURAL SITE";"Dusun Kedaleman, Kemiren, Kec. Glagah, Kabupaten Banyuwangi, Jawa Timur 68432";"Kemiren, Kec. Glagah, Kabupaten Banyuwangi";"JAWA TIMUR";"68432";"Indonesia";" 081249581199";"";"";"-8.2058809";"114.3246588";"https://maps.google.com/?cid=0x0:0xf60d6d6d68a30b03";""
"hotel";"hotel";"N/A";"";"";"JAWA TIMUR";"";"Indonesia";"";"";"";"";"";"https://maps.google.com/?cid=0x0:0x5e89a2f28aaa062e%7C/g/11c601l2ll%7Cen-ID";""
"hotel";"hotel";"Grand Harvest Resort  Villas";"Dusun Krajan, Tamansari, Kec. Licin, Kabupaten Banyuwangi, Jawa Timur 68454";"Tamansari, Kec. Licin, Kabupaten Banyuwangi";"JAWA TIMUR";"68454";"Indonesia";" 03333384031";"";"/url?q>>u003dhttp://www.grandharvestresort.com/>>u0026opi>>u003d79508299>>u0026sa>>u003dU>>u0026ved>>u003d0ahUKEwjYtMvn5OmLAxXqS2wGHQ5XAOUQ61gIFigS>>u0026usg>>u003dAOvVaw1qANdvKCCl4TRfc1CskuUd";"-8.1778956";"114.2511227";"https://maps.google.com/?cid=0x0:0x5e89a2f28aaa062e";""
"hotel";"hotel";"Lintang Luku Tent Resort";"R76C+3HF, Dusun Glondok, RT.001/RW.001, Blimbingan, Licin, Kabupaten Banyuwangi, Jawa Timur 68454";"Dusun Glondok, RT.001/RW.001, Blimbingan, Licin, Kabupaten Banyuwangi";"JAWA TIMUR";"68454";"Indonesia";" 081233090697";"";"/url?q>>u003dhttps://linktr.ee/lintanglukutentresort>>u0026opi>>u003d79508299>>u0026sa>>u003dU>>u0026ved>>u003d0ahUKEwiUkNro5OmLAxX8VWwGHValIogQ61gIFSgR>>u0026usg>>u003dAOvVaw1jn3roBCBsrrdt_kV9UwlL";"-8.1898083";"114.2714257";"https://maps.google.com/?cid=0x0:0x9d78ce4f36d000fd";""
"hotel";"hotel";"Aston Banyuwangi Hotel  Conference Center";"Jl. Brawijaya, Lingkungan Cuking Rw., Mojopanggung, Kec. Giri, Kabupaten Banyuwangi, Jawa Timur 68425";"Lingkungan Cuking Rw., Mojopanggung, Kec. Giri, Kabupaten Banyuwangi";"JAWA TIMUR";"68425";"Indonesia";" 03333383888";"";"";"-8.2199486";"114.3530662";"https://maps.google.com/?cid=0x0:0xf0267439cd75b194";""
"hotel";"hotel";"N/A";"";"";"JAWA TIMUR";"";"Indonesia";"";"";"";"";"";"https://maps.google.com/?cid=0x0:0xf0267439cd75b194%7C/g/11cs1rf670%7Cen-ID";""
"hotel";"hotel";"Didus Homestay Bed and Breakfast";"Dusun Watu Ulo Jalan Darma Putra No.5, RT.01/RW.01, Dusun Krajan, Rejosari, Kec. Glagah, Kabupaten Banyuwangi, Jawa Timur 68432";"RT.01/RW.01, Dusun Krajan, Rejosari, Kec. Glagah, Kabupaten Banyuwangi";"JAWA TIMUR";"68432";"Indonesia";" 085161533218";"";"";"-8.2282292";"114.339173";"https://maps.google.com/?cid=0x0:0x25bf138f276c5214";""
"hotel";"hotel";"Teras Hotel  Villa";"Dsn. Krajan Rembang, Kec. Licin, Kabupaten Banyuwangi, Jawa Timur";"Kabupaten Banyuwangi, Jawa Timur";"JAWA TIMUR";"";"Indonesia";"";"";"";"-8.1941858";"114.2534745";"https://maps.google.com/?cid=0x0:0x87f796a88016a944";""
"hotel";"hotel";"Hotel Santika Banyuwangi";"Jl. Letjen S Parman No.15, Sobo, Kec. Banyuwangi, Kabupaten Banyuwangi, Jawa Timur 68418";"Sobo, Kec. Banyuwangi, Kabupaten Banyuwangi";"JAWA TIMUR";"68418";"Indonesia";" 03334465123";"";"/url?q>>u003dhttps://mysantika.com/indonesia/banyuwangi/hotel-santika-banyuwangi>>u0026opi>>u003d79508299>>u0026sa>>u003dU>>u0026ved>>u003d0ahUKEwjdgITq5OmLAxV7cGwGHdsxAckQ61gIFigS>>u0026usg>>u003dAOvVaw0S7vNPpJMLtYxdB9i4Q1wx";"-8.2382386";"114.3569688";"https://maps.google.com/?cid=0x0:0xd9913dc019c01052";""
"hotel";"hotel";"N/A";"";"";"JAWA TIMUR";"";"Indonesia";"";"";"";"";"";"https://maps.google.com/?cid=0x0:0xd9913dc019c01052%7C/g/11b7llv38n%7Cen-ID";""
"hotel";"hotel";"N/A";"";"";"JAWA TIMUR";"";"Indonesia";"";"";"";"";"";"https://maps.google.com/?cid=0x0:0xfbc3c6ad4bc9927d%7C/g/11fd4xtdvb%7Cen-ID";""
"hotel";"hotel";"Kokoon Hotel Banyuwangi";"Jl. Raya Jember No.KM. 7, Krajan, Dadapan, Kec. Kabat, Kabupaten Banyuwangi, Jawa Timur 68461";"Krajan, Dadapan, Kec. Kabat, Kabupaten Banyuwangi";"JAWA TIMUR";"68461";"Indonesia";" 03333386000";"";"/url?q>>u003dhttps://www.kokoonhotelsvillas.com/banyuwangi/>>u0026opi>>u003d79508299>>u0026sa>>u003dU>>u0026ved>>u003d0ahUKEwiPzvLq5OmLAxWISGwGHbPfLyoQ61gIFigS>>u0026usg>>u003dAOvVaw1KQ4WbgvFir0tt7ZQ0j41c";"-8.2575002";"114.3373285";"https://maps.google.com/?cid=0x0:0xfbc3c6ad4bc9927d";""
"hotel";"hotel";"Homestay Villa Kemarang";"Jl. Perkebunan Kalibendo, Desa Dusun Wonosari No.KM. 5, Dusun Wonosari, Taman Suruh, Kec. Glagah, Kabupaten Banyuwangi, Jawa Timur 68432";"Desa Dusun Wonosari No.KM. 5, Dusun Wonosari, Taman Suruh, Kec. Glagah, Kabupaten Banyuwangi";"JAWA TIMUR";"68432";"Indonesia";" 081112322777";"";"";"-8.1916477";"114.30334";"https://maps.google.com/?cid=0x0:0x8040b34f7b09d71f";""
"hotel";"hotel";"RedDoorz near Stasiun Banyuwangi Kota";"Jl. Raya Lijen Lingkungan, Pancoran, Banjarsari, Kec. Glagah, Kabupaten Banyuwangi, Jawa Timur 68432";"Pancoran, Banjarsari, Kec. Glagah, Kabupaten Banyuwangi";"JAWA TIMUR";"68432";"Indonesia";" 0895417300072";"";"";"-8.2182388";"114.3278801";"https://maps.google.com/?cid=0x0:0xd6cd85ab0a7b7d67";""
"hotel";"hotel";"Gemyah";"Jl. Kemiren, Dusun Krajan, Kemiren, Kec. Glagah, Kabupaten Banyuwangi, Jawa Timur 68432";"Dusun Krajan, Kemiren, Kec. Glagah, Kabupaten Banyuwangi";"JAWA TIMUR";"68432";"Indonesia";" 082141730520";"";"";"-8.2048546";"114.3190211";"https://maps.google.com/?cid=0x0:0xe590ce3304090d70";""
"hotel";"hotel";"Mirah Hotel Banyuwangi";"Jl. Yos Sudarso, Lingkungan Tj., Klatak, Kec. Kalipuro, Kabupaten Banyuwangi, Jawa Timur 68421";"Lingkungan Tj., Klatak, Kec. Kalipuro, Kabupaten Banyuwangi";"JAWA TIMUR";"68421";"Indonesia";" 0333420600";"";"/url?q>>u003dhttp://mirahhotel.com/>>u0026opi>>u003d79508299>>u0026sa>>u003dU>>u0026ved>>u003d0ahUKEwj-n9vs5OmLAxU3yjgGHUgsFgwQ61gIFigS>>u0026usg>>u003dAOvVaw3xmqHSFmYB3CunqpnJb9wZ";"-8.1727817";"114.3855937";"https://maps.google.com/?cid=0x0:0x5183c5e03d0b141d";""
"hotel";"hotel";"N/A";"";"";"JAWA TIMUR";"";"Indonesia";"";"";"";"";"";"https://maps.google.com/?cid=0x0:0x5183c5e03d0b141d%7C/g/11xbwhz1z%7Cen-ID";""
"hotel";"hotel";"Kampoeng Joglo Ijen";"Jl. Raya Licin, Krajan, Banjar, Kec. Licin, Kabupaten Banyuwangi, Jawa Timur 68432";"Krajan, Banjar, Kec. Licin, Kabupaten Banyuwangi";"JAWA TIMUR";"68432";"Indonesia";" 085377166888";"";"/url?q>>u003dhttp://www.kampoeng-joglo-ijen.com/>>u0026opi>>u003d79508299>>u0026sa>>u003dU>>u0026ved>>u003d0ahUKEwj9-4zt5OmLAxUuyDgGHcioHA8Q61gIFigS>>u0026usg>>u003dAOvVaw2yGn1ghcNmMGUk7b4vi0ms";"-8.1943863";"114.2540678";"https://maps.google.com/?cid=0x0:0x64dda71ec0452fd2";""
"hotel";"hotel";"N/A";"";"";"JAWA TIMUR";"";"Indonesia";"";"";"";"";"";"https://maps.google.com/?cid=0x0:0x64dda71ec0452fd2%7C/g/11cn951qfp%7Cen-ID";""
"hotel";"hotel";"Villa Kayon Griya Osing Banyuwangi";"Jl. Raya Tambong, Dusun Taman Sari (Leces, RT.06/RW.03, Gumuk, Kec. Licin, Kabupaten Banyuwangi, Jawa Timur 68454";"Dusun Taman Sari (Leces, RT.06/RW.03, Gumuk, Kec. Licin, Kabupaten Banyuwangi";"JAWA TIMUR";"68454";"Indonesia";" 081233493121";"";"";"-8.2343842";"114.2881487";"https://maps.google.com/?cid=0x0:0x79c6ed06bfc688e6";""
"hotel";"hotel";"Wooden Kemiren Homestay  Tour";"Dusun Krajan, Kemiren, Kec. Glagah, Kabupaten Banyuwangi, Jawa Timur 68432";"Kemiren, Kec. Glagah, Kabupaten Banyuwangi";"JAWA TIMUR";"68432";"Indonesia";" 081337736269";"";"/url?q>>u003dhttps://www.booking.com/hotel/id/wooden-kemiren-homestay.id.html>>u0026opi>>u003d79508299>>u0026sa>>u003dU>>u0026ved>>u003d0ahUKEwjG-Zzu5OmLAxV41TgGHfflA_MQ61gIFigS>>u0026usg>>u003dAOvVaw2pJDMqDZqF6Wu5QerdVdmK";"-8.2027047";"114.3213081";"https://maps.google.com/?cid=0x0:0x74a9f7abe8c7f288";""
"hotel";"hotel";"Glagah";"Area Sawah/Kebun, Glagah, Kec. Glagah, Kabupaten Banyuwangi, Jawa Timur";"Kabupaten Banyuwangi, Jawa Timur";"JAWA TIMUR";"";"Indonesia";"";"";"";"-8.217807";"114.309303";"https://maps.google.com/?cid=0x0:0x4027a76e3530a40";""
"hotel";"hotel";"L'JAVAS VILLAS";"RT.02/RW.02, Dusun Krajan, Kp. Anyar, Kec. Glagah, Kabupaten Banyuwangi, Jawa Timur 68432";"Dusun Krajan, Kp. Anyar, Kec. Glagah, Kabupaten Banyuwangi";"JAWA TIMUR";"68432";"Indonesia";" 081249529451";"";"";"-8.1746604";"114.2841215";"https://maps.google.com/?cid=0x0:0x74db985541bec126";""
"hotel";"hotel";"PASCAMP PARK BANYUWANGI";"Dusun Cawan, Paspan, Kabupaten Banyuwangi, Jawa Timur 68432";"Paspan, Kabupaten Banyuwangi";"JAWA TIMUR";"68432";"Indonesia";" 089505757578";"";"/url?q>>u003dhttps://pascamp.putrawisataalam.com/>>u0026opi>>u003d79508299>>u0026sa>>u003dU>>u0026ved>>u003d0ahUKEwimqZ7v5OmLAxUvwjgGHbqbAGUQ61gIFigS>>u0026usg>>u003dAOvVaw2M7rDeQZMgF-HCKjWth9v0";"-8.2300891";"114.2992613";"https://maps.google.com/?cid=0x0:0x3489da7064df43ff";""
"hotel";"Pembangunan Perumahan";"Dusun Bojoasri Kalitengah Lamongan Jawa Timur";"Sawah, Bojoasri, Kec. Kalitengah, Kabupaten Lamongan, Jawa Timur 62255";"Bojoasri, Kec. Kalitengah, Kabupaten Lamongan";"JAWA TIMUR";"62255";"Indonesia";"";"";"";"-7.033448";"112.404003";"https://maps.google.com/?cid=0x0:0x4f03a4006c46fb85";""
"hotel";"hotel";"Dadvir_neotc";"XCXF+9FG, Melik, Canditunggal, Kec. Kalitengah, Kabupaten Lamongan, Jawa Timur 62255";"Melik, Canditunggal, Kec. Kalitengah, Kabupaten Lamongan";"JAWA TIMUR";"62255";"Indonesia";"";"";"";"-7.0015624";"112.4237059";"https://maps.google.com/?cid=0x0:0xb482739ef06d1eef";""
"hotel";"hotel";"Basecamp IRENK";"294V+HW3, Jl. Soeprapto, Butungan, Kec. Kalitengah, Kabupaten Lamongan, Jawa Timur 62255";"Jl. Soeprapto, Butungan, Kec. Kalitengah, Kabupaten Lamongan";"JAWA TIMUR";"62255";"Indonesia";"";"";"";"-6.9937417";"112.3947582";"https://maps.google.com/?cid=0x0:0xb484f1dba598ff76";""
"hotel";"hotel";"Titik kumpul wong tulus";"W9XR+4Q6, Baru, Kemlagi Lor, Kec. Turi, Kabupaten Lamongan, Jawa Timur";"Kabupaten Lamongan, Jawa Timur";"JAWA TIMUR";"";"Indonesia";"";"";"";"-7.0522227";"112.3918825";"https://maps.google.com/?cid=0x0:0x21297f1c820867ae";""
"hotel";"Toko";"Fida jaya Andi cino";"W8WJ+X2W, Kalang Anyar, Kalanganyar, Kec. Karang Geneng, Kabupaten Lamongan, Jawa Timur 62254";"Kalang Anyar, Kalanganyar, Kec. Karang Geneng, Kabupaten Lamongan";"JAWA TIMUR";"62254";"Indonesia";"";"";"";"-7.0525126";"112.3300708";"https://maps.google.com/?cid=0x0:0x9f41de116a72439e";""
"hotel";"hotel";"Jawa Timur 62255";"Kec. Kalitengah, Kabupaten Lamongan, Jawa Timur";"Kabupaten Lamongan, Jawa Timur";"JAWA TIMUR";"";"Indonesia";"";"";"";"-7.0180187";"112.3993441";"https://maps.google.com/?cid=0x0:0x1c00c5eb5b53f8a0";""
"hotel";"hotel";"Hotel Arut Syari'ah";"Jalan Raya Lamongan-Babat Km 5 Sukoanyar, Kruwul, Karanglangit, Kabupaten Lamongan, Jawa Timur";"Kabupaten Lamongan, Jawa Timur";"JAWA TIMUR";"";"Indonesia";" 081249551903";"";"";"-7.1023496";"112.3684112";"https://maps.google.com/?cid=0x0:0xcb12c230cb9c75c4";""
"hotel";"hotel";"Hotel Kalimas";"Jl. Raya Tretes No.2-16, Semeru, Prigen, Kec. Prigen, Pasuruan, Jawa Timur 67157";"Semeru, Prigen, Kec. Prigen, Pasuruan";"JAWA TIMUR";"67157";"Indonesia";" 0343880809";"";"";"-7.6931166";"112.6287231";"https://maps.google.com/?cid=0x0:0xaa554482c1f1d12a";""
"hotel";"Kompleks Apartemen";"Dusun dukun";"XC75+W8M, Dsn. Dukun, RT.011/RW.005, Bojoasri, Kec. Lamongan";"Kabupaten Lamongan, Jawa Timur";"JAWA TIMUR";"";"Indonesia";"";"";"";"-7.0351559";"112.4082849";"https://maps.google.com/?cid=0x0:0xd1bb9d937f9e8732";""
"hotel";"hotel";"Hotel Bougenville Syari'ah";"RSM, barat Jl. Jaksa Agung Suprapto, Sarirejo, Sukorejo, Kec. Lamongan, Kabupaten Lamongan, Jawa Timur 62215";"barat Jl. Jaksa Agung Suprapto, Sarirejo, Sukorejo, Kec. Lamongan, Kabupaten Lamongan";"JAWA TIMUR";"62215";"Indonesia";" 082145641835";"";"/url?q>>u003dhttps://instagram.com/hotelboegenviel%3Figshid%3DYmMyMTA2M2Y%3D>>u0026opi>>u003d79508299>>u0026sa>>u003dU>>u0026ved>>u003d0ahUKEwiF8MuK5umLAxVB2TgGHem2ACsQ61gIFigS>>u0026usg>>u003dAOvVaw3-x2J9h15D_7EoLmLHUAp1";"-7.109202";"112.4028056";"https://maps.google.com/?cid=0x0:0xa80502cfd1e5c2c0";""
"hotel";"hotel";"Hotel Arut Syari'ah";"Jalan Raya Lamongan-Babat Km 5 Sukoanyar, Kruwul, Karanglangit, Kabupaten Lamongan, Jawa Timur";"Kabupaten Lamongan, Jawa Timur";"JAWA TIMUR";"";"Indonesia";" 081249551903";"";"";"-7.1023496";"112.3684112";"https://maps.google.com/?cid=0x0:0xcb12c230cb9c75c4";""
"hotel";"hotel";"Sekapuk Indah Guest House Gresik RedPartner";"Doudo, Kec. Panceng, Kabupaten Gresik, Jawa Timur 61154";"Kec. Panceng, Kabupaten Gresik";"JAWA TIMUR";"61154";"Indonesia";" 081330932999";"";"";"-6.95763";"112.5041283";"https://maps.google.com/?cid=0x0:0x31fcfea1bea0a928";""
"hotel";"hotel";"Shafina Guesthouse";"Paciran, Kec. Paciran, Kabupaten Lamongan, Jawa Timur 62264";"Kec. Paciran, Kabupaten Lamongan";"JAWA TIMUR";"62264";"Indonesia";" 081357669616";"";"/url?q>>u003dhttps://shafinaguesthouse.blogspot.com/>>u0026opi>>u003d79508299>>u0026sa>>u003dU>>u0026ved>>u003d0ahUKEwj8xdOL5umLAxXFSmwGHSSHEdkQ61gIFigS>>u0026usg>>u003dAOvVaw2JFXTWPAPo-HpXfrNGvPXu";"-6.8692576";"112.3530499";"https://maps.google.com/?cid=0x0:0x83297f4327bea915";""
"hotel";"hotel";"ANGGUN HOMESTAY SYARIAH";"Penanjan, Jl. Pramuka, RT.002/RW.001, Paciran, Kec. Paciran, Kabupaten Lamongan, Jawa Timur 62264";"Jl. Pramuka, RT.002/RW.001, Paciran, Kec. Paciran, Kabupaten Lamongan";"JAWA TIMUR";"62264";"Indonesia";" 081234511831";"";"";"-6.869402";"112.3540581";"https://maps.google.com/?cid=0x0:0x398a7288696f2e77";""
"hotel";"hotel";"Hotel Grand Mahkota";"Jl. Sunan Drajat No.4-8, Kauman, Sidoharjo, Kec. Lamongan, Kabupaten Lamongan, Jawa Timur 62214";"Kauman, Sidoharjo, Kec. Lamongan, Kabupaten Lamongan";"JAWA TIMUR";"62214";"Indonesia";" 082231199933";"";"/url?q>>u003dhttp://hotelmahkota.com/>>u0026opi>>u003d79508299>>u0026sa>>u003dU>>u0026ved>>u003d0ahUKEwjQ2ImM5umLAxWwTGwGHWKpEH4Q61gIFigS>>u0026usg>>u003dAOvVaw2rFST_VMqaqZiagFM0GEbM";"-7.1224216";"112.4151704";"https://maps.google.com/?cid=0x0:0xc041f17942481398";""
"hotel";"hotel";"N/A";"";"";"JAWA TIMUR";"";"Indonesia";"";"";"";"";"";"https://maps.google.com/?cid=0x0:0xc041f17942481398%7C/g/11cjj1c_mq%7Cen-ID";""
"hotel";"hotel";"Puri Karomah Syariah";"Jl. Raya Deket, Deket Kulon, Kec. Karangbinangun, Kabupaten Lamongan, Jawa Timur 62291";"Deket Kulon, Kec. Karangbinangun, Kabupaten Lamongan";"JAWA TIMUR";"62291";"Indonesia";" 0895417300072";"";"";"-7.1151097";"112.4309557";"https://maps.google.com/?cid=0x0:0x9e6a62a7639bb8c9";""
"hotel";"hotel";"Hotel Wijaya";"VCM8+GP4, Jl. Lamongrejo No.59, Lamongan, Sidokumpul, Kec. Lamongan, Kabupaten Lamongan, Jawa Timur 62214";"Jl. Lamongrejo No.59, Lamongan, Sidokumpul, Kec. Lamongan, Kabupaten Lamongan";"JAWA TIMUR";"62214";"Indonesia";" 0322321192";"";"";"-7.1161948";"112.416834";"https://maps.google.com/?cid=0x0:0xda6f0eafc4e3b786";""
"hotel";"Toko";"Fida jaya Andi cino";"W8WJ+X2W, Kalang Anyar, Kalanganyar, Kec. Karang Geneng, Kabupaten Lamongan, Jawa Timur 62254";"Kalang Anyar, Kalanganyar, Kec. Karang Geneng, Kabupaten Lamongan";"JAWA TIMUR";"62254";"Indonesia";"";"";"";"-7.0525126";"112.3300708";"https://maps.google.com/?cid=0x0:0x9f41de116a72439e";""
"hotel";"hotel";"Omah wedus bos tris";"X8JJ+C8F gang kuburan kulon, RT.8, Latukan Utara, Latukan, Kec. Karang Geneng, Kabupaten Lamongan, Jawa Timur 62254";"RT.8, Latukan Utara, Latukan, Kec. Karang Geneng, Kabupaten Lamongan";"JAWA TIMUR";"62254";"Indonesia";"";"";"";"-7.0189267";"112.3307965";"https://maps.google.com/?cid=0x0:0xc7505aca39d555e9";""
"hotel";"Rumah wisata";"Barokah Fram";"X8WJ+HQ8, Boyo, Sonoadi, Kec. Karang Geneng, Kabupaten Lamongan, Jawa Timur 62254";"Boyo, Sonoadi, Kec. Karang Geneng, Kabupaten Lamongan";"JAWA TIMUR";"62254";"Indonesia";" 081280901199";"";"";"-7.0035933";"112.3319398";"https://maps.google.com/?cid=0x0:0xe57b804e4276ff5";""
"hotel";"Hotel bintang 2";"Gaguk City";"Desa Karangwungu, RT.03/01, Karangwungu, Kec. Karang Geneng, Kabupaten Lamongan, Jawa Timur 62254";"RT.03/01, Karangwungu, Kec. Karang Geneng, Kabupaten Lamongan";"JAWA TIMUR";"62254";"Indonesia";" 085649609890";"";"";"-7.0005743";"112.3627547";"https://maps.google.com/?cid=0x0:0xf9f672ffd4beb6ba";""
"hotel";"Akomodasi berlayanan";"Galang Resta";"X9G3+WV2, Kendal, Kendalkemlagi, Kec. Karang Geneng, Kabupaten Lamongan, Jawa Timur";"Kabupaten Lamongan, Jawa Timur";"JAWA TIMUR";"";"Indonesia";"";"";"";"-7.0227375";"112.3546406";"https://maps.google.com/?cid=0x0:0xb9b33ea9af8571fe";""
"hotel";"Hotel";"Rumah Zavair";"X9F2+2HM, Kemlagi, Kendalkemlagi, Kec. Karang Geneng, Kabupaten Lamongan, Jawa Timur 62254";"Kemlagi, Kendalkemlagi, Kec. Karang Geneng, Kabupaten Lamongan";"JAWA TIMUR";"62254";"Indonesia";"";"";"";"-7.0261785";"112.3511173";"https://maps.google.com/?cid=0x0:0x66cb6141c2855f2f";""
"hotel";"Komplek perumahan";"Penginapan hotel";"296G+V5F, Mertani, Kec. Karang Geneng, Kabupaten Lamongan, Jawa Timur";"Kabupaten Lamongan, Jawa Timur";"JAWA TIMUR";"";"Indonesia";"";"";"";"-6.9878072";"112.3754238";"https://maps.google.com/?cid=0x0:0xd32aa7d9a6dcdb21";""
"hotel";"hotel";"Jawa Timur 62254";"Kabupaten Lamongan, Jawa Timur";"Kabupaten Lamongan, Jawa Timur";"JAWA TIMUR";"";"Indonesia";"";"";"";"-7.0156715";"112.3456985";"https://maps.google.com/?cid=0x0:0x1c00c5eb5b53f890";""
"hotel";"hotel";"Hotel Arut Syari'ah";"Jalan Raya Lamongan-Babat Km 5 Sukoanyar, Kruwul, Karanglangit, Kabupaten Lamongan, Jawa Timur";"Kabupaten Lamongan, Jawa Timur";"JAWA TIMUR";"";"Indonesia";" 081249551903";"";"";"-7.1023496";"112.3684112";"https://maps.google.com/?cid=0x0:0xcb12c230cb9c75c4";""
"hotel";"hotel";"Hotel Grand Mahkota";"Jl. Sunan Drajat No.4-8, Kauman, Sidoharjo, Kec. Lamongan, Kabupaten Lamongan, Jawa Timur 62214";"Kauman, Sidoharjo, Kec. Lamongan, Kabupaten Lamongan";"JAWA TIMUR";"62214";"Indonesia";" 082231199933";"";"";"-7.1224216";"112.4151704";"https://maps.google.com/?cid=0x0:0xc041f17942481398";""
"hotel";"hotel";"N/A";"";"";"JAWA TIMUR";"";"Indonesia";"";"";"";"";"";"https://maps.google.com/?cid=0x0:0xc041f17942481398%7C/g/11cjj1c_mq%7Cen-ID";""
"hotel";"hotel";"Hotel Bougenville Syari'ah";"RSM, barat Jl. Jaksa Agung Suprapto, Sarirejo, Sukorejo, Kec. Lamongan, Kabupaten Lamongan, Jawa Timur 62215";"barat Jl. Jaksa Agung Suprapto, Sarirejo, Sukorejo, Kec. Lamongan, Kabupaten Lamongan";"JAWA TIMUR";"62215";"Indonesia";" 082145641835";"";"";"-7.109202";"112.4028056";"https://maps.google.com/?cid=0x0:0xa80502cfd1e5c2c0";""
"hotel";"hotel";"Hotel Aqiilah Syariah";"Jl. Raya Deket, Gajah, Rejosari, Kec. Deket, Kabupaten Lamongan, Jawa Timur 62291";"Gajah, Rejosari, Kec. Deket, Kabupaten Lamongan";"JAWA TIMUR";"62291";"Indonesia";" 085707740422";"";"";"-7.1175863";"112.45091";"https://maps.google.com/?cid=0x0:0xb9cc2f60924367b";""
"hotel";"hotel";"Hotel Sunan Drajat";"Makam Sunan Drajat, Jl. Raya Dagan No.Depan, Banjaranyar, Banjarwati, Kec. Paciran, Kabupaten Lamongan, Jawa Timur 62264";"Jl. Raya Dagan No.Depan, Banjaranyar, Banjarwati, Kec. Paciran, Kabupaten Lamongan";"JAWA TIMUR";"62264";"Indonesia";" 081249610144";"";"/url?q>>u003dhttps://perekonomian.ppsd.or.id/>>u0026opi>>u003d79508299>>u0026sa>>u003dU>>u0026ved>>u003d0ahUKEwj2hP7Y5umLAxVFUGcHHcJFHpsQ61gIFigS>>u0026usg>>u003dAOvVaw3H5t4oBbv7XjvDqzhDXrTd";"-6.8855409";"112.3923268";"https://maps.google.com/?cid=0x0:0x530f9fe64d6c8c36";""
"hotel";"hotel";"FA Hotel Babat";"Jl. Raya Babat - Bojonegoro, Gedu, Banaran, Kec. Babat, Kabupaten Lamongan, Jawa Timur";"Kabupaten Lamongan, Jawa Timur";"JAWA TIMUR";"";"Indonesia";" 0895417300072";"";"";"-7.1104013";"112.1609461";"https://maps.google.com/?cid=0x0:0x6c35266097176db5";""
"hotel";"hotel";"Hotel Syari'ah Lamongan";"Jl. Raya Mantup No.43, Kucur, Sidomukti, Kec. Lamongan, Kabupaten Lamongan, Jawa Timur 62218";"Kucur, Sidomukti, Kec. Lamongan, Kabupaten Lamongan";"JAWA TIMUR";"62218";"Indonesia";" 085733773626";"";"";"-7.1453685";"112.4116061";"https://maps.google.com/?cid=0x0:0x26cce5b3d5559a82";""
"hotel";"hotel";"N/A";"";"";"JAWA TIMUR";"";"Indonesia";"";"";"";"";"";"https://maps.google.com/?cid=0x0:0x26cce5b3d5559a82%7C/g/11bx1s8gsh%7Cen-ID";""
"hotel";"hotel";"Hotel Lima Jaya";"Jl. Raya Plaosan - Babat No.20, Plaosan, Kec. Babat, Kabupaten Lamongan, Jawa Timur 62271";"Plaosan, Kec. Babat, Kabupaten Lamongan";"JAWA TIMUR";"62271";"Indonesia";" 0322451593";"";"";"-7.1005489";"112.1879563";"https://maps.google.com/?cid=0x0:0x3d2e9a074d4a0367";""
"hotel";"hotel";"Hotel Wijaya";"VCM8+GP4, Jl. Lamongrejo No.59, Lamongan, Sidokumpul, Kec. Lamongan, Kabupaten Lamongan, Jawa Timur 62214";"Jl. Lamongrejo No.59, Lamongan, Sidokumpul, Kec. Lamongan, Kabupaten Lamongan";"JAWA TIMUR";"62214";"Indonesia";" 0322321192";"";"";"-7.1161948";"112.416834";"https://maps.google.com/?cid=0x0:0xda6f0eafc4e3b786";""
"hotel";"hotel";"Grand Wisma Hotel (Syariah)";"Jl. Pahlawan No.09, Pagerwojo, Sukomulyo, Kec. Lamongan, Kabupaten Lamongan, Jawa Timur 62216";"Pagerwojo, Sukomulyo, Kec. Lamongan, Kabupaten Lamongan";"JAWA TIMUR";"62216";"Indonesia";" 088212185037";"";"";"-7.1181753";"112.4026107";"https://maps.google.com/?cid=0x0:0xf738a1d75ef9ac7d";""
"hotel";"hotel";"Hotel Arut Syari'ah";"Jalan Raya Lamongan-Babat Km 5 Sukoanyar, Kruwul, Karanglangit, Kabupaten Lamongan, Jawa Timur";"Kabupaten Lamongan, Jawa Timur";"JAWA TIMUR";"";"Indonesia";" 081249551903";"";"";"-7.1023496";"112.3684112";"https://maps.google.com/?cid=0x0:0xcb12c230cb9c75c4";""
"hotel";"hotel";"OYO 3702 Homestay Bougenville";"Jalan Sumargo, Gg. Bougenville No.26, Tlogoanyar, Kec. Lamongan, Kabupaten Lamongan, Jawa Timur 62265";"Gg. Bougenville No.26, Tlogoanyar, Kec. Lamongan, Kabupaten Lamongan";"JAWA TIMUR";"62265";"Indonesia";" 081358607784";"";"";"-7.1282099";"112.4193344";"https://maps.google.com/?cid=0x0:0xf7919b3b8b880c37";""
"hotel";"hotel";"N/A";"";"";"JAWA TIMUR";"";"Indonesia";"";"";"";"";"";"https://maps.google.com/?cid=0x0:0xc041f17942481398%7C/g/11cjj1c_mq%7Cen-ID";""
"hotel";"hotel";"Grand Hagawa Lamongan";"rumah sakit, 62216 Lamongan, Jawa Timur, 62217, Kec. Lamongan, Kabupaten Lamongan, Jawa Timur 62208";"Lamongan";"JAWA TIMUR";"62216";"Indonesia";" 0895417300072";"";"";"-7.1184799";"112.406608";"https://maps.google.com/?cid=0x0:0x3c24509245d95b77";""
"hotel";"hotel";"OYO 91848 Kost As-salaam Syariah";"10A, Jl. Sumargo Gg. Bougenville No.10A, Tlogoanyar, Kec. Lamongan, Kabupaten Lamongan, Jawa Timur 62218";"Jl. Sumargo Gg. Bougenville No.10A, Tlogoanyar, Kec. Lamongan, Kabupaten Lamongan";"JAWA TIMUR";"62218";"Indonesia";" 02129707601";"";"/url?q>>u003dhttps://www.oyorooms.com/ID/195201/%3Futm_source%3DGMB_ID%26utm_medium%3DOrganic%26utm_campaign%3DID_LAM010%26latitude%3D-7.1287598225191555%26longitude%3D112.41909518837929%26locale%3Did>>u0026opi>>u003d79508299>>u0026sa>>u003dU>>u0026ved>>u003d0ahUKEwiyo7qk5-mLAxWmxzgGHdrOFNgQ61gIFigS>>u0026usg>>u003dAOvVaw0P87swOqZ21LN3I5Pzjnnn";"-7.1287598";"112.4190952";"https://maps.google.com/?cid=0x0:0x511dfb2ec7923b89";""
"hotel";"hotel";"Assalaam Homestay Syariah RedPartner";"Gg. Bugenvil No.2-22, Tlogoanyar, Kec. Lamongan, Kabupaten Lamongan, Jawa Timur 62218";"Tlogoanyar, Kec. Lamongan, Kabupaten Lamongan";"JAWA TIMUR";"62218";"Indonesia";" 0895417300072";"";"/url?q>>u003dhttps://www.reddoorz.com/en-ph/hotel/indonesia/lamongan/lamongan/banjarmendalan/assalaam-homestay-syariah-redpartner%3Futm_source%3DGoogle%26utm_medium%3Dmybusiness%26utm_campaign%3Dwebclick>>u0026opi>>u003d79508299>>u0026sa>>u003dU>>u0026ved>>u003d0ahUKEwj9g-yk5-mLAxW5dmwGHfprD4wQ61gIFigS>>u0026usg>>u003dAOvVaw1BzwZEvgtYxN8NPqGvplad";"-7.1292717";"112.4189427";"https://maps.google.com/?cid=0x0:0x1e2978941071f6f7";""
"hotel";"hotel";"Hotel Syari'ah Lamongan";"Jl. Raya Mantup No.43, Kucur, Sidomukti, Kec. Lamongan, Kabupaten Lamongan, Jawa Timur 62218";"Kucur, Sidomukti, Kec. Lamongan, Kabupaten Lamongan";"JAWA TIMUR";"62218";"Indonesia";" 085733773626";"";"";"-7.1453685";"112.4116061";"https://maps.google.com/?cid=0x0:0x26cce5b3d5559a82";""
"hotel";"hotel";"N/A";"";"";"JAWA TIMUR";"";"Indonesia";"";"";"";"";"";"https://maps.google.com/?cid=0x0:0x26cce5b3d5559a82%7C/g/11bx1s8gsh%7Cen-ID";""
"hotel";"hotel";"Wego Lamongan";"Jl. Raya Waduk Gondang, Juwet, Deketagung, Kec. Sugio, Kabupaten Lamongan, Jawa Timur 62256";"Juwet, Deketagung, Kec. Sugio, Kabupaten Lamongan";"JAWA TIMUR";"62256";"Indonesia";"";"";"";"-7.204478";"112.2809702";"https://maps.google.com/?cid=0x0:0xc6a7509af91ced34";""
"hotel";"hotel";"OYO 3706 Griya Tentrem Syariah";"Jl. Veteran No.150, Tlogoanyar, Kec. Lamongan, Kabupaten Lamongan, Jawa Timur 62218";"Tlogoanyar, Kec. Lamongan, Kabupaten Lamongan";"JAWA TIMUR";"62218";"Indonesia";" 02129707601";"";"/url?q>>u003dhttps://www.oyorooms.com/ID/hotels-in-Lamongan/%3Futm_source%3DGMB_ID_SO%26utm_medium%3DOrganic%26utm_campaign%3DID_LAM005%26locale%3Did>>u0026opi>>u003d79508299>>u0026sa>>u003dU>>u0026ved>>u003d0ahUKEwje4Yum5-mLAxWXXmwGHYLkGkYQ61gIFigS>>u0026usg>>u003dAOvVaw2grCXGNEx2MbcvoKktVFdH";"-7.1249585";"112.4217189";"https://maps.google.com/?cid=0x0:0x1f6bf2072356ef45";""
"hotel";"hotel";"N/A";"";"";"JAWA TIMUR";"";"Indonesia";"";"";"";"";"";"https://maps.google.com/?cid=0x0:0x1f6bf2072356ef45%7C/g/11j67l4m81%7Cen-ID";""
"hotel";"hotel";"SPOT ON 90586 Hagawa Syariah Homestay";"62217, Jl. Sunan Kalijaga Gg. Manggis No.25, Kec. Lamongan, Kabupaten Lamongan, Jawa Timur 62215";"Jl. Sunan Kalijaga Gg. Manggis No.25, Kec. Lamongan, Kabupaten Lamongan";"JAWA TIMUR";"62215";"Indonesia";" 02129707601";"";"";"-7.1192152";"112.4094834";"https://maps.google.com/?cid=0x0:0x5b6ac4b8bad74b01";""
"hotel";"hotel";"RedDoorz Syariah @ Homestay Bougenville near Taman Alun-Alun Kota Lamongan";"VCC9+PP8, Gg. Bougenville No.26, Tlogoanyar, Kec. Lamongan, Kabupaten Lamongan, Jawa Timur 62265";"Gg. Bougenville No.26, Tlogoanyar, Kec. Lamongan, Kabupaten Lamongan";"JAWA TIMUR";"62265";"Indonesia";" 0895417300072";"";"";"-7.1281893";"112.4193906";"https://maps.google.com/?cid=0x0:0xee305c06e0f9a993";""
"hotel";"hotel";"OYO 92736 Bougenville Rover";"62281 Lamongan, Jawa Timur, 62218, alun alun, Lamongan, Lamongan Regency, East Java 62821";"Lamongan";"JAWA TIMUR";"62281";"Indonesia";" 02129707601";"";"/url?q>>u003dhttps://www.oyorooms.com/ID/215648/%3Futm_source%3DGMB_ID%26utm_medium%3DOrganic%26utm_campaign%3DID_LAM013%26latitude%3D-7.128222038186777%26longitude%3D112.41939341649413%26locale%3Did>>u0026opi>>u003d79508299>>u0026sa>>u003dU>>u0026ved>>u003d0ahUKEwjRgqWn5-mLAxXtSGwGHZnzI2UQ61gIFigS>>u0026usg>>u003dAOvVaw2de8VvMuS9GTcHMwD-kLaX";"-7.128222";"112.4193934";"https://maps.google.com/?cid=0x0:0xf4de67c62eb44f72";""
"hotel";"hotel";"Kec. Kembangbahu";"Kabupaten Lamongan, Jawa Timur";"Kabupaten Lamongan, Jawa Timur";"JAWA TIMUR";"";"Indonesia";"";"";"";"-7.1837181";"112.3520415";"https://maps.google.com/?cid=0x0:0x4027a76e3531450";""
"hotel";"hotel";"Hotel Bougenville Syari'ah";"RSM, barat Jl. Jaksa Agung Suprapto, Sarirejo, Sukorejo, Kec. Lamongan, Kabupaten Lamongan, Jawa Timur 62215";"barat Jl. Jaksa Agung Suprapto, Sarirejo, Sukorejo, Kec. Lamongan, Kabupaten Lamongan";"JAWA TIMUR";"62215";"Indonesia";" 082145641835";"";"/url?q>>u003dhttps://instagram.com/hotelboegenviel%3Figshid%3DYmMyMTA2M2Y%3D>>u0026opi>>u003d79508299>>u0026sa>>u003dU>>u0026ved>>u003d0ahUKEwjT-oao5-mLAxUi1zgGHQfXNGsQ61gIFigS>>u0026usg>>u003dAOvVaw3Zozob1tO53Vp5k8KFgEIz";"-7.109202";"112.4028056";"https://maps.google.com/?cid=0x0:0xa80502cfd1e5c2c0";""
"hotel";"hotel";"Hotel Aqiilah Syariah";"Jl. Raya Deket, Gajah, Rejosari, Kec. Deket, Kabupaten Lamongan, Jawa Timur 62291";"Gajah, Rejosari, Kec. Deket, Kabupaten Lamongan";"JAWA TIMUR";"62291";"Indonesia";" 085707740422";"";"";"-7.1175863";"112.45091";"https://maps.google.com/?cid=0x0:0xb9cc2f60924367b";""
"hotel";"hotel";"Puri Karomah Syariah";"Jl. Raya Deket, Deket Kulon, Kec. Karangbinangun, Kabupaten Lamongan, Jawa Timur 62291";"Deket Kulon, Kec. Karangbinangun, Kabupaten Lamongan";"JAWA TIMUR";"62291";"Indonesia";" 0895417300072";"";"";"-7.1151097";"112.4309557";"https://maps.google.com/?cid=0x0:0x9e6a62a7639bb8c9";""
"hotel";"hotel";"OYO 3434 Penginapan Keluarga Syariah";"61, Jl. Merpati No.61, Krajan, Banjarmendalan, Kec. Lamongan, Kabupaten Lamongan, Jawa Timur 62211";"Jl. Merpati No.61, Krajan, Banjarmendalan, Kec. Lamongan, Kabupaten Lamongan";"JAWA TIMUR";"62211";"Indonesia";" 02129707601";"";"";"-7.1164615";"112.4200911";"https://maps.google.com/?cid=0x0:0x8be96842b3a209f9";""
"hotel";"hotel";"N/A";"";"";"JAWA TIMUR";"";"Indonesia";"";"";"";"";"";"https://maps.google.com/?cid=0x0:0x8be96842b3a209f9%7C/g/11jfl3v69q%7Cen-ID";""
"hotel";"hotel";"Hotel Lima Jaya";"Jl. Raya Plaosan - Babat No.20, Plaosan, Kec. Babat, Kabupaten Lamongan, Jawa Timur 62271";"Plaosan, Kec. Babat, Kabupaten Lamongan";"JAWA TIMUR";"62271";"Indonesia";" 0322451593";"";"";"-7.1005489";"112.1879563";"https://maps.google.com/?cid=0x0:0x3d2e9a074d4a0367";""
"hotel";"hotel";"OYO 91868 Nusa Indah Guest House Syariah";"Depot Asih Jaya, 28 Lamongan, East Java, 62217, Lamongan, Lamongan Regency, East Java 62214";"East Java,";"JAWA TIMUR";"62217";"Indonesia";" 02129707601";"";"";"-7.1149226";"112.4066461";"https://maps.google.com/?cid=0x0:0x35efec934691c10c";""
"hotel";"hotel";"Hotel Arut Syari'ah";"Jalan Raya Lamongan-Babat Km 5 Sukoanyar, Kruwul, Karanglangit, Kabupaten Lamongan, Jawa Timur";"Kabupaten Lamongan, Jawa Timur";"JAWA TIMUR";"";"Indonesia";" 081249551903";"";"";"-7.1023496";"112.3684112";"https://maps.google.com/?cid=0x0:0xcb12c230cb9c75c4";""
"hotel";"hotel";"Hotel Aqiilah Syariah";"Jl. Raya Deket, Gajah, Rejosari, Kec. Deket, Kabupaten Lamongan, Jawa Timur 62291";"Gajah, Rejosari, Kec. Deket, Kabupaten Lamongan";"JAWA TIMUR";"62291";"Indonesia";" 085707740422";"";"";"-7.1175863";"112.45091";"https://maps.google.com/?cid=0x0:0xb9cc2f60924367b";""
"hotel";"hotel";"Hotel Grand Mahkota";"Jl. Sunan Drajat No.4-8, Kauman, Sidoharjo, Kec. Lamongan, Kabupaten Lamongan, Jawa Timur 62214";"Kauman, Sidoharjo, Kec. Lamongan, Kabupaten Lamongan";"JAWA TIMUR";"62214";"Indonesia";" 082231199933";"";"/url?q>>u003dhttp://hotelmahkota.com/>>u0026opi>>u003d79508299>>u0026sa>>u003dU>>u0026ved>>u003d0ahUKEwiB1p_o5-mLAxW4RmwGHXsBJTMQ61gIFigS>>u0026usg>>u003dAOvVaw1oTj4rMEMi-MW9qJHZndmJ";"-7.1224216";"112.4151704";"https://maps.google.com/?cid=0x0:0xc041f17942481398";""
"hotel";"hotel";"Hotel Syari'ah Lamongan";"Jl. Raya Mantup No.43, Kucur, Sidomukti, Kec. Lamongan, Kabupaten Lamongan, Jawa Timur 62218";"Kucur, Sidomukti, Kec. Lamongan, Kabupaten Lamongan";"JAWA TIMUR";"62218";"Indonesia";" 085733773626";"";"";"-7.1453685";"112.4116061";"https://maps.google.com/?cid=0x0:0x26cce5b3d5559a82";""
"hotel";"hotel";"N/A";"";"";"JAWA TIMUR";"";"Indonesia";"";"";"";"";"";"https://maps.google.com/?cid=0x0:0x26cce5b3d5559a82%7C/g/11bx1s8gsh%7Cen-ID";""
"hotel";"hotel";"Jawa Timur 62272";"Kabupaten Lamongan, Jawa Timur";"Kabupaten Lamongan, Jawa Timur";"JAWA TIMUR";"";"Indonesia";"";"";"";"-7.1839514";"112.2026347";"https://maps.google.com/?cid=0x0:0x1c00c5eb5b53f940";""
"hotel";"hotel";"SPOT ON 93147 Rumah Kos Shilah Habib";"Jalan Raya Daendels No.115, Tumenggungan, Sumurgayam, Lamongan, Lamongan Regency, East Java 62264";"Tumenggungan, Sumurgayam, Lamongan, Lamongan Regency";"JAWA TIMUR";"62264";"Indonesia";" 0817788016";"";"";"-7.1181115";"112.4149582";"https://maps.google.com/?cid=0x0:0xc68be21e40f931bc";""
"hotel";"hotel";"Puri Karomah Syariah";"Jl. Raya Deket, Deket Kulon, Kec. Karangbinangun, Kabupaten Lamongan, Jawa Timur 62291";"Deket Kulon, Kec. Karangbinangun, Kabupaten Lamongan";"JAWA TIMUR";"62291";"Indonesia";" 0895417300072";"";"";"-7.1151097";"112.4309557";"https://maps.google.com/?cid=0x0:0x9e6a62a7639bb8c9";""
"hotel";"hotel";"OYO 3500 D'chandra Family Syariah";"Ngimbang, Lamongan Regency, East Java, Lamongan, Kabupaten Lamongan, Jawa Barat 62273";"Lamongan Regency, East Java, Lamongan, Kabupaten Lamongan";"JAWA TIMUR";"62273";"Indonesia";" 02129707601";"";"";"-7.2854828";"112.2129592";"https://maps.google.com/?cid=0x0:0xe6711defc36c4c87";""
"hotel";"hotel";"Hotel Wijaya";"VCM8+GP4, Jl. Lamongrejo No.59, Lamongan, Sidokumpul, Kec. Lamongan, Kabupaten Lamongan, Jawa Timur 62214";"Jl. Lamongrejo No.59, Lamongan, Sidokumpul, Kec. Lamongan, Kabupaten Lamongan";"JAWA TIMUR";"62214";"Indonesia";" 0322321192";"";"";"-7.1161948";"112.416834";"https://maps.google.com/?cid=0x0:0xda6f0eafc4e3b786";""
"hotel";"Rumah wisata";"Rumah Mas Trio";"R675+46G, Jl. Kedungpring - Sugio, Krajan, Kedungpring, Kec. Kedungpring, Kabupaten Lamongan, Jawa Timur 62272";"Jl. Kedungpring - Sugio, Krajan, Kedungpring, Kec. Kedungpring, Kabupaten Lamongan";"JAWA TIMUR";"62272";"Indonesia";"";"";"";"-7.1872031";"112.2080328";"https://maps.google.com/?cid=0x0:0xb4639c051f8e1da";""
"hotel";"Rumah wisata";"Kos mas Aris";"Jl. Raya Babat No.16, Kedungrejo, Kalen, Kec. Kedungpring, Kabupaten Lamongan, Jawa Timur 62272";"Kedungrejo, Kalen, Kec. Kedungpring, Kabupaten Lamongan";"JAWA TIMUR";"62272";"Indonesia";"";"";"";"-7.1887451";"112.1712424";"https://maps.google.com/?cid=0x0:0xb158207c776447c0";""
"hotel";"hotel";"Hotel Elresas";"Jl. KH. Ahmad Dahlan No.24, Kauman, Sidoharjo, Kec. Lamongan, Kabupaten Lamongan, Jawa Timur 62214";"Kauman, Sidoharjo, Kec. Lamongan, Kabupaten Lamongan";"JAWA TIMUR";"62214";"Indonesia";" 0322322777";"";"";"-7.1220778";"112.4146219";"https://maps.google.com/?cid=0x0:0x41cfa325a41badee";""
"hotel";"hotel";"N/A";"";"";"JAWA TIMUR";"";"Indonesia";"";"";"";"";"";"https://maps.google.com/?cid=0x0:0x41cfa325a41badee%7C/g/11bt_hc7my%7Cen-ID";""
"hotel";"hotel";"Grand Wisma Hotel (Syariah)";"Jl. Pahlawan No.09, Pagerwojo, Sukomulyo, Kec. Lamongan, Kabupaten Lamongan, Jawa Timur 62216";"Pagerwojo, Sukomulyo, Kec. Lamongan, Kabupaten Lamongan";"JAWA TIMUR";"62216";"Indonesia";" 088212185037";"";"";"-7.1181753";"112.4026107";"https://maps.google.com/?cid=0x0:0xf738a1d75ef9ac7d";""
"hotel";"hotel";"Hotel Aqiilah Syariah";"Jl. Raya Deket, Gajah, Rejosari, Kec. Deket, Kabupaten Lamongan, Jawa Timur 62291";"Gajah, Rejosari, Kec. Deket, Kabupaten Lamongan";"JAWA TIMUR";"62291";"Indonesia";" 085707740422";"";"";"-7.1175863";"112.45091";"https://maps.google.com/?cid=0x0:0xb9cc2f60924367b";""
"hotel";"hotel";"Hotel Grand Mahkota";"Jl. Sunan Drajat No.4-8, Kauman, Sidoharjo, Kec. Lamongan, Kabupaten Lamongan, Jawa Timur 62214";"Kauman, Sidoharjo, Kec. Lamongan, Kabupaten Lamongan";"JAWA TIMUR";"62214";"Indonesia";" 082231199933";"";"/url?q>>u003dhttp://hotelmahkota.com/>>u0026opi>>u003d79508299>>u0026sa>>u003dU>>u0026ved>>u003d0ahUKEwiH2Oq46OmLAxVXUGwGHePbOaUQ61gIFigS>>u0026usg>>u003dAOvVaw0Bh6I8o25Km_KtA-9kRhfo";"-7.1224216";"112.4151704";"https://maps.google.com/?cid=0x0:0xc041f17942481398";""
"hotel";"hotel";"N/A";"";"";"JAWA TIMUR";"";"Indonesia";"";"";"";"";"";"https://maps.google.com/?cid=0x0:0xc041f17942481398%7C/g/11cjj1c_mq%7Cen-ID";""
"hotel";"hotel";"OYO 3702 Homestay Bougenville";"Jalan Sumargo, Gg. Bougenville No.26, Tlogoanyar, Kec. Lamongan, Kabupaten Lamongan, Jawa Timur 62265";"Gg. Bougenville No.26, Tlogoanyar, Kec. Lamongan, Kabupaten Lamongan";"JAWA TIMUR";"62265";"Indonesia";" 081358607784";"";"";"-7.1282099";"112.4193344";"https://maps.google.com/?cid=0x0:0xf7919b3b8b880c37";""
"hotel";"hotel";"Hotel Arut Syari'ah";"Jalan Raya Lamongan-Babat Km 5 Sukoanyar, Kruwul, Karanglangit, Kabupaten Lamongan, Jawa Timur";"Kabupaten Lamongan, Jawa Timur";"JAWA TIMUR";"";"Indonesia";" 081249551903";"";"";"-7.1023496";"112.3684112";"https://maps.google.com/?cid=0x0:0xcb12c230cb9c75c4";""
"hotel";"hotel";"Puri Karomah";"Weru, Deket Kulon, Kec. Deket, Kabupaten Lamongan, Jawa Timur 62291";"Deket Kulon, Kec. Deket, Kabupaten Lamongan";"JAWA TIMUR";"62291";"Indonesia";" 085718570547";"";"/url?q>>u003dhttps://www.instagram.com/purikaromah.lmg/%3Fhl%3Did>>u0026opi>>u003d79508299>>u0026sa>>u003dU>>u0026ved>>u003d0ahUKEwiN9Ia66OmLAxXAyDgGHV2OLt0Q61gIFigS>>u0026usg>>u003dAOvVaw30fHkJupKVZY_GW4dM-pep";"-7.1156897";"112.4390457";"https://maps.google.com/?cid=0x0:0x20de22b196c51545";""
"hotel";"hotel";"OYO Life 93036 Eddy Homestay Syariah";"Jl. Jetis Indah plaza No.42, Jetis, Kec. Lamongan, Kabupaten Lamongan, Jawa Timur 62211";"Jetis, Kec. Lamongan, Kabupaten Lamongan";"JAWA TIMUR";"62211";"Indonesia";" 02129707601";"";"";"-7.1196773";"112.423457";"https://maps.google.com/?cid=0x0:0xdde5b8ce8a0a0a61";""
"hotel";"hotel";"Grand Hagawa Lamongan";"rumah sakit, 62216 Lamongan, Jawa Timur, 62217, Kec. Lamongan, Kabupaten Lamongan, Jawa Timur 62208";"Lamongan";"JAWA TIMUR";"62216";"Indonesia";" 0895417300072";"";"";"-7.1184799";"112.406608";"https://maps.google.com/?cid=0x0:0x3c24509245d95b77";""
"hotel";"hotel";"FA Hotel Babat";"Jl. Raya Babat - Bojonegoro, Gedu, Banaran, Kec. Babat, Kabupaten Lamongan, Jawa Timur";"Kabupaten Lamongan, Jawa Timur";"JAWA TIMUR";"";"Indonesia";" 0895417300072";"";"";"-7.1104013";"112.1609461";"https://maps.google.com/?cid=0x0:0x6c35266097176db5";""
"hotel";"hotel";"OYO 91848 Kost As-salaam Syariah";"10A, Jl. Sumargo Gg. Bougenville No.10A, Tlogoanyar, Kec. Lamongan, Kabupaten Lamongan, Jawa Timur 62218";"Jl. Sumargo Gg. Bougenville No.10A, Tlogoanyar, Kec. Lamongan, Kabupaten Lamongan";"JAWA TIMUR";"62218";"Indonesia";" 02129707601";"";"";"-7.1287598";"112.4190952";"https://maps.google.com/?cid=0x0:0x511dfb2ec7923b89";""
"hotel";"hotel";"OYO 92117 Fa Homestay Syariah";"76, Jl. Raya Babat - Bojonegoro No.1, Banaran, Kabupaten Lamongan, Jawa Timur 62271";"Jl. Raya Babat - Bojonegoro No.1, Banaran, Kabupaten Lamongan";"JAWA TIMUR";"62271";"Indonesia";" 02129707601";"";"";"-7.1100787";"112.1615594";"https://maps.google.com/?cid=0x0:0x4eef81b10500de19";""
"hotel";"hotel";"Assalaam Homestay Syariah RedPartner";"Gg. Bugenvil No.2-22, Tlogoanyar, Kec. Lamongan, Kabupaten Lamongan, Jawa Timur 62218";"Tlogoanyar, Kec. Lamongan, Kabupaten Lamongan";"JAWA TIMUR";"62218";"Indonesia";" 0895417300072";"";"/url?q>>u003dhttps://www.reddoorz.com/en-ph/hotel/indonesia/lamongan/lamongan/banjarmendalan/assalaam-homestay-syariah-redpartner%3Futm_source%3DGoogle%26utm_medium%3Dmybusiness%26utm_campaign%3Dwebclick>>u0026opi>>u003d79508299>>u0026sa>>u003dU>>u0026ved>>u003d0ahUKEwj-2Pu76OmLAxXUUGcHHfjkFCsQ61gIFigS>>u0026usg>>u003dAOvVaw0hX_7GxUe4yIWVxxtAhfpA";"-7.1292717";"112.4189427";"https://maps.google.com/?cid=0x0:0x1e2978941071f6f7";""
"hotel";"hotel";"SPOT ON 93147 Rumah Kos Shilah Habib";"Jalan Raya Daendels No.115, Tumenggungan, Sumurgayam, Lamongan, Lamongan Regency, East Java 62264";"Tumenggungan, Sumurgayam, Lamongan, Lamongan Regency";"JAWA TIMUR";"62264";"Indonesia";" 0817788016";"";"";"-7.1181115";"112.4149582";"https://maps.google.com/?cid=0x0:0xc68be21e40f931bc";""
"hotel";"hotel";"Puri Karomah Syariah";"Jl. Raya Deket, Deket Kulon, Kec. Karangbinangun, Kabupaten Lamongan, Jawa Timur 62291";"Deket Kulon, Kec. Karangbinangun, Kabupaten Lamongan";"JAWA TIMUR";"62291";"Indonesia";" 0895417300072";"";"";"-7.1151097";"112.4309557";"https://maps.google.com/?cid=0x0:0x9e6a62a7639bb8c9";""
"hotel";"hotel";"KABILA HOTEL";"ruko permata, Jl. Panglima Sudirman Kav. I, Dapur Utara, Sidokumpul, Kec. Lamongan, Kabupaten Lamongan, Jawa Timur 62212";"Jl. Panglima Sudirman Kav. I, Dapur Utara, Sidokumpul, Kec. Lamongan, Kabupaten Lamongan";"JAWA TIMUR";"62212";"Indonesia";" 0322315332";"";"";"-7.1134531";"112.4237974";"https://maps.google.com/?cid=0x0:0xdd3d6700df3d1979";""
"hotel";"hotel";"Hotel Wijaya";"VCM8+GP4, Jl. Lamongrejo No.59, Lamongan, Sidokumpul, Kec. Lamongan, Kabupaten Lamongan, Jawa Timur 62214";"Jl. Lamongrejo No.59, Lamongan, Sidokumpul, Kec. Lamongan, Kabupaten Lamongan";"JAWA TIMUR";"62214";"Indonesia";" 0322321192";"";"";"-7.1161948";"112.416834";"https://maps.google.com/?cid=0x0:0xda6f0eafc4e3b786";""
"hotel";"hotel";"Hotel Syari'ah Lamongan";"Jl. Raya Mantup No.43, Kucur, Sidomukti, Kec. Lamongan, Kabupaten Lamongan, Jawa Timur 62218";"Kucur, Sidomukti, Kec. Lamongan, Kabupaten Lamongan";"JAWA TIMUR";"62218";"Indonesia";" 085733773626";"";"";"-7.1453685";"112.4116061";"https://maps.google.com/?cid=0x0:0x26cce5b3d5559a82";""
"hotel";"hotel";"N/A";"";"";"JAWA TIMUR";"";"Indonesia";"";"";"";"";"";"https://maps.google.com/?cid=0x0:0x26cce5b3d5559a82%7C/g/11bx1s8gsh%7Cen-ID";""
"hotel";"hotel";"OYO 3434 Penginapan Keluarga Syariah";"61, Jl. Merpati No.61, Krajan, Banjarmendalan, Kec. Lamongan, Kabupaten Lamongan, Jawa Timur 62211";"Jl. Merpati No.61, Krajan, Banjarmendalan, Kec. Lamongan, Kabupaten Lamongan";"JAWA TIMUR";"62211";"Indonesia";" 02129707601";"";"";"-7.1164615";"112.4200911";"https://maps.google.com/?cid=0x0:0x8be96842b3a209f9";""
"hotel";"hotel";"N/A";"";"";"JAWA TIMUR";"";"Indonesia";"";"";"";"";"";"https://maps.google.com/?cid=0x0:0x8be96842b3a209f9%7C/g/11jfl3v69q%7Cen-ID";""
"hotel";"hotel";"Jawa Timur 62211";"Kec. Lamongan, Kabupaten Lamongan, Jawa Timur";"Kabupaten Lamongan, Jawa Timur";"JAWA TIMUR";"";"Indonesia";"";"";"";"-7.1235777";"112.4246761";"https://maps.google.com/?cid=0x0:0x1c00c5eb5b53f7e0";""
"hotel";"hotel";"ANGGUN HOMESTAY SYARIAH";"Penanjan, Jl. Pramuka, RT.002/RW.001, Paciran, Kec. Paciran, Kabupaten Lamongan, Jawa Timur 62264";"Jl. Pramuka, RT.002/RW.001, Paciran, Kec. Paciran, Kabupaten Lamongan";"JAWA TIMUR";"62264";"Indonesia";" 081234511831";"";"";"-6.869402";"112.3540581";"https://maps.google.com/?cid=0x0:0x398a7288696f2e77";""
"hotel";"hotel";"Grand Wisma Hotel (Syariah)";"Jl. Pahlawan No.09, Pagerwojo, Sukomulyo, Kec. Lamongan, Kabupaten Lamongan, Jawa Timur 62216";"Pagerwojo, Sukomulyo, Kec. Lamongan, Kabupaten Lamongan";"JAWA TIMUR";"62216";"Indonesia";" 088212185037";"";"";"-7.1181753";"112.4026107";"https://maps.google.com/?cid=0x0:0xf738a1d75ef9ac7d";""
"hotel";"hotel";"Hotel Elresas";"Jl. KH. Ahmad Dahlan No.24, Kauman, Sidoharjo, Kec. Lamongan, Kabupaten Lamongan, Jawa Timur 62214";"Kauman, Sidoharjo, Kec. Lamongan, Kabupaten Lamongan";"JAWA TIMUR";"62214";"Indonesia";" 0322322777";"";"";"-7.1220778";"112.4146219";"https://maps.google.com/?cid=0x0:0x41cfa325a41badee";""
"hotel";"hotel";"N/A";"";"";"JAWA TIMUR";"";"Indonesia";"";"";"";"";"";"https://maps.google.com/?cid=0x0:0x41cfa325a41badee%7C/g/11bt_hc7my%7Cen-ID";""
"hotel";"hotel";"Hotel Aqiilah Syariah";"Jl. Raya Deket, Gajah, Rejosari, Kec. Deket, Kabupaten Lamongan, Jawa Timur 62291";"Gajah, Rejosari, Kec. Deket, Kabupaten Lamongan";"JAWA TIMUR";"62291";"Indonesia";" 085707740422";"";"";"-7.1175863";"112.45091";"https://maps.google.com/?cid=0x0:0xb9cc2f60924367b";""
"hotel";"hotel";"Puri Karomah";"Weru, Deket Kulon, Kec. Deket, Kabupaten Lamongan, Jawa Timur 62291";"Deket Kulon, Kec. Deket, Kabupaten Lamongan";"JAWA TIMUR";"62291";"Indonesia";" 085718570547";"";"/url?q>>u003dhttps://www.instagram.com/purikaromah.lmg/%3Fhl%3Did>>u0026opi>>u003d79508299>>u0026sa>>u003dU>>u0026ved>>u003d0ahUKEwiD79KO6emLAxVwZSoJHf1kJEgQ61gIFigS>>u0026usg>>u003dAOvVaw18dc3cAPCeeNqsNqQnpQg5";"-7.1156897";"112.4390457";"https://maps.google.com/?cid=0x0:0x20de22b196c51545";""
"hotel";"hotel";"Hotel Arut Syari'ah";"Jalan Raya Lamongan-Babat Km 5 Sukoanyar, Kruwul, Karanglangit, Kabupaten Lamongan, Jawa Timur";"Kabupaten Lamongan, Jawa Timur";"JAWA TIMUR";"";"Indonesia";" 081249551903";"";"";"-7.1023496";"112.3684112";"https://maps.google.com/?cid=0x0:0xcb12c230cb9c75c4";""
"hotel";"hotel";"OYO 3702 Homestay Bougenville";"Jalan Sumargo, Gg. Bougenville No.26, Tlogoanyar, Kec. Lamongan, Kabupaten Lamongan, Jawa Timur 62265";"Gg. Bougenville No.26, Tlogoanyar, Kec. Lamongan, Kabupaten Lamongan";"JAWA TIMUR";"62265";"Indonesia";" 081358607784";"";"";"-7.1282099";"112.4193344";"https://maps.google.com/?cid=0x0:0xf7919b3b8b880c37";""
"hotel";"hotel";"N/A";"";"";"JAWA TIMUR";"";"Indonesia";"";"";"";"";"";"https://maps.google.com/?cid=0x0:0xc041f17942481398%7C/g/11cjj1c_mq%7Cen-ID";""
"hotel";"hotel";"Hotel Grand Mahkota";"Jl. Sunan Drajat No.4-8, Kauman, Sidoharjo, Kec. Lamongan, Kabupaten Lamongan, Jawa Timur 62214";"Kauman, Sidoharjo, Kec. Lamongan, Kabupaten Lamongan";"JAWA TIMUR";"62214";"Indonesia";" 082231199933";"";"/url?q>>u003dhttp://hotelmahkota.com/>>u0026opi>>u003d79508299>>u0026sa>>u003dU>>u0026ved>>u003d0ahUKEwjw-s2P6emLAxXd4TgGHceyF4YQ61gIFigS>>u0026usg>>u003dAOvVaw0OyIkqZcd4R4I1Pg4CZg16";"-7.1224216";"112.4151704";"https://maps.google.com/?cid=0x0:0xc041f17942481398";""
"hotel";"hotel";"Grand Hagawa Lamongan";"rumah sakit, 62216 Lamongan, Jawa Timur, 62217, Kec. Lamongan, Kabupaten Lamongan, Jawa Timur 62208";"Lamongan";"JAWA TIMUR";"62216";"Indonesia";" 0895417300072";"";"";"-7.1184799";"112.406608";"https://maps.google.com/?cid=0x0:0x3c24509245d95b77";""
"hotel";"hotel";"OYO Life 93036 Eddy Homestay Syariah";"Jl. Jetis Indah plaza No.42, Jetis, Kec. Lamongan, Kabupaten Lamongan, Jawa Timur 62211";"Jetis, Kec. Lamongan, Kabupaten Lamongan";"JAWA TIMUR";"62211";"Indonesia";" 02129707601";"";"";"-7.1196773";"112.423457";"https://maps.google.com/?cid=0x0:0xdde5b8ce8a0a0a61";""
"hotel";"hotel";"KABILA HOTEL";"ruko permata, Jl. Panglima Sudirman Kav. I, Dapur Utara, Sidokumpul, Kec. Lamongan, Kabupaten Lamongan, Jawa Timur 62212";"Jl. Panglima Sudirman Kav. I, Dapur Utara, Sidokumpul, Kec. Lamongan, Kabupaten Lamongan";"JAWA TIMUR";"62212";"Indonesia";" 0322315332";"";"";"-7.1134531";"112.4237974";"https://maps.google.com/?cid=0x0:0xdd3d6700df3d1979";""
"hotel";"hotel";"Puri Karomah Syariah";"Jl. Raya Deket, Deket Kulon, Kec. Karangbinangun, Kabupaten Lamongan, Jawa Timur 62291";"Deket Kulon, Kec. Karangbinangun, Kabupaten Lamongan";"JAWA TIMUR";"62291";"Indonesia";" 0895417300072";"";"";"-7.1151097";"112.4309557";"https://maps.google.com/?cid=0x0:0x9e6a62a7639bb8c9";""
"hotel";"hotel";"FA Hotel Babat";"Jl. Raya Babat - Bojonegoro, Gedu, Banaran, Kec. Babat, Kabupaten Lamongan, Jawa Timur";"Kabupaten Lamongan, Jawa Timur";"JAWA TIMUR";"";"Indonesia";" 0895417300072";"";"";"-7.1104013";"112.1609461";"https://maps.google.com/?cid=0x0:0x6c35266097176db5";""
"hotel";"hotel";"OYO 91848 Kost As-salaam Syariah";"10A, Jl. Sumargo Gg. Bougenville No.10A, Tlogoanyar, Kec. Lamongan, Kabupaten Lamongan, Jawa Timur 62218";"Jl. Sumargo Gg. Bougenville No.10A, Tlogoanyar, Kec. Lamongan, Kabupaten Lamongan";"JAWA TIMUR";"62218";"Indonesia";" 02129707601";"";"/url?q>>u003dhttps://www.oyorooms.com/ID/195201/%3Futm_source%3DGMB_ID%26utm_medium%3DOrganic%26utm_campaign%3DID_LAM010%26latitude%3D-7.1287598225191555%26longitude%3D112.41909518837929%26locale%3Did>>u0026opi>>u003d79508299>>u0026sa>>u003dU>>u0026ved>>u003d0ahUKEwjV-8WR6emLAxVY3TgGHQeLFEsQ61gIFigS>>u0026usg>>u003dAOvVaw0PIXLwPKYOR1Smk92nMTny";"-7.1287598";"112.4190952";"https://maps.google.com/?cid=0x0:0x511dfb2ec7923b89";""
"hotel";"hotel";"Assalaam Homestay Syariah RedPartner";"Gg. Bugenvil No.2-22, Tlogoanyar, Kec. Lamongan, Kabupaten Lamongan, Jawa Timur 62218";"Tlogoanyar, Kec. Lamongan, Kabupaten Lamongan";"JAWA TIMUR";"62218";"Indonesia";" 0895417300072";"";"/url?q>>u003dhttps://www.reddoorz.com/en-ph/hotel/indonesia/lamongan/lamongan/banjarmendalan/assalaam-homestay-syariah-redpartner%3Futm_source%3DGoogle%26utm_medium%3Dmybusiness%26utm_campaign%3Dwebclick>>u0026opi>>u003d79508299>>u0026sa>>u003dU>>u0026ved>>u003d0ahUKEwiTyI-S6emLAxXx4zgGHVvaEVQQ61gIFigS>>u0026usg>>u003dAOvVaw2usK4l6cmnhiPYsoaVzsl3";"-7.1292717";"112.4189427";"https://maps.google.com/?cid=0x0:0x1e2978941071f6f7";""
"hotel";"hotel";"SPOT ON 93147 Rumah Kos Shilah Habib";"Jalan Raya Daendels No.115, Tumenggungan, Sumurgayam, Lamongan, Lamongan Regency, East Java 62264";"Tumenggungan, Sumurgayam, Lamongan, Lamongan Regency";"JAWA TIMUR";"62264";"Indonesia";" 0817788016";"";"";"-7.1181115";"112.4149582";"https://maps.google.com/?cid=0x0:0xc68be21e40f931bc";""
"hotel";"hotel";"Hotel Wijaya";"VCM8+GP4, Jl. Lamongrejo No.59, Lamongan, Sidokumpul, Kec. Lamongan, Kabupaten Lamongan, Jawa Timur 62214";"Jl. Lamongrejo No.59, Lamongan, Sidokumpul, Kec. Lamongan, Kabupaten Lamongan";"JAWA TIMUR";"62214";"Indonesia";" 0322321192";"";"";"-7.1161948";"112.416834";"https://maps.google.com/?cid=0x0:0xda6f0eafc4e3b786";""
"hotel";"hotel";"Hotel Syari'ah Lamongan";"Jl. Raya Mantup No.43, Kucur, Sidomukti, Kec. Lamongan, Kabupaten Lamongan, Jawa Timur 62218";"Kucur, Sidomukti, Kec. Lamongan, Kabupaten Lamongan";"JAWA TIMUR";"62218";"Indonesia";" 085733773626";"";"";"-7.1453685";"112.4116061";"https://maps.google.com/?cid=0x0:0x26cce5b3d5559a82";""
"hotel";"hotel";"N/A";"";"";"JAWA TIMUR";"";"Indonesia";"";"";"";"";"";"https://maps.google.com/?cid=0x0:0x26cce5b3d5559a82%7C/g/11bx1s8gsh%7Cen-ID";""
