Category;Real Category;Business Name;Address;City;State;Postal Code;Country;Phone;Email;Website;Latitude;Longitude;Map Link;Details Link
"komplek housing";"Perumahan";"Rumah";"Toko Nurmi, Tompobulu, Kec. Bulupoddo, Kabupaten Sinjai, Sulawesi Selatan";"Kabupaten Sinjai, Sulawesi Selatan";"SULAWESI SELATAN";"";"Indonesia";"";"";"";"-5.0983115";"120.0978301";"https://maps.google.com/?cid=0x0:0x7d69ac971af948c9";""
"komplek housing";"komplek housing";"Sulawesi Selatan 92654";"Kec. Bulupoddo, Kabupaten Sinjai, Sulawesi Selatan";"Kabupaten Sinjai, Sulawesi Selatan";"SULAWESI SELATAN";"";"Indonesia";"";"";"";"-5.126673";"120.0896313";"https://maps.google.com/?cid=0x0:0xeddb9b740e8a9461";""
"komplek housing";"Komplek perumahan";"Rifka adilah house";"V4PH+XVC, Bulu Tellue, Kec. Bulupoddo, Kabupaten Sinjai, Sulawesi Selatan 92654";"Bulu Tellue, Kec. Bulupoddo, Kabupaten Sinjai";"SULAWESI SELATAN";"92654";"Indonesia";"";"";"";"-5.1125503";"120.1296315";"https://maps.google.com/?cid=0x0:0x9525ebcae770c5ed";""
"komplek housing";"Komplek perumahan";"Rumah p.HASNA";"V5V8+FR8, Lamatti Riaja, Kec. Bulupoddo, Kabupaten Sinjai, Sulawesi Selatan";"Kabupaten Sinjai, Sulawesi Selatan";"SULAWESI SELATAN";"";"Indonesia";"";"";"";"-5.106331";"120.1670653";"https://maps.google.com/?cid=0x0:0x6bab74bd8f16a40";""
"komplek housing";"Komplek perumahan";"Ani Home";"V4HH+8M7, Bulu Tellue, Kec. Bulupoddo, Kabupaten Sinjai, Sulawesi Selatan 92654";"Bulu Tellue, Kec. Bulupoddo, Kabupaten Sinjai";"SULAWESI SELATAN";"92654";"Indonesia";"";"";"";"-5.1217139";"120.1291603";"https://maps.google.com/?cid=0x0:0xd30b042e3508acbf";""
"komplek housing";"Komplek perumahan";"Rumah adil";"W4GJ+X9, Duampanuae, Kec. Bulupoddo, Kabupaten Sinjai, Sulawesi Selatan";"Kabupaten Sinjai, Sulawesi Selatan";"SULAWESI SELATAN";"";"Indonesia";"";"";"";"-5.0721847";"120.1313084";"https://maps.google.com/?cid=0x0:0x40caa77e9e79dfe8";""
"komplek housing";"Komplek perumahan";"Rumah Minion";"V5PG+XXJ, Dusun Hilalang, Lamatti Riaja, Kec. Bulupoddo, Kabupaten Sinjai, Sulawesi Selatan";"Kabupaten Sinjai, Sulawesi Selatan";"SULAWESI SELATAN";"";"Indonesia";"";"";"";"-5.1125396";"120.1773978";"https://maps.google.com/?cid=0x0:0x34649b58f2af9a05";""
"komplek housing";"Komplek perumahan";"Rumah onya";"V3QJ+VF, Tompobulu, Kec. Bulupoddo, Kabupaten Sinjai, Sulawesi Selatan";"Kabupaten Sinjai, Sulawesi Selatan";"SULAWESI SELATAN";"";"Indonesia";"";"";"";"-5.1103279";"120.0812152";"https://maps.google.com/?cid=0x0:0xb09b7376e6fefb93";""
"komplek housing";"Komplek perumahan";"Rumahsya";"W43J+MJ2, Duampanuae, Kec. Bulupoddo, Kabupaten Sinjai, Sulawesi Selatan 92654";"Duampanuae, Kec. Bulupoddo, Kabupaten Sinjai";"SULAWESI SELATAN";"92654";"Indonesia";"";"";"";"-5.0956175";"120.1319367";"https://maps.google.com/?cid=0x0:0x75094296e9429583";""
"komplek housing";"Komplek perumahan";"Farhan";"V4RJ+MHG, Dusun bulu-bulu, Bulu Tellue, Kec. Bulupoddo, Kabupaten Sinjai, Sulawesi Selatan";"Kabupaten Sinjai, Sulawesi Selatan";"SULAWESI SELATAN";"";"Indonesia";"";"";"";"-5.1083306";"120.1314721";"https://maps.google.com/?cid=0x0:0x7c8eddf744ab4c52";""
"komplek housing";"Perumahan";"Home usye";"W564+74, Lamatti Riattang, Kec. Bulupoddo, Kabupaten Sinjai, Sulawesi Selatan";"Kabupaten Sinjai, Sulawesi Selatan";"SULAWESI SELATAN";"";"Indonesia";"";"";"";"-5.089286";"120.1553807";"https://maps.google.com/?cid=0x0:0x981805882fee651a";""
"komplek housing";"Komplek perumahan";"Rumah fahri";"W42Q+76X, Bulu Tellue, Kec. Bulupoddo, Kabupaten Sinjai, Sulawesi Selatan 92654";"Bulu Tellue, Kec. Bulupoddo, Kabupaten Sinjai";"SULAWESI SELATAN";"92654";"Indonesia";"";"";"";"-5.0986538";"120.1374795";"https://maps.google.com/?cid=0x0:0xda8bbc8bdd84ba90";""
"komplek housing";"Komplek perumahan";"Rumah vikaa";"V4JH+VH3, Bulu Tellue, Kec. Bulupoddo, Kabupaten Sinjai, Sulawesi Selatan 92654";"Bulu Tellue, Kec. Bulupoddo, Kabupaten Sinjai";"SULAWESI SELATAN";"92654";"Indonesia";"";"";"";"-5.1178539";"120.1289203";"https://maps.google.com/?cid=0x0:0xd1093f35338ee205";""
"komplek housing";"Komplek perumahan";"homebase";"V4M7+8Q3, Bulu Tellue, Kec. Bulupoddo, Kabupaten Sinjai, Sulawesi Selatan 92654";"Bulu Tellue, Kec. Bulupoddo, Kabupaten Sinjai";"SULAWESI SELATAN";"92654";"Indonesia";"";"";"";"-5.1167273";"120.1144137";"https://maps.google.com/?cid=0x0:0x562ccfcd5bb898eb";""
"komplek housing";"Komplek perumahan";"Rumah Hasmi";"Dusun Bola 1 RT 03, Duampanuae, Kec. Bulupoddo, Kabupaten Sinjai, Sulawesi Selatan";"Kabupaten Sinjai, Sulawesi Selatan";"SULAWESI SELATAN";"";"Indonesia";"";"";"";"-5.0790961";"120.1242853";"https://maps.google.com/?cid=0x0:0xcebd44ca8afa1d8c";""
"komplek housing";"Komplek perumahan";"Bolana p hawisya";"W4GJ+X9, Duampanuae, Kec. Bulupoddo, Kabupaten Sinjai, Sulawesi Selatan";"Kabupaten Sinjai, Sulawesi Selatan";"SULAWESI SELATAN";"";"Indonesia";"";"";"";"-5.0727445";"120.1316424";"https://maps.google.com/?cid=0x0:0x5e58b50170d3c867";""
"komplek housing";"Komplek perumahan";"Rumah dimas";"W4CJ+36X, Duampanuae, Kec. Bulupoddo, Kabupaten Sinjai, Sulawesi Selatan";"Kabupaten Sinjai, Sulawesi Selatan";"SULAWESI SELATAN";"";"Indonesia";"";"";"";"-5.0793047";"120.1317004";"https://maps.google.com/?cid=0x0:0x82314352b18ffbe8";""
"komplek housing";"Komplek perumahan";"Rumah Mitha";"W5H2+J4J, Dusun mattiro tangkai, Lappacinrana, Kec. Bulupoddo, Kabupaten Sinjai, Sulawesi Selatan 92776";"Dusun mattiro tangkai, Lappacinrana, Kec. Bulupoddo, Kabupaten Sinjai";"SULAWESI SELATAN";"92776";"Indonesia";"";"";"";"-5.0709031";"120.1502699";"https://maps.google.com/?cid=0x0:0xc3daa9129c8912f7";""
"komplek housing";"komplek housing";"Kec. Bulupoddo";"Kabupaten Sinjai, Sulawesi Selatan";"Kabupaten Sinjai, Sulawesi Selatan";"SULAWESI SELATAN";"";"Indonesia";"";"";"";"-5.1017228";"120.1545697";"https://maps.google.com/?cid=0x0:0x4030bfbcaf77b80";""
"komplek housing";"Komplek perumahan";"Rumah Mursalin Kabe";"Lamatti Riattang, Kec. Bulupoddo, Kabupaten Sinjai, Sulawesi Selatan 92654";"Kec. Bulupoddo, Kabupaten Sinjai";"SULAWESI SELATAN";"92654";"Indonesia";"";"";"";"-5.1070058";"120.1673959";"https://maps.google.com/?cid=0x0:0x5c92478a60cf9396";""
"komplek housing";"";"Sekretariat Sepakat";"V46M+46W, Kanrung, Kec. Sinjai Tengah, Kabupaten Sinjai, Sulawesi Selatan 92654";"Kanrung, Kec. Sinjai Tengah, Kabupaten Sinjai";"SULAWESI SELATAN";"92654";"Indonesia";"";"";"";"-5.1396484";"120.1330774";"https://maps.google.com/?cid=0x0:0xac2a28cecf1d6fd8";""
"komplek housing";"Komplek perumahan";"Gamette";"W37J+G9R, Gamette, Dusun Balle, Tompobulu, Kec. Bulupoddo, Kabupaten Sinjai, Sulawesi Selatan 92654";"Gamette, Dusun Balle, Tompobulu, Kec. Bulupoddo, Kabupaten Sinjai";"SULAWESI SELATAN";"92654";"Indonesia";"";"";"";"-5.0861329";"120.080906";"https://maps.google.com/?cid=0x0:0x93e635f425ef25b7";""
"komplek housing";"Komplek perumahan";"P Massa";"V4HH+63P, Bulu Tellue, Kec. Bulupoddo, Kabupaten Sinjai, Sulawesi Selatan 92654";"Bulu Tellue, Kec. Bulupoddo, Kabupaten Sinjai";"SULAWESI SELATAN";"92654";"Indonesia";"";"";"";"-5.1219069";"120.1276995";"https://maps.google.com/?cid=0x0:0xa8574bb8a6d92186";""
"komplek housing";"Komplek perumahan";"Rumah Muh. Rehza Apriansyah";"W54J+9WG, Lamatti Riawang, Kec. Bulupoddo, Kabupaten Sinjai, Sulawesi Selatan 92654";"Lamatti Riawang, Kec. Bulupoddo, Kabupaten Sinjai";"SULAWESI SELATAN";"92654";"Indonesia";"";"";"";"-5.0942797";"120.1822764";"https://maps.google.com/?cid=0x0:0xe95b87a3767c4f13";""
"komplek housing";"Komplek perumahan";"RUMAH MUHAMMAD AMIN";"V4H8+MR, Bulu Tellue, Kec. Bulupoddo, Kabupaten Sinjai, Sulawesi Selatan";"Kabupaten Sinjai, Sulawesi Selatan";"SULAWESI SELATAN";"";"Indonesia";"";"";"";"-5.1207593";"120.1170863";"https://maps.google.com/?cid=0x0:0xfb1e2e2c8e3601d3";""
"komplek housing";"Perumahan";"Rumah Nurul J";"V4P7+4JR, Dusun tanah tekko, Bulu Tellue, Kec. Bulupoddo, Kabupaten Sinjai, Sulawesi Selatan 92654";"Dusun tanah tekko, Bulu Tellue, Kec. Bulupoddo, Kabupaten Sinjai";"SULAWESI SELATAN";"92654";"Indonesia";"";"";"";"-5.1146276";"120.1140297";"https://maps.google.com/?cid=0x0:0x1213ec2051cb7dba";""
"komplek housing";"Perumahan";"Rumah Rini";"V3CW+8HG, Bulu Tellue, Kec. Bulupoddo, Kabupaten Sinjai, Sulawesi Selatan 92654";"Bulu Tellue, Kec. Bulupoddo, Kabupaten Sinjai";"SULAWESI SELATAN";"92654";"Indonesia";"";"";"";"-5.1291985";"120.0964533";"https://maps.google.com/?cid=0x0:0x8c2e3be6a56305a7";""
"komplek housing";"Pembangunan Perumahan";"Nenek Alea";"W56M+W5M, Lamatti Riawang, Kec. Bulupoddo, Kabupaten Sinjai, Sulawesi Selatan 92654";"Lamatti Riawang, Kec. Bulupoddo, Kabupaten Sinjai";"SULAWESI SELATAN";"92654";"Indonesia";"";"";"";"-5.087662";"120.182922";"https://maps.google.com/?cid=0x0:0x9285076777dbf132";""
"komplek housing";"Komplek perumahan";"Diana";"V45P+3GP, Kanrung, Kec. Sinjai Tengah, Kabupaten Sinjai, Sulawesi Selatan 92654";"Kanrung, Kec. Sinjai Tengah, Kabupaten Sinjai";"SULAWESI SELATAN";"92654";"Indonesia";"";"";"";"-5.1424809";"120.1374553";"https://maps.google.com/?cid=0x0:0xe88ecca952e9c513";""
"komplek housing";"Komplek perumahan";"SAPTA PESONA";"RT.001/RW.007, Jatiasih, Kec. Jatiasih, Kota Bks, Jawa Barat 17425";"Jatiasih, Kec. Jatiasih, Kota Bks";"SULAWESI SELATAN";"17425";"Indonesia";" 087875900071";"";"";"-6.3152416";"106.9580718";"https://maps.google.com/?cid=0x0:0xb403d6de9cacece8";""
"komplek housing";"Kompleks Townhouse";"Perum. Sapta Pesona 2 No.22";"Perum Sapta Pesona BB7, Perum Jl. Sapta Pesona II No.22, RT.01/RW01/RW.001, Jatiluhur, Kec. Jatiasih, Kota Bks, Jawa Barat 17425";"Perum Jl. Sapta Pesona II No.22, RT.01/RW01/RW.001, Jatiluhur, Kec. Jatiasih, Kota Bks";"SULAWESI SELATAN";"17425";"Indonesia";"";"";"";"-6.3132452";"106.9544542";"https://maps.google.com/?cid=0x0:0x993cb055108c53c0";""
"komplek housing";"komplek housing";"Kec. Pulau Sembilan";"Kabupaten Sinjai, Sulawesi Selatan";"Kabupaten Sinjai, Sulawesi Selatan";"SULAWESI SELATAN";"";"Indonesia";"";"";"";"-5.0425778";"120.3962791";"https://maps.google.com/?cid=0x0:0x925d2cb4887bf6d5";""
"komplek housing";"komplek housing";"Kec. Pulau Sembilan";"Kabupaten Sinjai, Sulawesi Selatan";"Kabupaten Sinjai, Sulawesi Selatan";"SULAWESI SELATAN";"";"Indonesia";"";"";"";"-5.0425778";"120.3962791";"https://maps.google.com/?cid=0x0:0x925d2cb4887bf6d5";""
"komplek housing";"Komplek perumahan";"Rumah iyank";"X95R+WX7, Desa, Pulau Persatuan, Kec. Pulau Sembilan, Kabupaten Sinjai, Sulawesi Selatan 92616";"Desa, Pulau Persatuan, Kec. Pulau Sembilan, Kabupaten Sinjai";"SULAWESI SELATAN";"92616";"Indonesia";" 082345681617";"";"";"-5.040197";"120.3924514";"https://maps.google.com/?cid=0x0:0xdac649ef40b7baab";""
"komplek housing";"Pembangunan Perumahan";"Rumah Hj. Hajrah";"W9JX+P9R, Pulau Persatuan, Kec. Pulau Sembilan, Kabupaten Sinjai, Sulawesi Selatan";"Kabupaten Sinjai, Sulawesi Selatan";"SULAWESI SELATAN";"";"Indonesia";"";"";"";"-5.0681462";"120.3983804";"https://maps.google.com/?cid=0x0:0x4f24988e0bc1c80f";""
"komplek housing";"komplek housing";"Sulawesi Selatan 92653";"Kec. Sinjai Bar., Kabupaten Sinjai, Sulawesi Selatan";"Kabupaten Sinjai, Sulawesi Selatan";"SULAWESI SELATAN";"";"Indonesia";"";"";"";"-5.2502253";"120.0087372";"https://maps.google.com/?cid=0x0:0x6a00cdd3fcc69759";""
"komplek housing";"Perhimpunan Pengembang Perumahan";"Rumahna accing";"Bonto Salama, Kec. Sinjai Bar., Kabupaten Sinjai, Sulawesi Selatan 92653";"Kec. Sinjai Bar., Kabupaten Sinjai";"SULAWESI SELATAN";"92653";"Indonesia";"";"";"";"-5.1636462";"120.0456361";"https://maps.google.com/?cid=0x0:0x614f341b5e3e9e8f";""
"komplek housing";"Komplek perumahan";"Ikka";"R29R+84X, Bonto Salama, Kec. Sinjai Bar., Kabupaten Sinjai, Sulawesi Selatan 92653";"Bonto Salama, Kec. Sinjai Bar., Kabupaten Sinjai";"SULAWESI SELATAN";"92653";"Indonesia";"";"";"";"-5.1803593";"120.0398066";"https://maps.google.com/?cid=0x0:0xaff8b9ee286a2883";""
"komplek housing";"Komplek perumahan";"Rezky";"R2GR+8JH, Bonto Salama, Kec. Sinjai Bar., Kabupaten Sinjai, Sulawesi Selatan 92653";"Bonto Salama, Kec. Sinjai Bar., Kabupaten Sinjai";"SULAWESI SELATAN";"92653";"Indonesia";"";"";"";"-5.1741843";"120.04161";"https://maps.google.com/?cid=0x0:0x121d971f08e7782a";""
"komplek housing";"Komplek perumahan";"Fu puank";"R2GM+MF2, Terasa, Kec. Sinjai Bar., Kabupaten Sinjai, Sulawesi Selatan";"Kabupaten Sinjai, Sulawesi Selatan";"SULAWESI SELATAN";"";"Indonesia";" 088242335859";"";"";"-5.1733699";"120.0336355";"https://maps.google.com/?cid=0x0:0xc797fd4a208d64d3";""
"komplek housing";"Kompleks Apartemen";"Jvx esel";"P2J8+Q3, Boto Lempangan, Kec. Sinjai Bar., Kabupaten Sinjai, Sulawesi Selatan";"Kabupaten Sinjai, Sulawesi Selatan";"SULAWESI SELATAN";"";"Indonesia";"";"";"";"-5.2681544";"120.0151265";"https://maps.google.com/?cid=0x0:0xce6e3ebb4000e633";""
"komplek housing";"Komplek perumahan";"rumah inna";"Q2PH+W89, magala, Bonto Salama, Kec. Sinjai Bar., Kabupaten Sinjai, Sulawesi Selatan 92653";"magala, Bonto Salama, Kec. Sinjai Bar., Kabupaten Sinjai";"SULAWESI SELATAN";"92653";"Indonesia";"";"";"";"-5.2127128";"120.0283482";"https://maps.google.com/?cid=0x0:0x95aebc9194b02044";""
"komplek housing";"Komplek perumahan";"Samsul nidjhi";"Q2WJ+F36, Bonto Salama, Kec. Sinjai Bar., Kabupaten Sinjai, Sulawesi Selatan 92653";"Bonto Salama, Kec. Sinjai Bar., Kabupaten Sinjai";"SULAWESI SELATAN";"92653";"Indonesia";"";"";"";"-5.2038385";"120.0301483";"https://maps.google.com/?cid=0x0:0x6a5e73db208ea3e8";""
"komplek housing";"Komplek perumahan";"Bg naldy";"R2GM+87C, Terasa, Kec. Sinjai Bar., Kabupaten Sinjai, Sulawesi Selatan";"Kabupaten Sinjai, Sulawesi Selatan";"SULAWESI SELATAN";"";"Indonesia";"";"";"";"-5.1741827";"120.0331312";"https://maps.google.com/?cid=0x0:0x12fc5edcf8af980f";""
"komplek housing";"Komplek perumahan";"Rumahku nhia";"P337+RM, Biji Nangka, Kec. Sinjai Borong, Kabupaten Sinjai, Sulawesi Selatan 92662";"Biji Nangka, Kec. Sinjai Borong, Kabupaten Sinjai";"SULAWESI SELATAN";"92662";"Indonesia";"";"";"";"-5.2954484";"120.0641724";"https://maps.google.com/?cid=0x0:0x38cf28bfe9f517b9";""
"komplek housing";"Komplek perumahan";"Home Pak Simbung Nya'la";"Q2Q5+FG2, Hulo, Tassililu, Kec. Sinjai Bar., Kabupaten Sinjai, Sulawesi Selatan";"Kabupaten Sinjai, Sulawesi Selatan";"SULAWESI SELATAN";"";"Indonesia";"";"";"";"-5.2113731";"120.0087664";"https://maps.google.com/?cid=0x0:0xac5b7cc46a673f94";""
"komplek housing";"Komplek perumahan";"Nurhayati";"P2W3+953, Barania, Kec. Sinjai Bar., Kabupaten Sinjai, Sulawesi Selatan 92653";"Barania, Kec. Sinjai Bar., Kabupaten Sinjai";"SULAWESI SELATAN";"92653";"Indonesia";"";"";"";"-5.253483";"120.0022996";"https://maps.google.com/?cid=0x0:0x737ce2ff5ea7f49e";""
"komplek housing";"Komplek perumahan";"Hilal Egozz";"PXHH+PJW, Gn. Perak, Kec. Sinjai Bar., Kabupaten Sinjai, Sulawesi Selatan";"Kabupaten Sinjai, Sulawesi Selatan";"SULAWESI SELATAN";"";"Indonesia";"";"";"";"-5.2706382";"119.9790891";"https://maps.google.com/?cid=0x0:0x71a80701ad4601c7";""
"komplek housing";"Perumahan rakyat";"Rumah PADIL MUHAMMAD PADIL";"R2QW+99V, Bonto Salama, Kec. Sinjai Bar., Kabupaten Sinjai, Sulawesi Selatan 92653";"Bonto Salama, Kec. Sinjai Bar., Kabupaten Sinjai";"SULAWESI SELATAN";"92653";"Indonesia";"";"";"";"-5.1615123";"120.0459084";"https://maps.google.com/?cid=0x0:0xb9acfd4fc034e46c";""
"komplek housing";"Komplek perumahan";"Rmh Eka Wijaya";"PXHM+R34, Gn. Perak, Kec. Sinjai Bar., Kabupaten Sinjai, Sulawesi Selatan";"Kabupaten Sinjai, Sulawesi Selatan";"SULAWESI SELATAN";"";"Indonesia";"";"";"";"-5.2710912";"119.9824029";"https://maps.google.com/?cid=0x0:0xb58a0b5df4de900c";""
"komplek housing";"Komplek perumahan";"Rumah adik salwa";"QX2P+8RV, Balakia, Kec. Sinjai Bar., Kabupaten Sinjai, Sulawesi Selatan 92171";"Balakia, Kec. Sinjai Bar., Kabupaten Sinjai";"SULAWESI SELATAN";"92171";"Indonesia";"";"";"";"-5.2491327";"119.9870624";"https://maps.google.com/?cid=0x0:0xc4de8752e499c726";""
"komplek housing";"Perhimpunan Pengembang Perumahan";"R. Saleh";"Tassililu, Kec. Sinjai Bar., Kabupaten Sinjai, Sulawesi Selatan 92171";"Kec. Sinjai Bar., Kabupaten Sinjai";"SULAWESI SELATAN";"92171";"Indonesia";" 085823407754";"";"";"-5.209169";"120.0029572";"https://maps.google.com/?cid=0x0:0x1f3e09978b395a0";""
"komplek housing";"Komplek perumahan";"Cida House";"Q2F2+5WM, Tassililu, Kec. Sinjai Bar., Kabupaten Sinjai, Sulawesi Selatan";"Kabupaten Sinjai, Sulawesi Selatan";"SULAWESI SELATAN";"";"Indonesia";"";"";"";"-5.2268317";"120.0020739";"https://maps.google.com/?cid=0x0:0xc5469716754fe308";""
"komplek housing";"Komplek perumahan";"Rumah Muhajir";"QXQX+37, Tassililu, Kec. Sinjai Bar., Kabupaten Sinjai, Sulawesi Selatan 92171";"Tassililu, Kec. Sinjai Bar., Kabupaten Sinjai";"SULAWESI SELATAN";"92171";"Indonesia";"";"";"";"-5.2123466";"119.9981916";"https://maps.google.com/?cid=0x0:0x939f774f45658f01";""
"komplek housing";"komplek housing";"Rumah ichaa";"P329+FQ3, Biji Nangka, Kec. Sinjai Borong, Kabupaten Sinjai, Sulawesi Selatan";"Kabupaten Sinjai, Sulawesi Selatan";"SULAWESI SELATAN";"";"Indonesia";"";"";"";"-5.2990586";"120.0695848";"https://maps.google.com/?cid=0x0:0xf50ab9e1460712cc";""
"komplek housing";"komplek housing";"Kec. Sinjai Bar.";"Kabupaten Sinjai, Sulawesi Selatan";"Kabupaten Sinjai, Sulawesi Selatan";"SULAWESI SELATAN";"";"Indonesia";"";"";"";"-5.2420938";"120.0140495";"https://maps.google.com/?cid=0x0:0x4030bfbcaf77bc0";""
"komplek housing";"Pembangunan Perumahan";"ifkah's home";"QX2X+JG6, Gn. Perak, Kec. Sinjai Bar., Kabupaten Sinjai, Sulawesi Selatan 92653";"Gn. Perak, Kec. Sinjai Bar., Kabupaten Sinjai";"SULAWESI SELATAN";"92653";"Indonesia";"";"";"";"-5.2479681";"119.9992834";"https://maps.google.com/?cid=0x0:0x8830b59b70ead099";""
"komplek housing";"Komplek perumahan";"Home Ambo Nurda (Guru SD)";"Q2J9+CXG, Dusun Bondu, Arabika, Kec. Sinjai Bar., Kabupaten Sinjai, Sulawesi Selatan 92653";"Dusun Bondu, Arabika, Kec. Sinjai Bar., Kabupaten Sinjai";"SULAWESI SELATAN";"92653";"Indonesia";"";"";"";"-5.2189382";"120.0199448";"https://maps.google.com/?cid=0x0:0xf345eb2c2a7c8da5";""
"komplek housing";"Komplek perumahan";"Rumah Pak Muhlis,S.Hut,M.Si";"Q247+VMM, Arabika, Kec. Sinjai Bar., Kabupaten Sinjai, Sulawesi Selatan 92653";"Arabika, Kec. Sinjai Bar., Kabupaten Sinjai";"SULAWESI SELATAN";"92653";"Indonesia";"";"";"";"-5.2428206";"120.0142024";"https://maps.google.com/?cid=0x0:0x403951f251baa15f";""
"komplek housing";"Komplek perumahan";"Masyita Al-Kadzab House";"DESA No.RT 005, RT.DUSUN MATTIROHALIA/RW.03, DUSUN MATTIROHALIA, Barania, Kec. Sinjai Bar., Kabupaten Sinjai, Sulawesi Selatan 92653";"RT.DUSUN MATTIROHALIA/RW.03, DUSUN MATTIROHALIA, Barania, Kec. Sinjai Bar., Kabupaten Sinjai";"SULAWESI SELATAN";"92653";"Indonesia";"";"";"";"-5.2571067";"120.0050914";"https://maps.google.com/?cid=0x0:0x79def6d5ffe91602";""
"komplek housing";"Gedung Apartemen";"RumahWahid";"P2W5+MCP, Barania, Kec. Sinjai Bar., Kabupaten Sinjai, Sulawesi Selatan 92653";"Barania, Kec. Sinjai Bar., Kabupaten Sinjai";"SULAWESI SELATAN";"92653";"Indonesia";"";"";"";"-5.2532793";"120.0085702";"https://maps.google.com/?cid=0x0:0xc0c5bb6e126c7af6";""
"komplek housing";"Komplek perumahan";"ANF";"Q236+4PG, Arabika, Kec. Sinjai Bar., Kabupaten Sinjai, Sulawesi Selatan 92653";"Arabika, Kec. Sinjai Bar., Kabupaten Sinjai";"SULAWESI SELATAN";"92653";"Indonesia";"";"";"";"-5.2474923";"120.0116715";"https://maps.google.com/?cid=0x0:0xfc20ec8018b749cd";""
"komplek housing";"Pembangunan Perumahan";"Dadi house";"Q282+PGC Bar, Balakia, Kec. Sinjai Bar., Kabupaten Sinjai, Sulawesi Selatan 92653";"Balakia, Kec. Sinjai Bar., Kabupaten Sinjai";"SULAWESI SELATAN";"92653";"Indonesia";"";"";"";"-5.2338188";"120.0015046";"https://maps.google.com/?cid=0x0:0x198e16b424db06ae";""
"komplek housing";"Perhimpunan Pengembang Perumahan";"Rumah ifa";"R2PW+G7R, Bonto Salama, Kec. Sinjai Bar., Kabupaten Sinjai, Sulawesi Selatan 92653";"Bonto Salama, Kec. Sinjai Bar., Kabupaten Sinjai";"SULAWESI SELATAN";"92653";"Indonesia";"";"";"";"-5.1633172";"120.0456367";"https://maps.google.com/?cid=0x0:0xd491082822e7144f";""
"komplek housing";"komplek housing";"Sulawesi Selatan 92662";"Kec. Sinjai Borong, Kabupaten Sinjai, Sulawesi Selatan";"Kabupaten Sinjai, Sulawesi Selatan";"SULAWESI SELATAN";"";"Indonesia";"";"";"";"-5.3213665";"120.0549683";"https://maps.google.com/?cid=0x0:0xd16a688a7833f60e";""
"komplek housing";"Komplek perumahan";"Rumahku nhia";"P337+RM, Biji Nangka, Kec. Sinjai Borong, Kabupaten Sinjai, Sulawesi Selatan 92662";"Biji Nangka, Kec. Sinjai Borong, Kabupaten Sinjai";"SULAWESI SELATAN";"92662";"Indonesia";"";"";"";"-5.2954484";"120.0641724";"https://maps.google.com/?cid=0x0:0x38cf28bfe9f517b9";""
"komplek housing";"komplek housing";"Rumah ichaa";"P329+FQ3, Biji Nangka, Kec. Sinjai Borong, Kabupaten Sinjai, Sulawesi Selatan";"Kabupaten Sinjai, Sulawesi Selatan";"SULAWESI SELATAN";"";"Indonesia";"";"";"";"-5.2990586";"120.0695848";"https://maps.google.com/?cid=0x0:0xf50ab9e1460712cc";""
"komplek housing";"Komplek perumahan";"suci sound";"rumah putih sebelah kanan, dekat pasar desa, Barambang, Kec. Sinjai Borong, Kabupaten Sinjai, Sulawesi Selatan 92662";"dekat pasar desa, Barambang, Kec. Sinjai Borong, Kabupaten Sinjai";"SULAWESI SELATAN";"92662";"Indonesia";" 085398339611";"";"";"-5.291405";"120.0509899";"https://maps.google.com/?cid=0x0:0xba9a9ebd6a24ac4f";""
"komplek housing";"Komplek perumahan";"Hery";"M397+8PW, Pasir Putih, Kec. Sinjai Borong, Kabupaten Sinjai, Sulawesi Selatan 92662";"Pasir Putih, Kec. Sinjai Borong, Kabupaten Sinjai";"SULAWESI SELATAN";"92662";"Indonesia";"";"";"";"-5.3316355";"120.0643132";"https://maps.google.com/?cid=0x0:0x4fa70a2cfacd26fa";""
"komplek housing";"Komplek perumahan";"Home Kiki";"M2WM+27, Batu Belerang, Kec. Sinjai Borong, Kabupaten Sinjai, Sulawesi Selatan";"Kabupaten Sinjai, Sulawesi Selatan";"SULAWESI SELATAN";"";"Indonesia";"";"";"";"-5.3050061";"120.0331923";"https://maps.google.com/?cid=0x0:0xb2e15e795d951ac4";""
"komplek housing";"Toko bahan makanan";"Ippang";"P24W+5VC, Barambang, Kec. Sinjai Borong, Kabupaten Sinjai, Sulawesi Selatan 92662";"Barambang, Kec. Sinjai Borong, Kabupaten Sinjai";"SULAWESI SELATAN";"92662";"Indonesia";"";"";"";"-5.2945625";"120.0471406";"https://maps.google.com/?cid=0x0:0x5c8f4308c2ea9956";""
"komplek housing";"Komplek perumahan";"IINDWIPUTRI";"M2FW+GVW, Kassi Buleng, Kec. Sinjai Borong, Kabupaten Sinjai, Sulawesi Selatan 92662";"Kassi Buleng, Kec. Sinjai Borong, Kabupaten Sinjai";"SULAWESI SELATAN";"92662";"Indonesia";"";"";"";"-5.3253128";"120.0455468";"https://maps.google.com/?cid=0x0:0xb69b1e13b0a616c7";""
"komplek housing";"Komplek perumahan";"Rumah Erwin";"M26V+2FV, Dusun Batu Selatan, Kassi Buleng, Kec. Sinjai Borong, Kabupaten Sinjai, Sulawesi Selatan 92662";"Dusun Batu Selatan, Kassi Buleng, Kec. Sinjai Borong, Kabupaten Sinjai";"SULAWESI SELATAN";"92662";"Indonesia";"";"";"";"-5.3398752";"120.0436649";"https://maps.google.com/?cid=0x0:0x6437794640062468";""
"komplek housing";"Pembangunan Perumahan";"AYDAN JUAL BELI SAPI";"M3CG+JX9, Pasir Putih, Kec. Sinjai Utara, Kabupaten Sinjai, Sulawesi Selatan 92662";"Pasir Putih, Kec. Sinjai Utara, Kabupaten Sinjai";"SULAWESI SELATAN";"92662";"Indonesia";"";"";"";"-5.3283961";"120.0775544";"https://maps.google.com/?cid=0x0:0xc9f7e2e96b51e817";""
"komplek housing";"Komplek perumahan";"Haris";"M3RF+C6C, Bonto Sinala, Kec. Sinjai Borong, Kabupaten Sinjai, Sulawesi Selatan 92662";"Bonto Sinala, Kec. Sinjai Borong, Kabupaten Sinjai";"SULAWESI SELATAN";"92662";"Indonesia";"";"";"";"-5.308927";"120.0730153";"https://maps.google.com/?cid=0x0:0x23d772df2c21d2e1";""
"komplek housing";"Komplek perumahan";"A. Rusmin";"P329+6XP, Biji Nangka, Kec. Sinjai Borong, Kabupaten Sinjai, Sulawesi Selatan 92662";"Biji Nangka, Kec. Sinjai Borong, Kabupaten Sinjai";"SULAWESI SELATAN";"92662";"Indonesia";"";"";"";"-5.2988806";"120.0707314";"https://maps.google.com/?cid=0x0:0xfcb28362c8c8079c";""
"komplek housing";"komplek housing";"Home Marlia";"M2CG+7CG, Bonto Tengnga, Kec. Sinjai Borong, Kabupaten Sinjai, Sulawesi Selatan 92662";"Bonto Tengnga, Kec. Sinjai Borong, Kabupaten Sinjai";"SULAWESI SELATAN";"92662";"Indonesia";"";"";"";"-5.3297711";"120.0259811";"https://maps.google.com/?cid=0x0:0x7b62b37ad1d8c145";""
"komplek housing";"Komplek perumahan";"Andhika";"M3FC+XWM, Pasir Putih, Kec. Sinjai Borong, Kabupaten Sinjai, Sulawesi Selatan 92662";"Pasir Putih, Kec. Sinjai Borong, Kabupaten Sinjai";"SULAWESI SELATAN";"92662";"Indonesia";"";"";"";"-5.3250375";"120.0722969";"https://maps.google.com/?cid=0x0:0x19e79608748af9a4";""
"komplek housing";"komplek housing";"RUMAH KELUARGA H.SYAMSUDDIN BIN DJUDE";"M3H8+23C, Pasir Putih, Kec. Sinjai Borong, Kabupaten Sinjai, Sulawesi Selatan 92662";"Pasir Putih, Kec. Sinjai Borong, Kabupaten Sinjai";"SULAWESI SELATAN";"92662";"Indonesia";"";"";"";"-5.3212357";"120.0652661";"https://maps.google.com/?cid=0x0:0xc33e24836ac0db27";""
"komplek housing";"Komplek perumahan";"Rumah Babunya Chymi";"M3M7+46, Pasir Putih, Kec. Sinjai Borong, Kabupaten Sinjai, Sulawesi Selatan";"Kabupaten Sinjai, Sulawesi Selatan";"SULAWESI SELATAN";"";"Indonesia";"";"";"";"-5.3172124";"120.063066";"https://maps.google.com/?cid=0x0:0x21257d8a0a487a24";""
"komplek housing";"komplek housing";"Home Andi Sumarni Tamring";"M2MG+WXC, Bonto Tengnga, Kec. Sinjai Borong, Kabupaten Sinjai, Sulawesi Selatan 92662";"Bonto Tengnga, Kec. Sinjai Borong, Kabupaten Sinjai";"SULAWESI SELATAN";"92662";"Indonesia";"";"";"";"-5.3151838";"120.027395";"https://maps.google.com/?cid=0x0:0xf4dcbd6a1dc73355";""
"komplek housing";"komplek housing";"Home Sapri";"M2VJ+XX7, Dusun Jeppara, Batu Belerang, Kec. Sinjai Borong, Kabupaten Sinjai, Sulawesi Selatan 92662";"Dusun Jeppara, Batu Belerang, Kec. Sinjai Borong, Kabupaten Sinjai";"SULAWESI SELATAN";"92662";"Indonesia";"";"";"";"-5.30509";"120.0324067";"https://maps.google.com/?cid=0x0:0x1a93959f29d80e61";""
"komplek housing";"Pembangunan Perumahan";"RUDI HOME";"M2QJ+9V3, Batu Belerang, Kec. Sinjai Borong, Kabupaten Sinjai, Sulawesi Selatan 92662";"Batu Belerang, Kec. Sinjai Borong, Kabupaten Sinjai";"SULAWESI SELATAN";"92662";"Indonesia";"";"";"";"-5.3116576";"120.032086";"https://maps.google.com/?cid=0x0:0x31673a8ff14315de";""
"komplek housing";"Komplek perumahan";"rumah inna";"M3QC+VRV, Dusun bongki bongki, Bonto Sinala";"Kabupaten Sinjai, Sulawesi Selatan";"SULAWESI SELATAN";"";"Indonesia";"";"";"";"-5.3102521";"120.0720334";"https://maps.google.com/?cid=0x0:0x7497d9e2e0bb6589";""
"komplek housing";"komplek housing";"Kec. Sinjai Borong";"Kabupaten Sinjai, Sulawesi Selatan";"Kabupaten Sinjai, Sulawesi Selatan";"SULAWESI SELATAN";"";"Indonesia";"";"";"";"-5.3075949";"120.0334289";"https://maps.google.com/?cid=0x0:0x4030bfbcaf77be0";""
"komplek housing";"Komplek perumahan";"Rumah fadel";"M2QJ+945, Batu Belerang, Kec. Sinjai Borong, Kabupaten Sinjai, Sulawesi Selatan 92662";"Batu Belerang, Kec. Sinjai Borong, Kabupaten Sinjai";"SULAWESI SELATAN";"92662";"Indonesia";"";"";"";"-5.3116213";"120.030343";"https://maps.google.com/?cid=0x0:0xb4321a9500d58f55";""
"komplek housing";"Pembangunan Perumahan";"Sakir";"M26R+9M2, Kassi Buleng, Kec. Sinjai Borong, Kabupaten Sinjai, Sulawesi Selatan 92662";"Kassi Buleng, Kec. Sinjai Borong, Kabupaten Sinjai";"SULAWESI SELATAN";"92662";"Indonesia";"";"";"";"-5.339111";"120.0416423";"https://maps.google.com/?cid=0x0:0x91de02b16f55f46a";""
"komplek housing";"Komplek perumahan";"Rumah raho";"M3JC+C4F, Pasir Putih, Kec. Sinjai Borong, Kabupaten Sinjai, Sulawesi Selatan 92662";"Pasir Putih, Kec. Sinjai Borong, Kabupaten Sinjai";"SULAWESI SELATAN";"92662";"Indonesia";"";"";"";"-5.3189426";"120.0702825";"https://maps.google.com/?cid=0x0:0x5021afbd9d50c848";""
"komplek housing";"Toko Bahan Bangunan";"ABY BANGUNAN";"M2FV+VH6, Kassi Buleng, Kec. Sinjai Borong, Kabupaten Sinjai, Sulawesi Selatan 92662";"Kassi Buleng, Kec. Sinjai Borong, Kabupaten Sinjai";"SULAWESI SELATAN";"92662";"Indonesia";"";"";"";"-5.3253345";"120.0438808";"https://maps.google.com/?cid=0x0:0x7683a4e787cc41fe";""
"komplek housing";"Komplek perumahan";"OriZa";"M2CH+V92, Bonto Tengnga, Kec. Sinjai Borong, Kabupaten Sinjai, Sulawesi Selatan 92662";"Bonto Tengnga, Kec. Sinjai Borong, Kabupaten Sinjai";"SULAWESI SELATAN";"92662";"Indonesia";"";"";"";"-5.3279075";"120.0283256";"https://maps.google.com/?cid=0x0:0x8ddd133912534aba";""
"komplek housing";"Pembangunan Perumahan";"Nurdiawati";"P24W+MJQ, Barambang, Kec. Sinjai Borong, Kabupaten Sinjai, Sulawesi Selatan 92662";"Barambang, Kec. Sinjai Borong, Kabupaten Sinjai";"SULAWESI SELATAN";"92662";"Indonesia";"";"";"";"-5.2932904";"120.0466204";"https://maps.google.com/?cid=0x0:0x3c3d9130e0d5b1a9";""
"komplek housing";"Komplek perumahan";"Rumah Rani";"M3H8+23C, Pasir Putih, Kec. Sinjai Borong, Kabupaten Sinjai, Sulawesi Selatan 92662";"Pasir Putih, Kec. Sinjai Borong, Kabupaten Sinjai";"SULAWESI SELATAN";"92662";"Indonesia";"";"";"";"-5.3224326";"120.0651424";"https://maps.google.com/?cid=0x0:0x31bd2132861cea44";""
"komplek housing";"Gedung Apartemen";"sweet home cgl";"Q44R+JX, Gareccing, Kec. Sinjai Sel., Kabupaten Sinjai, Sulawesi Selatan 92661";"Gareccing, Kec. Sinjai Sel., Kabupaten Sinjai";"SULAWESI SELATAN";"92661";"Indonesia";"";"";"";"-5.243429";"120.142445";"https://maps.google.com/?cid=0x0:0xc88f097c0069f4b2";""
"komplek housing";"Komplek perumahan";"Hasbi home";"Q574+QCF, Gareccing, Kec. Sinjai Sel., Kabupaten Sinjai, Sulawesi Selatan 92661";"Gareccing, Kec. Sinjai Sel., Kabupaten Sinjai";"SULAWESI SELATAN";"92661";"Indonesia";"";"";"";"-5.2355703";"120.1560436";"https://maps.google.com/?cid=0x0:0xa00bc61a3cc6bb86";""
"komplek housing";"komplek housing";"Sulawesi Selatan 92661";"Sulawesi Selatan";"Sulawesi Selatan";"SULAWESI SELATAN";"";"Indonesia";"";"";"";"-5.2710797";"120.1358346";"https://maps.google.com/?cid=0x0:0x660e2c6f279f388f";""
"komplek housing";"Komplek perumahan";"RUMAH MUH.FADIL";"P4R8+W3, Songing, Kec. Sinjai Sel., Kabupaten Sinjai, Sulawesi Selatan 92661";"Songing, Kec. Sinjai Sel., Kabupaten Sinjai";"SULAWESI SELATAN";"92661";"Indonesia";"";"";"";"-5.2577344";"120.1152145";"https://maps.google.com/?cid=0x0:0x5adc16c39149e65c";""
"komplek housing";"Perumahan";"Rumah Ahlidin";"P5H3+F4J, Jl. Poros Palangka, Sangianseri, Kec. Sinjai Sel., Kabupaten Sinjai, Sulawesi Selatan 92661";"Jl. Poros Palangka, Sangianseri, Kec. Sinjai Sel., Kabupaten Sinjai";"SULAWESI SELATAN";"92661";"Indonesia";"";"";"";"-5.2709854";"120.1530665";"https://maps.google.com/?cid=0x0:0x5de516a2fa0547f1";""
"komplek housing";"komplek housing";"Rumah ichaa";"P329+FQ3, Biji Nangka, Kec. Sinjai Borong, Kabupaten Sinjai, Sulawesi Selatan";"Kabupaten Sinjai, Sulawesi Selatan";"SULAWESI SELATAN";"";"Indonesia";"";"";"";"-5.2990586";"120.0695848";"https://maps.google.com/?cid=0x0:0xf50ab9e1460712cc";""
"komplek housing";"Komplek perumahan";"Mochi house";"Q535+6MW, Dusun bulujampi, Gareccing, Kec. Sinjai Sel., Kabupaten Sinjai, Sulawesi Selatan 92661";"Dusun bulujampi, Gareccing, Kec. Sinjai Sel., Kabupaten Sinjai";"SULAWESI SELATAN";"92661";"Indonesia";"";"";"";"-5.2468907";"120.1592158";"https://maps.google.com/?cid=0x0:0xa7e4107d9b49e69b";""
"komplek housing";"Perhimpunan Pengembang Perumahan";"Afdal Home";"Q534+X8W, Gareccing, Kec. Sinjai Sel., Kabupaten Sinjai, Sulawesi Selatan 92661";"Gareccing, Kec. Sinjai Sel., Kabupaten Sinjai";"SULAWESI SELATAN";"92661";"Indonesia";"";"";"";"-5.245159";"120.156766";"https://maps.google.com/?cid=0x0:0x3797b40f999676d2";""
"komplek housing";"Komplek perumahan";"Fahri Home";"RT001 RW001, Dusun Lita-Litae, Gareccing";"Kabupaten Sinjai, Sulawesi Selatan";"SULAWESI SELATAN";"";"Indonesia";"";"";"";"-5.2505947";"120.1585714";"https://maps.google.com/?cid=0x0:0x8f36b92239815fb7";""
"komplek housing";"Komplek perumahan";"Nadhif home";"P4V7+4X7, Songing, Kec. Sinjai Sel., Kabupaten Sinjai, Sulawesi Selatan";"Kabupaten Sinjai, Sulawesi Selatan";"SULAWESI SELATAN";"";"Indonesia";"";"";"";"-5.2572092";"120.1149074";"https://maps.google.com/?cid=0x0:0x6d2c831044a2c7e2";""
"komplek housing";"Pembangunan Perumahan";"Home Pasistan/Hj.Hafsah";"P5X5+79G, Jl. Rambutan, Gareccing, Kec. Sinjai Sel., Kabupaten Sinjai, Sulawesi Selatan 92661";"Jl. Rambutan, Gareccing, Kec. Sinjai Sel., Kabupaten Sinjai";"SULAWESI SELATAN";"92661";"Indonesia";"";"";"";"-5.2518056";"120.1579786";"https://maps.google.com/?cid=0x0:0x44d6e52c3facac59";""
"komplek housing";"Pembangunan Perumahan";"Rumah P. Isya";"Q525+6GQ, Alenangka, Kec. Sinjai Sel., Kabupaten Sinjai, Sulawesi Selatan 92661";"Alenangka, Kec. Sinjai Sel., Kabupaten Sinjai";"SULAWESI SELATAN";"92661";"Indonesia";"";"";"";"-5.2494128";"120.1588601";"https://maps.google.com/?cid=0x0:0xa4972bec3f89d376";""
"komplek housing";"Penginapan";"HOMEBASE P. MUHLIS FAMILY";"Q43V+79J, Jl. Keris Muda, Gareccing, Kec. Sinjai Sel., Kabupaten Sinjai, Sulawesi Selatan 92661";"Jl. Keris Muda, Gareccing, Kec. Sinjai Sel., Kabupaten Sinjai";"SULAWESI SELATAN";"92661";"Indonesia";"";"";"";"-5.2467945";"120.1433921";"https://maps.google.com/?cid=0x0:0x97a1b323f77ec75c";""
"komplek housing";"Komplek perumahan";"Wana Home";"Q6X4+JV4, Palae, Kec. Sinjai Sel., Kabupaten Sinjai, Sulawesi Selatan 92661";"Palae, Kec. Sinjai Sel., Kabupaten Sinjai";"SULAWESI SELATAN";"92661";"Indonesia";"";"";"";"-5.2009897";"120.2072113";"https://maps.google.com/?cid=0x0:0xfeccf12ad52e8dc8";""
"komplek housing";"Komplek perumahan";"Rumah Bahtiar Hasyim";"Q5VH+VGV, Talle, Kec. Sinjai Sel., Kabupaten Sinjai, Sulawesi Selatan 92661";"Talle, Kec. Sinjai Sel., Kabupaten Sinjai";"SULAWESI SELATAN";"92661";"Indonesia";"";"";"";"-5.205314";"120.179597";"https://maps.google.com/?cid=0x0:0x7aadb6f08f5dcb0b";""
"komplek housing";"Komplek perumahan";"Rumah Pak Massiara di Dusun Bilalang, Desa Puncak, Sinjai Selatan";"P4J6+294, Puncak, Kec. Sinjai Sel., Kabupaten Sinjai, Sulawesi Selatan 92661";"Puncak, Kec. Sinjai Sel., Kabupaten Sinjai";"SULAWESI SELATAN";"92661";"Indonesia";" 082195722669";"";"";"-5.2704483";"120.1101561";"https://maps.google.com/?cid=0x0:0x610a1764e413058f";""
"komplek housing";"komplek housing";"HOUSE FIKI IKKI";"R53R+GF8, Jl. Poros Bulukumba-Sinjai, Palae, Kec. Sinjai Sel., Kabupaten Sinjai, Sulawesi Selatan 92661";"Jl. Poros Bulukumba-Sinjai, Palae, Kec. Sinjai Sel., Kabupaten Sinjai";"SULAWESI SELATAN";"92661";"Indonesia";"";"";"";"-5.1971877";"120.1917876";"https://maps.google.com/?cid=0x0:0x6eb5b7f4a5a9f982";""
"komplek housing";"Komplek perumahan";"Canda House";"P5P4+3H5, Sangianseri, Kec. Sinjai Sel., Kabupaten Sinjai, Sulawesi Selatan 92661";"Sangianseri, Kec. Sinjai Sel., Kabupaten Sinjai";"SULAWESI SELATAN";"92661";"Indonesia";"";"";"";"-5.2648671";"120.156486";"https://maps.google.com/?cid=0x0:0x52c16ddf08aff23c";""
"komplek housing";"komplek housing";"Nadla";"Q594+Q2G, Gareccing, Kec. Sinjai Sel., Kabupaten Sinjai, Sulawesi Selatan 92661";"Gareccing, Kec. Sinjai Sel., Kabupaten Sinjai";"SULAWESI SELATAN";"92661";"Indonesia";"";"";"";"-5.230362";"120.155184";"https://maps.google.com/?cid=0x0:0x80d6d5649f8af99d";""
"komplek housing";"Pembangunan Perumahan";"Anna Home";"Q5GC+CQ2, Jl. Persatuan Raya, RT.001/RW.001, Dusun Taruncue, Alenangka, Sinjai Selatan, Sinjai Regency, South Sulawesi 92661";"Jl. Persatuan Raya, RT.001/RW.001, Dusun Taruncue, Alenangka, Sinjai Selatan, Sinjai Regency";"SULAWESI SELATAN";"92661";"Indonesia";"";"";"";"-5.2239834";"120.1718799";"https://maps.google.com/?cid=0x0:0xb85dfe8ac49fabf6";""
"komplek housing";"komplek housing";"Kec. Sinjai Sel.";"Kabupaten Sinjai, Sulawesi Selatan";"Kabupaten Sinjai, Sulawesi Selatan";"SULAWESI SELATAN";"";"Indonesia";"";"";"";"-5.253374";"120.1605632";"https://maps.google.com/?cid=0x0:0x113f9447a973d8aa";""
"komplek housing";"Pembangunan Perumahan";"Bali Home";"P5X4+X6W, Jl. Pacuan Kuda, Gareccing, Kec. Sinjai Sel., Kabupaten Sinjai, Sulawesi Selatan 92661";"Jl. Pacuan Kuda, Gareccing, Kec. Sinjai Sel., Kabupaten Sinjai";"SULAWESI SELATAN";"92661";"Indonesia";"";"";"";"-5.250014";"120.1555711";"https://maps.google.com/?cid=0x0:0xf363b31c7ea6af1c";""
"komplek housing";"Gedung Apartemen";"Ulafa home";"M4W4+3QP, Palangka, Kec. Sinjai Sel., Kabupaten Sinjai, Sulawesi Selatan 92661";"Palangka, Kec. Sinjai Sel., Kabupaten Sinjai";"SULAWESI SELATAN";"92661";"Indonesia";"";"";"";"-5.3047897";"120.1069594";"https://maps.google.com/?cid=0x0:0x8c168e0f66905821";""
"komplek housing";"Pembangunan Perumahan";"Andi Muhammad Thaha's Home";"Jl. Poros Bulukumba-Sinjai No.18, Alenangka, Kec. Sinjai Sel., Kabupaten Sinjai, Sulawesi Selatan 92661";"Alenangka, Kec. Sinjai Sel., Kabupaten Sinjai";"SULAWESI SELATAN";"92661";"Indonesia";"";"";"";"-5.2521932";"120.1602394";"https://maps.google.com/?cid=0x0:0x5535b956795c905b";""
"komplek housing";"Komplek perumahan";"Rumah Ishak Bikeru PLN";"P5R5+PHW, Sangianseri, Kec. Sinjai Sel., Kabupaten Sinjai, Sulawesi Selatan 92661";"Sangianseri, Kec. Sinjai Sel., Kabupaten Sinjai";"SULAWESI SELATAN";"92661";"Indonesia";"";"";"";"-5.2581348";"120.1589422";"https://maps.google.com/?cid=0x0:0x8b681d8b5981d1a8";""
"komplek housing";"Komplek perumahan";"Muliati's Home";"P5X4+3MG, Sangianseri, Kec. Sinjai Sel., Kabupaten Sinjai, Sulawesi Selatan 92661";"Sangianseri, Kec. Sinjai Sel., Kabupaten Sinjai";"SULAWESI SELATAN";"92661";"Indonesia";"";"";"";"-5.2523031";"120.156707";"https://maps.google.com/?cid=0x0:0x25d5ed15ca6bec26";""
"komplek housing";"Komplek perumahan";"Alham";"P44C+8VG, Palangka, Kec. Sinjai Sel., Kabupaten Sinjai, Sulawesi Selatan 92661";"Palangka, Kec. Sinjai Sel., Kabupaten Sinjai";"SULAWESI SELATAN";"92661";"Indonesia";"";"";"";"-5.2941911";"120.1221983";"https://maps.google.com/?cid=0x0:0x91f54004a25886fc";""
"komplek housing";"komplek housing";"Sulawesi Selatan 92652";"Kec. Sinjai Tengah, Kabupaten Sinjai, Sulawesi Selatan";"Kabupaten Sinjai, Sulawesi Selatan";"SULAWESI SELATAN";"";"Indonesia";"";"";"";"-5.2074113";"120.1242853";"https://maps.google.com/?cid=0x0:0x551d6d60fe4f8487";""
"komplek housing";"Pembangunan Perumahan";"Perumahan lempong pute";"R446+257, Saotengnga, Kec. Sinjai Tengah, Kabupaten Sinjai, Sulawesi Selatan 92652";"Saotengnga, Kec. Sinjai Tengah, Kabupaten Sinjai";"SULAWESI SELATAN";"92652";"Indonesia";"";"";"";"-5.1966032";"120.1102703";"https://maps.google.com/?cid=0x0:0x60350e3c652dedfc";""
"komplek housing";"Komplek perumahan";"Mochi house";"Q535+6MW, Dusun bulujampi, Gareccing, Kec. Sinjai Sel., Kabupaten Sinjai, Sulawesi Selatan 92661";"Dusun bulujampi, Gareccing, Kec. Sinjai Sel., Kabupaten Sinjai";"SULAWESI SELATAN";"92661";"Indonesia";"";"";"";"-5.2468907";"120.1592158";"https://maps.google.com/?cid=0x0:0xa7e4107d9b49e69b";""
"komplek housing";"Gedung Apartemen";"sweet home cgl";"Q44R+JX, Gareccing, Kec. Sinjai Sel., Kabupaten Sinjai, Sulawesi Selatan 92661";"Gareccing, Kec. Sinjai Sel., Kabupaten Sinjai";"SULAWESI SELATAN";"92661";"Indonesia";"";"";"";"-5.243429";"120.142445";"https://maps.google.com/?cid=0x0:0xc88f097c0069f4b2";""
"komplek housing";"Komplek perumahan";"Hasbi home";"Q574+QCF, Gareccing, Kec. Sinjai Sel., Kabupaten Sinjai, Sulawesi Selatan 92661";"Gareccing, Kec. Sinjai Sel., Kabupaten Sinjai";"SULAWESI SELATAN";"92661";"Indonesia";"";"";"";"-5.2355703";"120.1560436";"https://maps.google.com/?cid=0x0:0xa00bc61a3cc6bb86";""
"komplek housing";"Pembangunan Perumahan";"LBM";"Q4J6+WRX, Saotanre, Kec. Sinjai Tengah, Kabupaten Sinjai, Sulawesi Selatan 92652";"Saotanre, Kec. Sinjai Tengah, Kabupaten Sinjai";"SULAWESI SELATAN";"92652";"Indonesia";"";"";"";"-5.2176466";"120.1121112";"https://maps.google.com/?cid=0x0:0xa0adb2a147f429ae";""
"komplek housing";"komplek housing";"Evhy";"R5J6+WMG, Kanrung, Kec. Sinjai Tengah, Kabupaten Sinjai, Sulawesi Selatan";"Kabupaten Sinjai, Sulawesi Selatan";"SULAWESI SELATAN";"";"Indonesia";"";"";"";"-5.1676794";"120.1617183";"https://maps.google.com/?cid=0x0:0x4c15b3111dcde7de";""
"komplek housing";"Komplek perumahan";"Dhiyaul'haq Home";"R4W7+Q2G, Saohiring, Kec. Sinjai Tengah, Kabupaten Sinjai, Sulawesi Selatan 92652";"Saohiring, Kec. Sinjai Tengah, Kabupaten Sinjai";"SULAWESI SELATAN";"92652";"Indonesia";"";"";"";"-5.153112";"120.112029";"https://maps.google.com/?cid=0x0:0x672d566ae2498359";""
"komplek housing";"Perhimpunan Pengembang Perumahan";"Alif syah";"R4JJ+GJ7, Jl. Labolong Dg. Makketti, Saotengnga, Kec. Sinjai Tengah, Kabupaten Sinjai, Sulawesi Selatan 92652";"Jl. Labolong Dg. Makketti, Saotengnga, Kec. Sinjai Tengah, Kabupaten Sinjai";"SULAWESI SELATAN";"92652";"Indonesia";"";"";"";"-5.1687229";"120.1315445";"https://maps.google.com/?cid=0x0:0x469cde991bf94cca";""
"komplek housing";"Komplek perumahan";"Dabega";"Q3XP+9QM, Pattongko, Kec. Sinjai Tengah, Kabupaten Sinjai, Sulawesi Selatan";"Kabupaten Sinjai, Sulawesi Selatan";"SULAWESI SELATAN";"";"Indonesia";"";"";"";"-5.2015265";"120.0869318";"https://maps.google.com/?cid=0x0:0x965cb37df07c9f7b";""
"komplek housing";"Perhimpunan Pengembang Perumahan";"Lukman's house";"R445+JCR, Saotengnga, Kec. Sinjai Tengah, Kabupaten Sinjai, Sulawesi Selatan 92652";"Saotengnga, Kec. Sinjai Tengah, Kabupaten Sinjai";"SULAWESI SELATAN";"92652";"Indonesia";"";"";"";"-5.193384";"120.108507";"https://maps.google.com/?cid=0x0:0x9e981481f7267fa3";""
"komplek housing";"Komplek perumahan";"Diana";"V45P+3GP, Kanrung, Kec. Sinjai Tengah, Kabupaten Sinjai, Sulawesi Selatan 92654";"Kanrung, Kec. Sinjai Tengah, Kabupaten Sinjai";"SULAWESI SELATAN";"92654";"Indonesia";"";"";"";"-5.1424809";"120.1374553";"https://maps.google.com/?cid=0x0:0xe88ecca952e9c513";""
"komplek housing";"komplek housing";"Rumah";"Q3MG+8CX, Jl. Sultan Hasanuddin, Kompang, Kec. Sinjai Tengah, Kabupaten Sinjai, Sulawesi Selatan 92652";"Jl. Sultan Hasanuddin, Kompang, Kec. Sinjai Tengah, Kabupaten Sinjai";"SULAWESI SELATAN";"92652";"Indonesia";"";"";"";"-5.2165114";"120.0761978";"https://maps.google.com/?cid=0x0:0x15efd561343984ea";""
"komplek housing";"komplek housing";"Kec. Sinjai Tengah";"Kabupaten Sinjai, Sulawesi Selatan";"Kabupaten Sinjai, Sulawesi Selatan";"SULAWESI SELATAN";"";"Indonesia";"";"";"";"-5.191276";"120.1115157";"https://maps.google.com/?cid=0x0:0x4030bfbcaf77b90";""
"komplek housing";"Perhimpunan Pengembang Perumahan";"Rumah ishak";"Q3HG+GH2, Kompang, Kec. Sinjai Tengah, Kabupaten Sinjai, Sulawesi Selatan 92652";"Kompang, Kec. Sinjai Tengah, Kabupaten Sinjai";"SULAWESI SELATAN";"92652";"Indonesia";"";"";"";"-5.220945";"120.076422";"https://maps.google.com/?cid=0x0:0x6e9fa8b66a703018";""
"komplek housing";"Komplek perumahan";"Rumah Jamaluddin";"R4FF+GVW, Jl. Labolong Dg. Makketti, Saotengnga, Kec. Sinjai Tengah, Kabupaten Sinjai, Sulawesi Selatan 92652";"Jl. Labolong Dg. Makketti, Saotengnga, Kec. Sinjai Tengah, Kabupaten Sinjai";"SULAWESI SELATAN";"92652";"Indonesia";"";"";"";"-5.1761411";"120.1246973";"https://maps.google.com/?cid=0x0:0x82225c9a82a20582";""
"komplek housing";"Komplek perumahan";"Rumah kurir sigesit";"V429+QC6 Tengka, Saohiring, Kec. Sinjai Tengah, Kabupaten Sinjai, Sulawesi Selatan 92652";"Saohiring, Kec. Sinjai Tengah, Kabupaten Sinjai";"SULAWESI SELATAN";"92652";"Indonesia";"";"";"";"-5.1480946";"120.1185102";"https://maps.google.com/?cid=0x0:0x8f6a56a29372bc91";""
"komplek housing";"Toko";"Dusun Halimping";"Q4H9+CC2, Saotanre, Kec. Sinjai Tengah, Kabupaten Sinjai, Sulawesi Selatan 92652";"Saotanre, Kec. Sinjai Tengah, Kabupaten Sinjai";"SULAWESI SELATAN";"92652";"Indonesia";"";"";"";"-5.2214827";"120.1185102";"https://maps.google.com/?cid=0x0:0x8de8c43d3af4b016";""
"komplek housing";"Gedung Apartemen";"𝑴𝒖𝒔𝒕𝒂𝒇𝒂 𝒎𝒉𝒖𝒛𝒕";"R46P+RP3, Jl. Desa Baru, Baru, Kec. Sinjai Tengah, Kabupaten Sinjai, Sulawesi Selatan 92652";"Jl. Desa Baru, Baru, Kec. Sinjai Tengah, Kabupaten Sinjai";"SULAWESI SELATAN";"92652";"Indonesia";"";"";"";"-5.1879891";"120.1367976";"https://maps.google.com/?cid=0x0:0xe98f0fcb790c90bb";""
"komplek housing";"Komplek perumahan";"Fahmi's house";"R5V8+VGM, Samaenre, Kec. Sinjai Tengah, Kabupaten Sinjai, Sulawesi Selatan 92652";"Samaenre, Kec. Sinjai Tengah, Kabupaten Sinjai";"SULAWESI SELATAN";"92652";"Indonesia";"";"";"";"-5.1552757";"120.1662908";"https://maps.google.com/?cid=0x0:0x5f833d695737c957";""
"komplek housing";"komplek housing";"Rental Playstation";"R5RG+JQ8, Jl. Persatuan Raya, Samaenre, Kec. Sinjai Tengah, Kabupaten Sinjai, Sulawesi Selatan 92652";"Jl. Persatuan Raya, Samaenre, Kec. Sinjai Tengah, Kabupaten Sinjai";"SULAWESI SELATAN";"92652";"Indonesia";" 082328232071";"";"";"-5.1585398";"120.1772389";"https://maps.google.com/?cid=0x0:0x36dc4ca3604c1b38";""
"komplek housing";"Perhimpunan Pengembang Perumahan";"Rumahnya Gie";"R446+257, Saotengnga, Kec. Sinjai Tengah, Kabupaten Sinjai, Sulawesi Selatan 92652";"Saotengnga, Kec. Sinjai Tengah, Kabupaten Sinjai";"SULAWESI SELATAN";"92652";"Indonesia";"";"";"";"-5.1963173";"120.1099174";"https://maps.google.com/?cid=0x0:0x66e7cca2b0e74241";""
"komplek housing";"Komplek perumahan";"Rumah Tua";"R4GG+9XR, Saotengnga, Kec. Sinjai Tengah, Kabupaten Sinjai, Sulawesi Selatan 92652";"Saotengnga, Kec. Sinjai Tengah, Kabupaten Sinjai";"SULAWESI SELATAN";"92652";"Indonesia";"";"";"";"-5.1740154";"120.1273958";"https://maps.google.com/?cid=0x0:0x3ae05985b0be9426";""
"komplek housing";"Komplek perumahan";"Tempat nongkrong";"Q3QH+HJF, Kompang, Kec. Sinjai Tengah, Kabupaten Sinjai, Sulawesi Selatan 92652";"Kompang, Kec. Sinjai Tengah, Kabupaten Sinjai";"SULAWESI SELATAN";"92652";"Indonesia";"";"";"";"-5.211089";"120.0790934";"https://maps.google.com/?cid=0x0:0xf50172a4667c9e76";""
"komplek housing";"komplek housing";"Fani hime";"R465+833, Saotengnga, Kec. Sinjai Tengah, Kabupaten Sinjai, Sulawesi Selatan 92652";"Saotengnga, Kec. Sinjai Tengah, Kabupaten Sinjai";"SULAWESI SELATAN";"92652";"Indonesia";"";"";"";"-5.189187";"120.107163";"https://maps.google.com/?cid=0x0:0x149d3fa4161ef1d";""
"komplek housing";"Komplek perumahan";"Home fawwas";"Q3VR+M75, Pattongko, Kec. Sinjai Tengah, Kabupaten Sinjai, Sulawesi Selatan 92652";"Pattongko, Kec. Sinjai Tengah, Kabupaten Sinjai";"SULAWESI SELATAN";"92652";"Indonesia";"";"";"";"-5.2054863";"120.0912785";"https://maps.google.com/?cid=0x0:0x8d856a0ac299d8b4";""
"komplek housing";"Komplek perumahan";"Sultan";"R4RF+QHR, Saohiring, Kec. Sinjai Tengah, Kabupaten Sinjai, Sulawesi Selatan 92652";"Saohiring, Kec. Sinjai Tengah, Kabupaten Sinjai";"SULAWESI SELATAN";"92652";"Indonesia";"";"";"";"-5.1580143";"120.1238843";"https://maps.google.com/?cid=0x0:0x84f8c0a0a245eaa6";""
"komplek housing";"Komplek perumahan";"Rusmin Home";"Jl. Sultan Hasanuddin No.17, RW.8, Saotengnga, Kec. Sinjai Tengah, Kabupaten Sinjai, Sulawesi Selatan 92652";"RW.8, Saotengnga, Kec. Sinjai Tengah, Kabupaten Sinjai";"SULAWESI SELATAN";"92652";"Indonesia";"";"";"";"-5.1801429";"120.1239904";"https://maps.google.com/?cid=0x0:0x56139c4dd8540dd8";""
"komplek housing";"Komplek perumahan";"RUMAH KU";"R3JR+9VX, Bonto, Kec. Sinjai Tengah, Kabupaten Sinjai, Sulawesi Selatan 92652";"Bonto, Kec. Sinjai Tengah, Kabupaten Sinjai";"SULAWESI SELATAN";"92652";"Indonesia";"";"";"";"-5.1690248";"120.092237";"https://maps.google.com/?cid=0x0:0xea1c68dd4eb549d6";""
"komplek housing";"komplek housing";"Sulawesi Selatan 92671";"Kec. Sinjai Tim., Kabupaten Sinjai, Sulawesi Selatan";"Kabupaten Sinjai, Sulawesi Selatan";"SULAWESI SELATAN";"";"Indonesia";"";"";"";"-5.1658988";"120.2166519";"https://maps.google.com/?cid=0x0:0x2c629404880b1ad6";""
"komplek housing";"Komplek perumahan";"Home";"V68F+PR, Kaloling, Kec. Sinjai Tim., Kabupaten Sinjai, Sulawesi Selatan";"Kabupaten Sinjai, Sulawesi Selatan";"SULAWESI SELATAN";"";"Indonesia";"";"";"";"-5.1331752";"120.2245293";"https://maps.google.com/?cid=0x0:0x1e93ee3dcf0494d8";""
"komplek housing";"Pembangunan Perumahan";"Rumah Bpk Muhammad Jusli Pademmui";"R6QG+HQ8, Salohe, Kec. Sinjai Tim., Kabupaten Sinjai, Sulawesi Selatan 92671";"Salohe, Kec. Sinjai Tim., Kabupaten Sinjai";"SULAWESI SELATAN";"92671";"Indonesia";"";"";"";"-5.1610824";"120.2269379";"https://maps.google.com/?cid=0x0:0xfcc0aeb7e652f0b2";""
"komplek housing";"Komplek perumahan";"Bunging'e";"V757+8P8, Semataring, Kec. Sinjai Tim., Kabupaten Sinjai, Sulawesi Selatan 92671";"Semataring, Kec. Sinjai Tim., Kabupaten Sinjai";"SULAWESI SELATAN";"92671";"Indonesia";"";"";"";"-5.1417195";"120.2643375";"https://maps.google.com/?cid=0x0:0x4ddbcca66f4044b6";""
"komplek housing";"Kompleks Apartemen";"My Home";"R7HG+V96, Panaikang, Kec. Sinjai Tim., Kabupaten Sinjai, Sulawesi Selatan 92671";"Panaikang, Kec. Sinjai Tim., Kabupaten Sinjai";"SULAWESI SELATAN";"92671";"Indonesia";"";"";"";"-5.1693622";"120.2760224";"https://maps.google.com/?cid=0x0:0xb5e5f4293855eebd";""
"komplek housing";"Komplek perumahan";"Rumah ihwal";"R7J4+MR3, Tongke-Tongke, Kec. Sinjai Tim., Kabupaten Sinjai, Sulawesi Selatan";"Kabupaten Sinjai, Sulawesi Selatan";"SULAWESI SELATAN";"";"Indonesia";"";"";"";"-5.1683674";"120.2570421";"https://maps.google.com/?cid=0x0:0x96329f697b5ff3";""
"komplek housing";"Komplek perumahan";"Rumah Muh Fajar";"R6W4+VM5, Kampala, Kec. Sinjai Tim., Kabupaten Sinjai, Sulawesi Selatan";"Kabupaten Sinjai, Sulawesi Selatan";"SULAWESI SELATAN";"";"Indonesia";"";"";"";"-5.1528582";"120.2067348";"https://maps.google.com/?cid=0x0:0x480547b2a96da0b2";""
"komplek housing";"komplek housing";"Masale";"R772+WW, Panaikang, Kec. Sinjai Tim., Kabupaten Sinjai, Sulawesi Selatan";"Kabupaten Sinjai, Sulawesi Selatan";"SULAWESI SELATAN";"";"Indonesia";"";"";"";"-5.185242";"120.252359";"https://maps.google.com/?cid=0x0:0x7956aff1951ed29e";""
"komplek housing";"Perhimpunan Pengembang Perumahan";"Rumah ikhwanul";"Biroro, Kec. Sinjai Tim., Kabupaten Sinjai, Sulawesi Selatan";"Kabupaten Sinjai, Sulawesi Selatan";"SULAWESI SELATAN";"";"Indonesia";"";"";"";"-5.218686";"120.2534613";"https://maps.google.com/?cid=0x0:0xf1ca2792ada4bec8";""
"komplek housing";"Komplek perumahan";"AL_MUDAIS";"Q7V4+QWH, Pattalassang, Kec. Sinjai Tim., Kabupaten Sinjai, Sulawesi Selatan 92671";"Pattalassang, Kec. Sinjai Tim., Kabupaten Sinjai";"SULAWESI SELATAN";"92671";"Indonesia";"";"";"";"-5.2055684";"120.2573689";"https://maps.google.com/?cid=0x0:0xc0e24d77741aa450";""
"komplek housing";"Pembangunan Perumahan";"Nurhasanah";"Q7H3+7RC, Biroro, Kec. Sinjai Tim., Kabupaten Sinjai, Sulawesi Selatan 92671";"Biroro, Kec. Sinjai Tim., Kabupaten Sinjai";"SULAWESI SELATAN";"92671";"Indonesia";"";"";"";"-5.2221624";"120.2539947";"https://maps.google.com/?cid=0x0:0x428245ebb3962f49";""
"komplek housing";"Komplek perumahan";"Anwar";"R7VF+59V, Tongke-Tongke, Kec. Sinjai Tim., Kabupaten Sinjai, Sulawesi Selatan";"Kabupaten Sinjai, Sulawesi Selatan";"SULAWESI SELATAN";"";"Indonesia";"";"";"";"-5.1570137";"120.2734175";"https://maps.google.com/?cid=0x0:0xcada307faf51cc2e";""
"komplek housing";"Pembangunan Perumahan";"Kaloling";"R6QV+C6, Saukang, Kec. Sinjai Tim., Kabupaten Sinjai, Sulawesi Selatan";"Kabupaten Sinjai, Sulawesi Selatan";"SULAWESI SELATAN";"";"Indonesia";"";"";"";"-5.1614492";"120.243055";"https://maps.google.com/?cid=0x0:0xe6c47e480046d6d0";""
"komplek housing";"Pembangunan Perumahan";"My Home";"Q7X5+9CM, Pattalassang, Kec. Sinjai Tim., Kabupaten Sinjai, Sulawesi Selatan 92671";"Pattalassang, Kec. Sinjai Tim., Kabupaten Sinjai";"SULAWESI SELATAN";"92671";"Indonesia";"";"";"";"-5.201537";"120.2585579";"https://maps.google.com/?cid=0x0:0x6c87706065e5756c";""
"komplek housing";"Pembangunan Perumahan";"HOME "MOHAMMAD YAMIN SAING"";"R7VF+5FH, Tongke-Tongke, Kec. Sinjai Tim., Kabupaten Sinjai, Sulawesi Selatan";"Kabupaten Sinjai, Sulawesi Selatan";"SULAWESI SELATAN";"";"Indonesia";"";"";"";"-5.1573838";"120.2730565";"https://maps.google.com/?cid=0x0:0x231a7743f6bab4f8";""
"komplek housing";"Komplek perumahan";"Pondok 57";"BTP IV BLOK C NO 9SaukangKec, Kec. Sinjai Tim., Kabupaten Sinjai, Sulawesi Selatan 92615";"Kec. Sinjai Tim., Kabupaten Sinjai";"SULAWESI SELATAN";"92615";"Indonesia";"";"";"";"-5.1392483";"120.2432858";"https://maps.google.com/?cid=0x0:0xce2445a906b610d3";""
"komplek housing";"Komplek perumahan";"Sektor lorong";"V66V+62V Mangottong, Kaloling, Kec. Sinjai Tim., Kabupaten Sinjai, Sulawesi Selatan";"Kabupaten Sinjai, Sulawesi Selatan";"SULAWESI SELATAN";"";"Indonesia";"";"";"";"-5.1393942";"120.2425563";"https://maps.google.com/?cid=0x0:0x92f399e6a7e5223f";""
"komplek housing";"Pembangunan Perumahan";"Home, Syafa Anindya Putri";"V63R+82H, Kaloling, Kec. Sinjai Tim., Kabupaten Sinjai, Sulawesi Selatan";"Kabupaten Sinjai, Sulawesi Selatan";"SULAWESI SELATAN";"";"Indonesia";"";"";"";"-5.1466849";"120.2401234";"https://maps.google.com/?cid=0x0:0x839a073930e2fbc3";""
"komplek housing";"Komplek perumahan";"Zaqia";"V64F+W85, Kaloling, Kec. Sinjai Tim., Kabupaten Sinjai, Sulawesi Selatan";"Kabupaten Sinjai, Sulawesi Selatan";"SULAWESI SELATAN";"";"Indonesia";"";"";"";"-5.1427336";"120.2233689";"https://maps.google.com/?cid=0x0:0x4cc8a5a9db703363";""
"komplek housing";"Komplek perumahan";"Rumah candra";"R6QR+99, Saukang, Kec. Sinjai Tim., Kabupaten Sinjai, Sulawesi Selatan 92671";"Saukang, Kec. Sinjai Tim., Kabupaten Sinjai";"SULAWESI SELATAN";"92671";"Indonesia";"";"";"";"-5.1613814";"120.240818";"https://maps.google.com/?cid=0x0:0x518d87f70e9fa1da";""
"komplek housing";"komplek housing";"Kec. Sinjai Tim.";"Kabupaten Sinjai, Sulawesi Selatan";"Kabupaten Sinjai, Sulawesi Selatan";"SULAWESI SELATAN";"";"Indonesia";"";"";"";"-5.1509625";"120.2195069";"https://maps.google.com/?cid=0x0:0x218edc6e8e7703fb";""
"komplek housing";"Komplek perumahan";"Rumah Kepala Dusun Bakae";"V62Q+5X3, Kaloling, Kec. Sinjai Tim., Kabupaten Sinjai, Sulawesi Selatan 92671";"Kaloling, Kec. Sinjai Tim., Kabupaten Sinjai";"SULAWESI SELATAN";"92671";"Indonesia";"";"";"";"-5.1495677";"120.2407359";"https://maps.google.com/?cid=0x0:0xf35fd3bbaab71edd";""
"komplek housing";"komplek housing";"lorong indaa";"Q7W5+96M, Pattalassang, Kec. Sinjai Tim., Kabupaten Sinjai, Sulawesi Selatan 92671";"Pattalassang, Kec. Sinjai Tim., Kabupaten Sinjai";"SULAWESI SELATAN";"92671";"Indonesia";"";"";"";"-5.204029";"120.2580401";"https://maps.google.com/?cid=0x0:0x475e72cbf423b972";""
"komplek housing";"Perhimpunan Pengembang Perumahan";"Muh. Fadli Fani";"V62Q+F6G, Bakae, Saukang, Kec. Sinjai Tim., Kabupaten Sinjai, Sulawesi Selatan 92671";"Bakae, Saukang, Kec. Sinjai Tim., Kabupaten Sinjai";"SULAWESI SELATAN";"92671";"Indonesia";"";"";"";"-5.1491222";"120.2380828";"https://maps.google.com/?cid=0x0:0xf7af50da73ddaca0";""
"komplek housing";"Komplek perumahan";"Ruslang Home";"R6PV+R9J, Saukang, Kec. Sinjai Tim., Kabupaten Sinjai, Sulawesi Selatan 92671";"Saukang, Kec. Sinjai Tim., Kabupaten Sinjai";"SULAWESI SELATAN";"92671";"Indonesia";"";"";"";"-5.1629017";"120.2433869";"https://maps.google.com/?cid=0x0:0x216e307058d77b34";""
"komplek housing";"Komplek perumahan";"Bontopale";"V744+42X, Unnamed Road, Semataring, Kec. Sinjai Tim., Kabupaten Sinjai, Sulawesi Selatan 92671";"Unnamed Road, Semataring, Kec. Sinjai Tim., Kabupaten Sinjai";"SULAWESI SELATAN";"92671";"Indonesia";"";"";"";"-5.1446327";"120.2551193";"https://maps.google.com/?cid=0x0:0xc2806e0ad43f3fe2";""
"komplek housing";"Komplek perumahan";"Dusun Pajalele Desa Patalassang";"Q7W4+7GF, Pajalele, Pattalassang, Kec. Sinjai Tim., Kabupaten Sinjai, Sulawesi Selatan 92671";"Pajalele, Pattalassang, Kec. Sinjai Tim., Kabupaten Sinjai";"SULAWESI SELATAN";"92671";"Indonesia";"";"";"";"-5.2043159";"120.2562872";"https://maps.google.com/?cid=0x0:0x625f0d3efff58c91";""
"komplek housing";"Komplek perumahan";"Rumah A. Chairil Anwar";"V744+42X, Semataring, Kec. Sinjai Tim., Kabupaten Sinjai, Sulawesi Selatan 92671";"Semataring, Kec. Sinjai Tim., Kabupaten Sinjai";"SULAWESI SELATAN";"92671";"Indonesia";"";"";"";"-5.1446741";"120.2550736";"https://maps.google.com/?cid=0x0:0x5c65a76b33ca4825";""
"komplek housing";"Kompleks Apartemen";"Rumah H.Caco";"R6QH+RP8, Salohe, Kec. Sinjai Tim., Kabupaten Sinjai, Sulawesi Selatan 92671";"Salohe, Kec. Sinjai Tim., Kabupaten Sinjai";"SULAWESI SELATAN";"92671";"Indonesia";"";"";"";"-5.1604682";"120.2293318";"https://maps.google.com/?cid=0x0:0x80b3f77a30665243";""
"komplek housing";"komplek housing";"Sulawesi Selatan 92611";"Kaloling, Kec. Sinjai Tim., Kabupaten Sinjai, Sulawesi Selatan";"Kabupaten Sinjai, Sulawesi Selatan";"SULAWESI SELATAN";"";"Indonesia";"";"";"";"-5.1399597";"120.2310784";"https://maps.google.com/?cid=0x0:0x9d927f477d332ffb";""
"komplek housing";"Komplek perumahan";"Home";"V68F+PR, Kaloling, Kec. Sinjai Tim., Kabupaten Sinjai, Sulawesi Selatan";"Kabupaten Sinjai, Sulawesi Selatan";"SULAWESI SELATAN";"";"Indonesia";"";"";"";"-5.1331752";"120.2245293";"https://maps.google.com/?cid=0x0:0x1e93ee3dcf0494d8";""
"komplek housing";"Komplek perumahan";"Rumah Tina";"Jl. Ranggong Dg. Romo No.75, Biringere, Kec. Sinjai Utara, Kabupaten Sinjai, Sulawesi Selatan 92615";"Biringere, Kec. Sinjai Utara, Kabupaten Sinjai";"SULAWESI SELATAN";"92615";"Indonesia";"";"";"";"-5.1297597";"120.2268713";"https://maps.google.com/?cid=0x0:0xeb698b8e66cb767a";""
"komplek housing";"komplek housing";"Rumah Pak Rafi";"V66R+4XX, Kaloling, Kec. Sinjai Tim., Kabupaten Sinjai, Sulawesi Selatan 92611";"Kaloling, Kec. Sinjai Tim., Kabupaten Sinjai";"SULAWESI SELATAN";"92611";"Indonesia";"";"";"";"-5.1395022";"120.2421148";"https://maps.google.com/?cid=0x0:0xf7533957b7575b64";""
"komplek housing";"Komplek perumahan";"IMMONG";"V629+3C7, Bongki Lengkese, Kec. Sinjai Tim., Kabupaten Sinjai, Sulawesi Selatan 92671";"Bongki Lengkese, Kec. Sinjai Tim., Kabupaten Sinjai";"SULAWESI SELATAN";"92671";"Indonesia";"";"";"";"-5.1501675";"120.2180232";"https://maps.google.com/?cid=0x0:0x27974ed091c62ae8";""
"komplek housing";"Komplek perumahan";"Pondok 57";"BTP IV BLOK C NO 9SaukangKec, Kec. Sinjai Tim., Kabupaten Sinjai, Sulawesi Selatan 92615";"Kec. Sinjai Tim., Kabupaten Sinjai";"SULAWESI SELATAN";"92615";"Indonesia";"";"";"";"-5.1392483";"120.2432858";"https://maps.google.com/?cid=0x0:0xce2445a906b610d3";""
"komplek housing";"Komplek perumahan";"Rumah Ekky";"V66R+WFP, Biringere, Kec. Sinjai Utara, Kabupaten Sinjai, Sulawesi Selatan 92611";"Biringere, Kec. Sinjai Utara, Kabupaten Sinjai";"SULAWESI SELATAN";"92611";"Indonesia";"";"";"";"-5.1376749";"120.2412126";"https://maps.google.com/?cid=0x0:0xc48233e907c92803";""
"komplek housing";"Balai masyarakat";"Jalan persatuan raya";"Jl. Persatuan Raya No.279, Biringere, Kec. Sinjai Utara, Kabupaten Sinjai, Sulawesi Selatan 92615";"Biringere, Kec. Sinjai Utara, Kabupaten Sinjai";"SULAWESI SELATAN";"92615";"Indonesia";"";"";"";"-5.1365848";"120.2466622";"https://maps.google.com/?cid=0x0:0x1d39ee86ba437bc2";""
"komplek housing";"Masjid";"Depan masjid KhaeruShalihin borong uttie desa Saukang kec Sinjai timur";"V64P+3CC, Kaloling, Kec. Sinjai Tim., Kabupaten Sinjai, Sulawesi Selatan 92611";"Kaloling, Kec. Sinjai Tim., Kabupaten Sinjai";"SULAWESI SELATAN";"92611";"Indonesia";"";"";"";"-5.1448021";"120.2360172";"https://maps.google.com/?cid=0x0:0x5df2e9dc3977a1a2";""
"komplek housing";"Pembangunan Perumahan";"Home, Syafa Anindya Putri";"V63R+82H, Kaloling, Kec. Sinjai Tim., Kabupaten Sinjai, Sulawesi Selatan";"Kabupaten Sinjai, Sulawesi Selatan";"SULAWESI SELATAN";"";"Indonesia";"";"";"";"-5.1466849";"120.2401234";"https://maps.google.com/?cid=0x0:0x839a073930e2fbc3";""
"komplek housing";"Komplek perumahan";"Rumah Muh Fajar";"R6W4+VM5, Kampala, Kec. Sinjai Tim., Kabupaten Sinjai, Sulawesi Selatan";"Kabupaten Sinjai, Sulawesi Selatan";"SULAWESI SELATAN";"";"Indonesia";"";"";"";"-5.1528582";"120.2067348";"https://maps.google.com/?cid=0x0:0x480547b2a96da0b2";""
"komplek housing";"komplek housing";"Rumah pink Immha";"V69Q+J66, Jl. Ranggong Dg. Romo, Biringere, Kec. Sinjai Utara, Kabupaten Sinjai, Sulawesi Selatan";"Kabupaten Sinjai, Sulawesi Selatan";"SULAWESI SELATAN";"";"Indonesia";"";"";"";"-5.1309737";"120.2380053";"https://maps.google.com/?cid=0x0:0xced96368ebc4ef58";""
"komplek housing";"Komplek perumahan";"Rumah Daya";"V6FC+FJ, Alehanuae, Kec. Sinjai Utara, Kabupaten Sinjai, Sulawesi Selatan 92615";"Alehanuae, Kec. Sinjai Utara, Kabupaten Sinjai";"SULAWESI SELATAN";"92615";"Indonesia";"";"";"";"-5.1262287";"120.2213033";"https://maps.google.com/?cid=0x0:0x5bc9306dbbd7f341";""
"komplek housing";"Komplek perumahan";"Rumah Kepala Lingkungan";"V6H9+4R3, Alehanuae, Kec. Sinjai Utara, Kabupaten Sinjai, Sulawesi Selatan";"Kabupaten Sinjai, Sulawesi Selatan";"SULAWESI SELATAN";"";"Indonesia";"";"";"";"-5.1222489";"120.2195374";"https://maps.google.com/?cid=0x0:0x9e5af47db0cad741";""
"komplek housing";"Komplek perumahan";"Rumah kk yaya";"V6HF+P2J, Alehanuae, Kec. Sinjai Utara, Kabupaten Sinjai, Sulawesi Selatan 92615";"Alehanuae, Kec. Sinjai Utara, Kabupaten Sinjai";"SULAWESI SELATAN";"92615";"Indonesia";"";"";"";"-5.120684";"120.2226336";"https://maps.google.com/?cid=0x0:0xb9a95632de53d16a";""
"komplek housing";"Komplek perumahan";"Rumah Kepala Dusun Bakae";"V62Q+5X3, Kaloling, Kec. Sinjai Tim., Kabupaten Sinjai, Sulawesi Selatan 92671";"Kaloling, Kec. Sinjai Tim., Kabupaten Sinjai";"SULAWESI SELATAN";"92671";"Indonesia";"";"";"";"-5.1495677";"120.2407359";"https://maps.google.com/?cid=0x0:0xf35fd3bbaab71edd";""
"komplek housing";"Komplek perumahan";"Rumah Andi Achmad Chaidir";"V66V+784, Saukang, Kec. Sinjai Tim., Kabupaten Sinjai, Sulawesi Selatan 92615";"Saukang, Kec. Sinjai Tim., Kabupaten Sinjai";"SULAWESI SELATAN";"92615";"Indonesia";"";"";"";"-5.139467";"120.243334";"https://maps.google.com/?cid=0x0:0x1a9186937708cdb7";""
"komplek housing";"Komplek perumahan";"Rumah kurniawan";"V68H+HMQ, Kaloling, Kec. Sinjai Tim., Kabupaten Sinjai, Sulawesi Selatan 92611";"Kaloling, Kec. Sinjai Tim., Kabupaten Sinjai";"SULAWESI SELATAN";"92611";"Indonesia";"";"";"";"-5.1333306";"120.2297382";"https://maps.google.com/?cid=0x0:0xf437fc8bf99072c3";""
"komplek housing";"Perumahan";"BPS Residence Cluster D'Jeffa";"Jl. Bulu Manyurung, Bongki, Kec. Sinjai Utara, Kabupaten Sinjai, Sulawesi Selatan 92615";"Bongki, Kec. Sinjai Utara, Kabupaten Sinjai";"SULAWESI SELATAN";"92615";"Indonesia";"";"";"";"-5.1166464";"120.244613";"https://maps.google.com/?cid=0x0:0x43b2249440b52318";""
"komplek housing";"komplek housing";"Kec. Sinjai Utara";"Kabupaten Sinjai, Sulawesi Selatan";"Kabupaten Sinjai, Sulawesi Selatan";"SULAWESI SELATAN";"";"Indonesia";"";"";"";"-5.1181262";"120.2565808";"https://maps.google.com/?cid=0x0:0x26b49f7435404492";""
"komplek housing";"Pembangunan Perumahan";"English Students Association (ESA) UIAD";"V69V+62X, Biringere, Kec. Sinjai Utara, Kabupaten Sinjai, Sulawesi Selatan";"Kabupaten Sinjai, Sulawesi Selatan";"SULAWESI SELATAN";"";"Indonesia";"";"";"";"-5.1318849";"120.2426105";"https://maps.google.com/?cid=0x0:0xd94ee10e41f24184";""
"komplek housing";"Komplek perumahan";"Rumah P. Uma";"Jl. Bhayangkara No.10, Biringere, Kec. Sinjai Utara, Kabupaten Sinjai, Sulawesi Selatan 92611";"Biringere, Kec. Sinjai Utara, Kabupaten Sinjai";"SULAWESI SELATAN";"92611";"Indonesia";"";"";"";"-5.1187295";"120.2442328";"https://maps.google.com/?cid=0x0:0x921b34eb8e8f78d5";""
"komplek housing";"Pembangunan Perumahan";"Nizam Arbani";"Jl. Jenderal Sudirman, Biringere, Kec. Sinjai Utara, Kabupaten Sinjai, Sulawesi Selatan 92611";"Biringere, Kec. Sinjai Utara, Kabupaten Sinjai";"SULAWESI SELATAN";"92611";"Indonesia";"";"";"";"-5.1290863";"120.249397";"https://maps.google.com/?cid=0x0:0x704447a4f31a9be9";""
"komplek housing";"Pembangunan Perumahan";"Media Rakyat";"V6GX+37H, BTN GOJENG PERMAI, Biringere, Kec. Sinjai Utara, Kabupaten Sinjai, Sulawesi Selatan 92611";"BTN GOJENG PERMAI, Biringere, Kec. Sinjai Utara, Kabupaten Sinjai";"SULAWESI SELATAN";"92611";"Indonesia";"";"";"";"-5.1248118";"120.2482333";"https://maps.google.com/?cid=0x0:0x4b127f7cdbce172e";""
"komplek housing";"Rumah Kaca";"BTN TAMARA 4 BLOK A5C";"V65V+V5M, Jl. A Abd Latief, Semataring, Kec. Sinjai Tim., Kabupaten Sinjai, Sulawesi Selatan 92611";"Jl. A Abd Latief, Semataring, Kec. Sinjai Tim., Kabupaten Sinjai";"SULAWESI SELATAN";"92611";"Indonesia";"";"";"";"-5.140303";"120.2429129";"https://maps.google.com/?cid=0x0:0x2c0ea07e6124b02c";""
"komplek housing";"komplek housing";"Sulawesi Selatan 92612";"Balangnipa, Kec. Sinjai Utara, Kabupaten Sinjai, Sulawesi Selatan";"Kabupaten Sinjai, Sulawesi Selatan";"SULAWESI SELATAN";"";"Indonesia";"";"";"";"-5.117063";"120.2616278";"https://maps.google.com/?cid=0x0:0xf908d867d76b880c";""
"komplek housing";"Perumahan";"BPS Residence Cluster D'Jeffa";"Jl. Bulu Manyurung, Bongki, Kec. Sinjai Utara, Kabupaten Sinjai, Sulawesi Selatan 92615";"Bongki, Kec. Sinjai Utara, Kabupaten Sinjai";"SULAWESI SELATAN";"92615";"Indonesia";"";"";"";"-5.1166464";"120.244613";"https://maps.google.com/?cid=0x0:0x43b2249440b52318";""
"komplek housing";"Pembangunan Perumahan";"Aulia wster";"V7M6+8HG, Jl. Sungai Tangka, Balangnipa, Kec. Sinjai Utara, Kabupaten Sinjai, Sulawesi Selatan";"Kabupaten Sinjai, Sulawesi Selatan";"SULAWESI SELATAN";"";"Indonesia";"";"";"";"-5.1166936";"120.2614581";"https://maps.google.com/?cid=0x0:0xd4b03176a386c9e0";""
"komplek housing";"Komplek perumahan";"BTN BUMI PERMATA SINJAI";"V6JV+WJ3, Biringere, Kec. Sinjai Utara, Kabupaten Sinjai, Sulawesi Selatan 92615";"Biringere, Kec. Sinjai Utara, Kabupaten Sinjai";"SULAWESI SELATAN";"92615";"Indonesia";"";"";"";"-5.1177374";"120.2440411";"https://maps.google.com/?cid=0x0:0xf333c1bfb9319c60";""
"komplek housing";"Hostel";"Kos inaya";"V7M6+8HG, Jl. Sungai Tangka, Balangnipa, Kec. Sinjai Utara, Kabupaten Sinjai, Sulawesi Selatan";"Kabupaten Sinjai, Sulawesi Selatan";"SULAWESI SELATAN";"";"Indonesia";"";"";"";"-5.1166936";"120.2614581";"https://maps.google.com/?cid=0x0:0x58de15a275ac1ea8";""
"komplek housing";"Perumahan";"Bumi Tamara Permai";"V6CX+544, Biringere, Kec. Sinjai Utara, Kabupaten Sinjai, Sulawesi Selatan 92615";"Biringere, Kec. Sinjai Utara, Kabupaten Sinjai";"SULAWESI SELATAN";"92615";"Indonesia";"";"";"";"-5.1296106";"120.2478313";"https://maps.google.com/?cid=0x0:0xec9dec1fa6203276";""
"komplek housing";"Komplek perumahan";"PUNGGAWA RESIDENCE";"Jl. Petta Ponggawae, Bongki, Kec. Sinjai Utara, Kabupaten Sinjai, Sulawesi Selatan 92615";"Bongki, Kec. Sinjai Utara, Kabupaten Sinjai";"SULAWESI SELATAN";"92615";"Indonesia";" 085299135095";"";"";"-5.1031816";"120.2515262";"https://maps.google.com/?cid=0x0:0x32919e2455bf2e5c";""
"komplek housing";"komplek housing";"Hotel Grand Rofina";"Jl. Jenderal Sudirman No.51, Biringere, Kec. Sinjai Utara, Kabupaten Sinjai, Sulawesi Selatan 92613";"Biringere, Kec. Sinjai Utara, Kabupaten Sinjai";"SULAWESI SELATAN";"92613";"Indonesia";" 048221847";"";"";"-5.1300082";"120.2496123";"https://maps.google.com/?cid=0x0:0x1c870c545f50a2f7";""
"komplek housing";"Komplek perumahan";"Bumi Tirta Nusantara Sinjai";"V6MG+79W, Alehanuae, Kec. Sinjai Utara, Kabupaten Sinjai, Sulawesi Selatan";"Kabupaten Sinjai, Sulawesi Selatan";"SULAWESI SELATAN";"";"Indonesia";"";"";"";"-5.1167672";"120.2259648";"https://maps.google.com/?cid=0x0:0x837e617d4212ad26";""
"komplek housing";"Komplek perumahan";"Home";"V68F+PR, Kaloling, Kec. Sinjai Tim., Kabupaten Sinjai, Sulawesi Selatan";"Kabupaten Sinjai, Sulawesi Selatan";"SULAWESI SELATAN";"";"Indonesia";"";"";"";"-5.1331752";"120.2245293";"https://maps.google.com/?cid=0x0:0x1e93ee3dcf0494d8";""
"komplek housing";"komplek housing";"Sulawesi Selatan 92613";"Kec. Sinjai Utara, Kabupaten Sinjai, Sulawesi Selatan";"Kabupaten Sinjai, Sulawesi Selatan";"SULAWESI SELATAN";"";"Indonesia";"";"";"";"-5.1158318";"120.2108809";"https://maps.google.com/?cid=0x0:0xd044fc2920b3ac13";""
"komplek housing";"Komplek perumahan";"Rumah Fadli";"V6W7+GFV, Lamatti Rilau, Kec. Sinjai Utara, Kabupaten Sinjai, Sulawesi Selatan 92613";"Lamatti Rilau, Kec. Sinjai Utara, Kabupaten Sinjai";"SULAWESI SELATAN";"92613";"Indonesia";" 085340257536";"";"";"-5.103422";"120.213745";"https://maps.google.com/?cid=0x0:0xb8986c4d12c7ddb2";""
"komplek housing";"Komplek perumahan";"Rumah Kepala Lingkungan";"V6H9+4R3, Alehanuae, Kec. Sinjai Utara, Kabupaten Sinjai, Sulawesi Selatan";"Kabupaten Sinjai, Sulawesi Selatan";"SULAWESI SELATAN";"";"Indonesia";"";"";"";"-5.1222489";"120.2195374";"https://maps.google.com/?cid=0x0:0x9e5af47db0cad741";""
"komplek housing";"Komplek perumahan";"Sunardi Home";"V6W9+GQ6, Lamatti Rilau, Kec. Sinjai Utara, Kabupaten Sinjai, Sulawesi Selatan 92613";"Lamatti Rilau, Kec. Sinjai Utara, Kabupaten Sinjai";"SULAWESI SELATAN";"92613";"Indonesia";"";"";"";"-5.1037072";"120.2193754";"https://maps.google.com/?cid=0x0:0xebd8c816f76c3ddf";""
"komplek housing";"Komplek perumahan";"Rumah Tina";"Jl. Ranggong Dg. Romo No.75, Biringere, Kec. Sinjai Utara, Kabupaten Sinjai, Sulawesi Selatan 92615";"Biringere, Kec. Sinjai Utara, Kabupaten Sinjai";"SULAWESI SELATAN";"92615";"Indonesia";"";"";"";"-5.1297597";"120.2268713";"https://maps.google.com/?cid=0x0:0xeb698b8e66cb767a";""
"komplek housing";"Masjid";"Dekat mesjid";"V6WG+G4V, Lamatti Rilau, Kec. Sinjai Utara, Kabupaten Sinjai, Sulawesi Selatan";"Kabupaten Sinjai, Sulawesi Selatan";"SULAWESI SELATAN";"";"Indonesia";"";"";"";"-5.103647";"120.225308";"https://maps.google.com/?cid=0x0:0xb23b4f8142cc3762";""
"komplek housing";"Komplek perumahan";"Rmh keluarga";"V6QF+49P, Alehanuae, Kec. Sinjai Utara, Kabupaten Sinjai, Sulawesi Selatan 92613";"Alehanuae, Kec. Sinjai Utara, Kabupaten Sinjai";"SULAWESI SELATAN";"92613";"Indonesia";"";"";"";"-5.1121629";"120.2234507";"https://maps.google.com/?cid=0x0:0x8aeffd34329bb55b";""
"komplek housing";"Komplek perumahan";"Rumahnya Nashar fresco";"V6WG+G4V, Lamatti Rilau, Kec. Sinjai Utara, Kabupaten Sinjai, Sulawesi Selatan";"Kabupaten Sinjai, Sulawesi Selatan";"SULAWESI SELATAN";"";"Indonesia";"";"";"";"-5.103647";"120.225308";"https://maps.google.com/?cid=0x0:0xd06cc7c4edc33e2";""
"komplek housing";"Komplek perumahan";"Rumah P. Hasan";"V6HC+4HC, Alehanuae, Kec. Sinjai Utara, Kabupaten Sinjai, Sulawesi Selatan";"Kabupaten Sinjai, Sulawesi Selatan";"SULAWESI SELATAN";"";"Indonesia";"";"";"";"-5.1221958";"120.2213887";"https://maps.google.com/?cid=0x0:0x815dd10cc61bfdf0";""
"komplek housing";"Komplek perumahan";"Rumah kk yaya";"V6HF+P2J, Alehanuae, Kec. Sinjai Utara, Kabupaten Sinjai, Sulawesi Selatan 92615";"Alehanuae, Kec. Sinjai Utara, Kabupaten Sinjai";"SULAWESI SELATAN";"92615";"Indonesia";"";"";"";"-5.120684";"120.2226336";"https://maps.google.com/?cid=0x0:0xb9a95632de53d16a";""
"komplek housing";"Komplek perumahan";"Rumah";"V6RF+449, Alehanuae, Kec. Sinjai Utara, Kabupaten Sinjai, Sulawesi Selatan";"Kabupaten Sinjai, Sulawesi Selatan";"SULAWESI SELATAN";"";"Indonesia";"";"";"";"-5.1093334";"120.2218947";"https://maps.google.com/?cid=0x0:0xb5d5d47147129087";""
"komplek housing";"Komplek perumahan";"MUH.HUSAIN ALI";"V6VH+PJ5, Lamatti Rilau, Kec. Sinjai Utara, Kabupaten Sinjai, Sulawesi Selatan 92615";"Lamatti Rilau, Kec. Sinjai Utara, Kabupaten Sinjai";"SULAWESI SELATAN";"92615";"Indonesia";"";"";"";"-5.1057368";"120.2291203";"https://maps.google.com/?cid=0x0:0xd95c5fbe73f79953";""
"komplek housing";"Komplek perumahan";"Emank Repair Store";"V6R7+4FC, Lamatti Rilau, Kec. Sinjai Utara, Kabupaten Sinjai, Sulawesi Selatan 92613";"Lamatti Rilau, Kec. Sinjai Utara, Kabupaten Sinjai";"SULAWESI SELATAN";"92613";"Indonesia";" 082215821649";"";"";"-5.1097141";"120.2136828";"https://maps.google.com/?cid=0x0:0xb26546661f03f060";""
"komplek housing";"komplek housing";"Rumah Kepling Tokka";"V6PF+C7R, Alehanuae, Kec. Sinjai Utara, Kabupaten Sinjai, Sulawesi Selatan";"Kabupaten Sinjai, Sulawesi Selatan";"SULAWESI SELATAN";"";"Indonesia";"";"";"";"-5.1138754";"120.2231369";"https://maps.google.com/?cid=0x0:0x65dee63a062207db";""
"komplek housing";"Komplek perumahan";"Rumah Mawan";"V6P6+HP8, Alehanuae, Kec. Sinjai Utara, Kabupaten Sinjai, Sulawesi Selatan 92613";"Alehanuae, Kec. Sinjai Utara, Kabupaten Sinjai";"SULAWESI SELATAN";"92613";"Indonesia";"";"";"";"-5.1135837";"120.2121899";"https://maps.google.com/?cid=0x0:0x43a39085d8cd9119";""
"komplek housing";"komplek housing";"Anwar Nurjannah";"V6XH+699, Lamatti Rilau, Kec. Sinjai Utara, Kabupaten Sinjai, Sulawesi Selatan";"Kabupaten Sinjai, Sulawesi Selatan";"SULAWESI SELATAN";"";"Indonesia";"";"";"";"-5.1019609";"120.2284802";"https://maps.google.com/?cid=0x0:0xc6a5876d22181b8c";""
"komplek housing";"Komplek perumahan";"Rumah Keluarga Baharuddin  Tenri";"V6GC+QG3, Alehanuae, Kec. Sinjai Utara, Kabupaten Sinjai, Sulawesi Selatan";"Kabupaten Sinjai, Sulawesi Selatan";"SULAWESI SELATAN";"";"Indonesia";"";"";"";"-5.1231041";"120.2213083";"https://maps.google.com/?cid=0x0:0x96ed59ca71c1017a";""
"komplek housing";"komplek housing";"Kec. Sinjai Utara";"Kabupaten Sinjai, Sulawesi Selatan";"Kabupaten Sinjai, Sulawesi Selatan";"SULAWESI SELATAN";"";"Indonesia";"";"";"";"-5.1181262";"120.2565808";"https://maps.google.com/?cid=0x0:0x26b49f7435404492";""
"komplek housing";"Komplek perumahan";"Ratu Elekton";"V6M8+VJR, Alehanuae, Kec. Sinjai Utara, Kabupaten Sinjai, Sulawesi Selatan 92613";"Alehanuae, Kec. Sinjai Utara, Kabupaten Sinjai";"SULAWESI SELATAN";"92613";"Indonesia";"";"";"";"-5.1152641";"120.2165115";"https://maps.google.com/?cid=0x0:0x912032b82fece577";""
"komplek housing";"Komplek perumahan";"JABBAR";"V6JH+85, Alehanuae, Kec. Sinjai Utara, Kabupaten Sinjai, Sulawesi Selatan";"Kabupaten Sinjai, Sulawesi Selatan";"SULAWESI SELATAN";"";"Indonesia";"";"";"";"-5.1192696";"120.227972";"https://maps.google.com/?cid=0x0:0x938713eac8b176c6";""
"komplek housing";"Komplek perumahan";"SEKRETARIAT POKTAN MALLENRENG";"V6V8+RQX, Lamatti Rilau, Kec. Sinjai Utara, Kabupaten Sinjai, Sulawesi Selatan 92613";"Lamatti Rilau, Kec. Sinjai Utara, Kabupaten Sinjai";"SULAWESI SELATAN";"92613";"Indonesia";"";"";"";"-5.1049773";"120.217559";"https://maps.google.com/?cid=0x0:0x627bd7773c68dbc3";""
"komplek housing";"Komplek perumahan";"Rumah Makdis Photography";"V6MF+Q44, Alehanuae, Kec. Sinjai Utara, Kabupaten Sinjai, Sulawesi Selatan 92613";"Alehanuae, Kec. Sinjai Utara, Kabupaten Sinjai";"SULAWESI SELATAN";"92613";"Indonesia";"";"";"";"-5.1155688";"120.2228037";"https://maps.google.com/?cid=0x0:0xd898168ee838f2d";""
"komplek housing";"Komplek perumahan";"BTN BUMI PERMATA SINJAI";"V6JV+WJ3, Biringere, Kec. Sinjai Utara, Kabupaten Sinjai, Sulawesi Selatan 92615";"Biringere, Kec. Sinjai Utara, Kabupaten Sinjai";"SULAWESI SELATAN";"92615";"Indonesia";"";"";"";"-5.1177374";"120.2440411";"https://maps.google.com/?cid=0x0:0xf333c1bfb9319c60";""
"komplek housing";"Perumahan";"Bumi Tamara Permai";"V6CX+544, Biringere, Kec. Sinjai Utara, Kabupaten Sinjai, Sulawesi Selatan 92615";"Biringere, Kec. Sinjai Utara, Kabupaten Sinjai";"SULAWESI SELATAN";"92615";"Indonesia";"";"";"";"-5.1296106";"120.2478313";"https://maps.google.com/?cid=0x0:0xec9dec1fa6203276";""
"komplek housing";"Komplek perumahan";"sinjai utara";"V7J5+G86, Balangnipa, Kec. Sinjai Utara, Kabupaten Sinjai, Sulawesi Selatan 92614";"Balangnipa, Kec. Sinjai Utara, Kabupaten Sinjai";"SULAWESI SELATAN";"92614";"Indonesia";"";"";"";"-5.1187624";"120.2581748";"https://maps.google.com/?cid=0x0:0x484c6b6dd870b302";""
"komplek housing";"Komplek perumahan";"SEKRETARIAT POKTAN LIBURENG";"V6R8+54P, Lamatti Rilau, Kec. Sinjai Utara, Kabupaten Sinjai, Sulawesi Selatan 92613";"Lamatti Rilau, Kec. Sinjai Utara, Kabupaten Sinjai";"SULAWESI SELATAN";"92613";"Indonesia";"";"";"";"-5.1094909";"120.2153062";"https://maps.google.com/?cid=0x0:0xea850316dedcc28";""
"komplek housing";"komplek housing";"Sinjai";"Biringere, Kec. Sinjai Utara, Kabupaten Sinjai, Sulawesi Selatan";"Kabupaten Sinjai, Sulawesi Selatan";"SULAWESI SELATAN";"";"Indonesia";"";"";"";"-5.1256014";"120.258047";"https://maps.google.com/?cid=0x0:0x4030bfbcaf77ba0";""
"komplek housing";"Komplek perumahan";"Kabupaten sinjai";"V7F5+Q59 Jln sultan wisma, Biringere, Kec. Sinjai Utara, Kabupaten Sinjai, Sulawesi Selatan";"Kabupaten Sinjai, Sulawesi Selatan";"SULAWESI SELATAN";"";"Indonesia";"";"";"";"-5.125585";"120.2579876";"https://maps.google.com/?cid=0x0:0x855bf67864b3c535";""
"komplek housing";"Komplek perumahan";"Darlan home";"V7F5+P6G, Biringere, Kec. Sinjai Utara, Kabupaten Sinjai, Sulawesi Selatan";"Kabupaten Sinjai, Sulawesi Selatan";"SULAWESI SELATAN";"";"Indonesia";"";"";"";"-5.1256882";"120.2580699";"https://maps.google.com/?cid=0x0:0x8d3f9d9a6f025c5e";""
"komplek housing";"Komplek perumahan";"Mess Bricash Sinjai";"V7F6+H4W, Jl. DR. Samratulangi, Balangnipa, Kec. Sinjai Utara, Kabupaten Sinjai, Sulawesi Selatan 92614";"Jl. DR. Samratulangi, Balangnipa, Kec. Sinjai Utara, Kabupaten Sinjai";"SULAWESI SELATAN";"92614";"Indonesia";"";"";"";"-5.1267268";"120.2592226";"https://maps.google.com/?cid=0x0:0x37f530517118f339";""
"komplek housing";"Komplek perumahan";"Rumah Aeni";"V7F5+Q59, P558+5P2KalobbaKec, Tellu LimpoeKabupaten, Kabupaten Sinjai, Sulawesi Selatan";"Kabupaten Sinjai, Sulawesi Selatan";"SULAWESI SELATAN";"";"Indonesia";"";"";"";"-5.125585";"120.2579876";"https://maps.google.com/?cid=0x0:0x130398a2f6de6238";""
"komplek housing";"komplek housing";"Rumah P. Toing";"V7F5+Q59, Biringere, Kec. Sinjai Tengah, Kabupaten Sinjai, Sulawesi Selatan";"Kabupaten Sinjai, Sulawesi Selatan";"SULAWESI SELATAN";"";"Indonesia";"";"";"";"-5.125585";"120.2579876";"https://maps.google.com/?cid=0x0:0x33c0ca1a70c5ab0d";""
"komplek housing";"Komplek perumahan";"PUNGGAWA RESIDENCE";"Jl. Petta Ponggawae, Bongki, Kec. Sinjai Utara, Kabupaten Sinjai, Sulawesi Selatan 92615";"Bongki, Kec. Sinjai Utara, Kabupaten Sinjai";"SULAWESI SELATAN";"92615";"Indonesia";" 085299135095";"";"";"-5.1031816";"120.2515262";"https://maps.google.com/?cid=0x0:0x32919e2455bf2e5c";""
"komplek housing";"Perumahan";"Bumi Tamara Permai";"V6CX+544, Biringere, Kec. Sinjai Utara, Kabupaten Sinjai, Sulawesi Selatan 92615";"Biringere, Kec. Sinjai Utara, Kabupaten Sinjai";"SULAWESI SELATAN";"92615";"Indonesia";"";"";"";"-5.1296106";"120.2478313";"https://maps.google.com/?cid=0x0:0xec9dec1fa6203276";""
"komplek housing";"komplek housing";"Kec. Sinjai Utara";"Kabupaten Sinjai, Sulawesi Selatan";"Kabupaten Sinjai, Sulawesi Selatan";"SULAWESI SELATAN";"";"Indonesia";"";"";"";"-5.1181262";"120.2565808";"https://maps.google.com/?cid=0x0:0x26b49f7435404492";""
"komplek housing";"Komplek perumahan";"Perumahan Eryani";"V7P4+596, Jl. Bulu Lohe, Balangnipa, Kec. Sinjai Utara, Kabupaten Sinjai, Sulawesi Selatan 92614";"Jl. Bulu Lohe, Balangnipa, Kec. Sinjai Utara, Kabupaten Sinjai";"SULAWESI SELATAN";"92614";"Indonesia";"";"";"";"-5.114579";"120.2558938";"https://maps.google.com/?cid=0x0:0x3b02a4e27c1a225";""
"komplek housing";"Pembangunan Perumahan";"BTN Bumi Tangka Mas";"V7R4+97C, Balangnipa, Kec. Sinjai Utara, Kabupaten Sinjai, Sulawesi Selatan 92614";"Balangnipa, Kec. Sinjai Utara, Kabupaten Sinjai";"SULAWESI SELATAN";"92614";"Indonesia";"";"";"";"-5.1090722";"120.2556536";"https://maps.google.com/?cid=0x0:0x6173e1e544564de1";""
"komplek housing";"Komplek perumahan";"Bulu Saraung lorong tembus Mesjid Nurul Tijarah";"V7J3+PHJ, Sental, Kec. Sinjai Utara, Kabupaten Sinjai, Sulawesi Selatan 92614";"Sental, Kec. Sinjai Utara, Kabupaten Sinjai";"SULAWESI SELATAN";"92614";"Indonesia";"";"";"";"-5.1181189";"120.2538204";"https://maps.google.com/?cid=0x0:0xf9893130a31b9529";""
"komplek housing";"Komplek perumahan";"Rumah Aeng/Fathul";"V7R3+495, Balangnipa, Kec. Sinjai Utara, Kabupaten Sinjai, Sulawesi Selatan 92614";"Balangnipa, Kec. Sinjai Utara, Kabupaten Sinjai";"SULAWESI SELATAN";"92614";"Indonesia";"";"";"";"-5.1095975";"120.2535575";"https://maps.google.com/?cid=0x0:0x105080541356c1e5";""
"komplek housing";"Komplek perumahan";"Rumah Izzam";"V7R3+6GJ, Balangnipa, Kec. Sinjai Utara, Kabupaten Sinjai, Sulawesi Selatan 92614";"Balangnipa, Kec. Sinjai Utara, Kabupaten Sinjai";"SULAWESI SELATAN";"92614";"Indonesia";"";"";"";"-5.1094031";"120.2537702";"https://maps.google.com/?cid=0x0:0xcf0b642cd6b7a600";""
"komplek housing";"Komplek perumahan";"SKS FAMS";"Jl. Sultan Isma No.19-13, Balangnipa, Kec. Sinjai Utara, Kabupaten Sinjai, Sulawesi Selatan 92614";"Balangnipa, Kec. Sinjai Utara, Kabupaten Sinjai";"SULAWESI SELATAN";"92614";"Indonesia";"";"";"";"-5.123216";"120.257726";"https://maps.google.com/?cid=0x0:0x8b37d99b12136987";""
"komplek housing";"Pembangunan Perumahan";"Abdul Rahman";"V7G5+QGQ, Jl. DR. Samratulangi, Balangnipa, Kec. Sinjai Utara, Kabupaten Sinjai, Sulawesi Selatan 92614";"Jl. DR. Samratulangi, Balangnipa, Kec. Sinjai Utara, Kabupaten Sinjai";"SULAWESI SELATAN";"92614";"Indonesia";"";"";"";"-5.1230315";"120.2588579";"https://maps.google.com/?cid=0x0:0x78a993bbfd84a07a";""
"komplek housing";"Pembangunan Perumahan";"Aso' Home Base";"V7P4+66F, Jl. Bulu Lohe, Balangnipa, Kec. Sinjai Utara, Kabupaten Sinjai, Sulawesi Selatan 92614";"Jl. Bulu Lohe, Balangnipa, Kec. Sinjai Utara, Kabupaten Sinjai";"SULAWESI SELATAN";"92614";"Indonesia";"";"";"";"-5.1144691";"120.2556016";"https://maps.google.com/?cid=0x0:0xea24987849e15936";""
"komplek housing";"Pembangunan Perumahan";"Anas Family Home";"Jl. A. P. Peta Rani No.48, Balangnipa, Kec. Sinjai Utara, Kabupaten Sinjai, Sulawesi Selatan 92614";"Balangnipa, Kec. Sinjai Utara, Kabupaten Sinjai";"SULAWESI SELATAN";"92614";"Indonesia";"";"";"";"-5.1109149";"120.2536127";"https://maps.google.com/?cid=0x0:0xb3bc83334a5116a8";""
"komplek housing";"Komplek perumahan";"Home Elly";"V7J6+F44, Jl. HOS Cokroaminoto, Balangnipa, Kec. Sinjai Utara, Kabupaten Sinjai, Sulawesi Selatan 92614";"Jl. HOS Cokroaminoto, Balangnipa, Kec. Sinjai Utara, Kabupaten Sinjai";"SULAWESI SELATAN";"92614";"Indonesia";"";"";"";"-5.1188562";"120.2603171";"https://maps.google.com/?cid=0x0:0x1cbe0f4d3f4b472a";""
"komplek housing";"Komplek perumahan";"Laelah home";"V7J7+GHX, Jl. Teratai, Balangnipa, Kec. Sinjai Utara, Kabupaten Sinjai, Sulawesi Selatan 92614";"Jl. Teratai, Balangnipa, Kec. Sinjai Utara, Kabupaten Sinjai";"SULAWESI SELATAN";"92614";"Indonesia";"";"";"";"-5.1186263";"120.263969";"https://maps.google.com/?cid=0x0:0x1559f908c149fbcb";""
"komplek housing";"Komplek perumahan";"Rumah Atta";"V7Q3+HHF, Jl. A. P. Peta Rani, Balangnipa, Kec. Sinjai Utara, Kabupaten Sinjai, Sulawesi Selatan 92614";"Jl. A. P. Peta Rani, Balangnipa, Kec. Sinjai Utara, Kabupaten Sinjai";"SULAWESI SELATAN";"92614";"Indonesia";"";"";"";"-5.1110649";"120.253926";"https://maps.google.com/?cid=0x0:0xdae5ba1596b25abe";""
"komplek housing";"Komplek perumahan";"Nisa Home";"Jl. Emmy Saelan No.10, Biringere, Kec. Sinjai Utara, Kabupaten Sinjai, Sulawesi Selatan 92614";"Biringere, Kec. Sinjai Utara, Kabupaten Sinjai";"SULAWESI SELATAN";"92614";"Indonesia";"";"";"";"-5.1251033";"120.2556893";"https://maps.google.com/?cid=0x0:0x7c4bfa7136b7cb7b";""
"komplek housing";"Pembangunan Perumahan";"Qudwa Smarthome";"V7P5+735, Balangnipa, Kec. Sinjai Utara, Kabupaten Sinjai, Sulawesi Selatan 92614";"Balangnipa, Kec. Sinjai Utara, Kabupaten Sinjai";"SULAWESI SELATAN";"92614";"Indonesia";" 082235797925";"";"";"-5.1143536";"120.2577303";"https://maps.google.com/?cid=0x0:0xb7f82a63ed15d67b";""
"komplek housing";"Komplek perumahan";"Rumah IMAN";"V7G6+VWV, Jl. DR. Samratulangi, Balangnipa, Kec. Sinjai Utara, Kabupaten Sinjai, Sulawesi Selatan 92614";"Jl. DR. Samratulangi, Balangnipa, Kec. Sinjai Utara, Kabupaten Sinjai";"SULAWESI SELATAN";"92614";"Indonesia";"";"";"";"-5.1227586";"120.2622811";"https://maps.google.com/?cid=0x0:0x49bd8fa7a5fab137";""
"komplek housing";"Komplek perumahan";"Madany Home";"V7P4+VXM, Jl. Bulu Lasiai 2, Balangnipa, Kec. Sinjai Utara, Kabupaten Sinjai, Sulawesi Selatan 92614";"Jl. Bulu Lasiai 2, Balangnipa, Kec. Sinjai Utara, Kabupaten Sinjai";"SULAWESI SELATAN";"92614";"Indonesia";"";"";"";"-5.11279";"120.2574079";"https://maps.google.com/?cid=0x0:0xa20efe58368b0808";""
"komplek housing";"Komplek perumahan";"H. A. Muh Amir";"V7G4+C35, Balangnipa, Kec. Sinjai Utara, Kabupaten Sinjai, Sulawesi Selatan 92614";"Balangnipa, Kec. Sinjai Utara, Kabupaten Sinjai";"SULAWESI SELATAN";"92614";"Indonesia";"";"";"";"-5.1239776";"120.2552285";"https://maps.google.com/?cid=0x0:0xd2ab1a46897a627d";""
"komplek housing";"Komplek perumahan";"RUMAH ARTAV";"Jl. Mawar No.6a, Balangnipa, Kec. Sinjai Utara, Kabupaten Sinjai, Sulawesi Selatan 92614";"Balangnipa, Kec. Sinjai Utara, Kabupaten Sinjai";"SULAWESI SELATAN";"92614";"Indonesia";"";"";"";"-5.1181267";"120.2624949";"https://maps.google.com/?cid=0x0:0xd5886a0892c2c4c2";""
"komplek housing";"Pembangunan Perumahan";"Rumah Nunu";"V7M5+QCM, Jl. Kelapa, Balangnipa, Kec. Sinjai Utara, Kabupaten Sinjai, Sulawesi Selatan 92614";"Jl. Kelapa, Balangnipa, Kec. Sinjai Utara, Kabupaten Sinjai";"SULAWESI SELATAN";"92614";"Indonesia";"";"";"";"-5.1155147";"120.2585171";"https://maps.google.com/?cid=0x0:0xf620042c869f7640";""
"komplek housing";"Pertanian";"SEKRETARIAT POKTAN LURA TANGKA";"BTN TANGKA MAS Blok D 82, Balangnipa, Kec. Sinjai Utara, Kabupaten Sinjai, Sulawesi Selatan 92614";"Balangnipa, Kec. Sinjai Utara, Kabupaten Sinjai";"SULAWESI SELATAN";"92614";"Indonesia";"";"";"";"-5.1073606";"120.2533886";"https://maps.google.com/?cid=0x0:0xb90d451931b92f38";""
"komplek housing";"komplek housing";"Sulawesi Selatan 92615";"Kec. Sinjai Utara, Kabupaten Sinjai, Sulawesi Selatan";"Kabupaten Sinjai, Sulawesi Selatan";"SULAWESI SELATAN";"";"Indonesia";"";"";"";"-5.1237897";"120.2339635";"https://maps.google.com/?cid=0x0:0x77692fbf58b7cd0d";""
"komplek housing";"Komplek perumahan";"Perumahan";"V6GX+HVC, Jl. Manimpahoi, Bongki, Kec. Sinjai Utara, Kabupaten Sinjai, Sulawesi Selatan 92615";"Jl. Manimpahoi, Bongki, Kec. Sinjai Utara, Kabupaten Sinjai";"SULAWESI SELATAN";"92615";"Indonesia";"";"";"";"-5.1235744";"120.2496431";"https://maps.google.com/?cid=0x0:0xd2380e3ec6088e1e";""
"komplek housing";"Perumahan";"BPS Residence Cluster D'Jeffa";"Jl. Bulu Manyurung, Bongki, Kec. Sinjai Utara, Kabupaten Sinjai, Sulawesi Selatan 92615";"Bongki, Kec. Sinjai Utara, Kabupaten Sinjai";"SULAWESI SELATAN";"92615";"Indonesia";"";"";"";"-5.1166464";"120.244613";"https://maps.google.com/?cid=0x0:0x43b2249440b52318";""
"komplek housing";"Komplek perumahan";"Perumahan Eryani";"V7P4+596, Jl. Bulu Lohe, Balangnipa, Kec. Sinjai Utara, Kabupaten Sinjai, Sulawesi Selatan 92614";"Jl. Bulu Lohe, Balangnipa, Kec. Sinjai Utara, Kabupaten Sinjai";"SULAWESI SELATAN";"92614";"Indonesia";"";"";"";"-5.114579";"120.2558938";"https://maps.google.com/?cid=0x0:0x3b02a4e27c1a225";""
"komplek housing";"Tujuan Wisata";"Sinjai";"V7F3+658, Jl. Baso Kalaka, Biringere, Kec. Sinjai Utara, Kabupaten Sinjai, Sulawesi Selatan 92615";"Jl. Baso Kalaka, Biringere, Kec. Sinjai Utara, Kabupaten Sinjai";"SULAWESI SELATAN";"92615";"Indonesia";"";"";"";"-5.1269553";"120.2529481";"https://maps.google.com/?cid=0x0:0xdbffd168a50e1506";""
"komplek housing";"Perumahan";"Yazdan";"Jl. Bulu Pada No.43, Bongki, Kec. Sinjai Utara, Kabupaten Sinjai, Sulawesi Selatan 92615";"Bongki, Kec. Sinjai Utara, Kabupaten Sinjai";"SULAWESI SELATAN";"92615";"Indonesia";"";"";"";"-5.1155236";"120.2513085";"https://maps.google.com/?cid=0x0:0xb6a5aadf4ca4bd00";""
"komplek housing";"Pembangunan Perumahan";"BTN Bumi Tangka Mas";"V7R4+97C, Balangnipa, Kec. Sinjai Utara, Kabupaten Sinjai, Sulawesi Selatan 92614";"Balangnipa, Kec. Sinjai Utara, Kabupaten Sinjai";"SULAWESI SELATAN";"92614";"Indonesia";"";"";"";"-5.1090722";"120.2556536";"https://maps.google.com/?cid=0x0:0x6173e1e544564de1";""
"komplek housing";"Komplek perumahan";"Home";"V68F+PR, Kaloling, Kec. Sinjai Tim., Kabupaten Sinjai, Sulawesi Selatan";"Kabupaten Sinjai, Sulawesi Selatan";"SULAWESI SELATAN";"";"Indonesia";"";"";"";"-5.1331752";"120.2245293";"https://maps.google.com/?cid=0x0:0x1e93ee3dcf0494d8";""
"komplek housing";"Komplek perumahan";"Pondok 57";"BTP IV BLOK C NO 9SaukangKec, Kec. Sinjai Tim., Kabupaten Sinjai, Sulawesi Selatan 92615";"Kec. Sinjai Tim., Kabupaten Sinjai";"SULAWESI SELATAN";"92615";"Indonesia";"";"";"";"-5.1392483";"120.2432858";"https://maps.google.com/?cid=0x0:0xce2445a906b610d3";""
"komplek housing";"Komplek perumahan";"home Faiz";"V6HV+GM3, Biringere, Kec. Sinjai Utara, Kabupaten Sinjai, Sulawesi Selatan";"Kabupaten Sinjai, Sulawesi Selatan";"SULAWESI SELATAN";"";"Indonesia";"";"";"";"-5.1211606";"120.2438955";"https://maps.google.com/?cid=0x0:0xa0fedb9fbc883e";""
"komplek housing";"Komplek perumahan";"Bulu Saraung lorong tembus Mesjid Nurul Tijarah";"V7J3+PHJ, Sental, Kec. Sinjai Utara, Kabupaten Sinjai, Sulawesi Selatan 92614";"Sental, Kec. Sinjai Utara, Kabupaten Sinjai";"SULAWESI SELATAN";"92614";"Indonesia";"";"";"";"-5.1181189";"120.2538204";"https://maps.google.com/?cid=0x0:0xf9893130a31b9529";""
"komplek housing";"Komplek perumahan";"Rumah Nitya";"V6HW+G42, Biringere, Kec. Sinjai Utara, Kabupaten Sinjai, Sulawesi Selatan 92615";"Biringere, Kec. Sinjai Utara, Kabupaten Sinjai";"SULAWESI SELATAN";"92615";"Indonesia";"";"";"";"-5.1209893";"120.2460531";"https://maps.google.com/?cid=0x0:0x44260825efd9995e";""
"komplek housing";"Komplek perumahan";"SKS FAMS";"Jl. Sultan Isma No.19-13, Balangnipa, Kec. Sinjai Utara, Kabupaten Sinjai, Sulawesi Selatan 92614";"Balangnipa, Kec. Sinjai Utara, Kabupaten Sinjai";"SULAWESI SELATAN";"92614";"Indonesia";"";"";"";"-5.123216";"120.257726";"https://maps.google.com/?cid=0x0:0x8b37d99b12136987";""
"komplek housing";"Komplek perumahan";"Rumah kk yaya";"V6HF+P2J, Alehanuae, Kec. Sinjai Utara, Kabupaten Sinjai, Sulawesi Selatan 92615";"Alehanuae, Kec. Sinjai Utara, Kabupaten Sinjai";"SULAWESI SELATAN";"92615";"Indonesia";"";"";"";"-5.120684";"120.2226336";"https://maps.google.com/?cid=0x0:0xb9a95632de53d16a";""
"komplek housing";"Komplek perumahan";"home Hasmiah Mansur";"V6PX+JGC, Bongki, Kec. Sinjai Utara, Kabupaten Sinjai, Sulawesi Selatan 92615";"Bongki, Kec. Sinjai Utara, Kabupaten Sinjai";"SULAWESI SELATAN";"92615";"Indonesia";"";"";"";"-5.1134482";"120.2487614";"https://maps.google.com/?cid=0x0:0x62293571eba29dc2";""
"komplek housing";"Komplek perumahan";"Rumah PAK.RIDWAN ARSYAD";"V6JW+84Q, Biringere, Kec. Sinjai Utara, Kabupaten Sinjai, Sulawesi Selatan 92615";"Biringere, Kec. Sinjai Utara, Kabupaten Sinjai";"SULAWESI SELATAN";"92615";"Indonesia";"";"";"";"-5.119161";"120.2453654";"https://maps.google.com/?cid=0x0:0x87c257b26c93ed3f";""
"komplek housing";"Komplek perumahan";"MALIKAIL HOME";"V7P2+C3W, Jl. Bulu Bicara, Bongki, Kec. Sinjai Utara, Kabupaten Sinjai, Sulawesi Selatan 92615";"Jl. Bulu Bicara, Bongki, Kec. Sinjai Utara, Kabupaten Sinjai";"SULAWESI SELATAN";"92615";"Indonesia";"";"";"";"-5.1138941";"120.2500099";"https://maps.google.com/?cid=0x0:0xc26ef113641a3bbe";""
"komplek housing";"Komplek perumahan";"Rumah Izzam";"V7R3+6GJ, Balangnipa, Kec. Sinjai Utara, Kabupaten Sinjai, Sulawesi Selatan 92614";"Balangnipa, Kec. Sinjai Utara, Kabupaten Sinjai";"SULAWESI SELATAN";"92614";"Indonesia";"";"";"";"-5.1094031";"120.2537702";"https://maps.google.com/?cid=0x0:0xcf0b642cd6b7a600";""
"komplek housing";"Komplek perumahan";"Rumah Umar wira";"V7C3+VHPJl. Basuki RahmatBiringere, Biringere, Sinjai Utara, Sinjai Regency, South Sulawesi 92615";"Biringere, Sinjai Utara, Sinjai Regency";"SULAWESI SELATAN";"92615";"Indonesia";"";"";"";"-5.1279805";"120.2539049";"https://maps.google.com/?cid=0x0:0x5fbe70753ca5e27c";""
"komplek housing";"Pembangunan Perumahan";"Aso' Home Base";"V7P4+66F, Jl. Bulu Lohe, Balangnipa, Kec. Sinjai Utara, Kabupaten Sinjai, Sulawesi Selatan 92614";"Jl. Bulu Lohe, Balangnipa, Kec. Sinjai Utara, Kabupaten Sinjai";"SULAWESI SELATAN";"92614";"Indonesia";"";"";"";"-5.1144691";"120.2556016";"https://maps.google.com/?cid=0x0:0xea24987849e15936";""
"komplek housing";"komplek housing";"Kec. Sinjai Utara";"Kabupaten Sinjai, Sulawesi Selatan";"Kabupaten Sinjai, Sulawesi Selatan";"SULAWESI SELATAN";"";"Indonesia";"";"";"";"-5.1181262";"120.2565808";"https://maps.google.com/?cid=0x0:0x26b49f7435404492";""
"komplek housing";"Komplek perumahan";"Rumah Tina";"Jl. Ranggong Dg. Romo No.75, Biringere, Kec. Sinjai Utara, Kabupaten Sinjai, Sulawesi Selatan 92615";"Biringere, Kec. Sinjai Utara, Kabupaten Sinjai";"SULAWESI SELATAN";"92615";"Indonesia";"";"";"";"-5.1297597";"120.2268713";"https://maps.google.com/?cid=0x0:0xeb698b8e66cb767a";""
"komplek housing";"Komplek perumahan";"Narita home";"V6MX+68J, Jl. Lamatti, Bongki, Kec. Sinjai Utara, Kabupaten Sinjai, Sulawesi Selatan 92615";"Jl. Lamatti, Bongki, Kec. Sinjai Utara, Kabupaten Sinjai";"SULAWESI SELATAN";"92615";"Indonesia";"";"";"";"-5.1176252";"120.2484776";"https://maps.google.com/?cid=0x0:0x329695c0b3c92d";""
"komplek housing";"Pembangunan Perumahan";"Rumah wahyudin nawar";"V7H3+J7Q, Bongki, Kec. Sinjai Utara, Kabupaten Sinjai, Sulawesi Selatan 92615";"Bongki, Kec. Sinjai Utara, Kabupaten Sinjai";"SULAWESI SELATAN";"92615";"Indonesia";"";"";"";"-5.120999";"120.253283";"https://maps.google.com/?cid=0x0:0xfa069120a55db6ec";""
"komplek housing";"Komplek perumahan";"Rumah sudirman";"Jl. Bulu Pada No.30, Bongki, Kec. Sinjai Utara, Kabupaten Sinjai, Sulawesi Selatan 92615";"Bongki, Kec. Sinjai Utara, Kabupaten Sinjai";"SULAWESI SELATAN";"92615";"Indonesia";"";"";"";"-5.1142475";"120.2517109";"https://maps.google.com/?cid=0x0:0x61cba4f041fc811e";""
"komplek housing";"Komplek perumahan";"Humaedi (Edi)";"V69M+GPP, Biringere, Kec. Sinjai Utara, Kabupaten Sinjai, Sulawesi Selatan 92615";"Biringere, Kec. Sinjai Utara, Kabupaten Sinjai";"SULAWESI SELATAN";"92615";"Indonesia";"";"";"";"-5.1310631";"120.2342825";"https://maps.google.com/?cid=0x0:0xb298a5f913c621d8";""
"komplek housing";"Komplek perumahan";"Arnidah Arifin";"V6FX+79G, BTN citra graha Sinjai blok A no, Biringere, Kec. Sinjai Utara, Kabupaten Sinjai, Sulawesi Selatan 92615";"BTN citra graha Sinjai blok A no, Biringere, Kec. Sinjai Utara, Kabupaten Sinjai";"SULAWESI SELATAN";"92615";"Indonesia";"";"";"";"-5.1268043";"120.2484595";"https://maps.google.com/?cid=0x0:0x8535a0474e452c2f";""
"komplek housing";"Perhimpunan Pengembang Perumahan";"Bottae";"V6JW+JQH, Bongki, Kec. Sinjai Utara, Kabupaten Sinjai, Sulawesi Selatan 92615";"Bongki, Kec. Sinjai Utara, Kabupaten Sinjai";"SULAWESI SELATAN";"92615";"Indonesia";" 081288799189";"";"";"-5.1184314";"120.2469909";"https://maps.google.com/?cid=0x0:0x64bf81aaec51756c";""
"komplek housing";"Komplek perumahan";"Khansa";"Jl. Jenderal Sudirman No.53, Biringere, Kec. Sinjai Utara, Kabupaten Sinjai, Sulawesi Selatan 92615";"Biringere, Kec. Sinjai Utara, Kabupaten Sinjai";"SULAWESI SELATAN";"92615";"Indonesia";"";"";"";"-5.1300901";"120.2492728";"https://maps.google.com/?cid=0x0:0x7283032a1a209526";""
"komplek housing";"komplek housing";"Sulawesi Selatan 92616";"Kabupaten Sinjai, Sulawesi Selatan";"Kabupaten Sinjai, Sulawesi Selatan";"SULAWESI SELATAN";"";"Indonesia";"";"";"";"-5.1341417";"120.2108809";"https://maps.google.com/?cid=0x0:0x3a6afe18e30b851b";""
"komplek housing";"Komplek perumahan";"Home";"V68F+PR, Kaloling, Kec. Sinjai Tim., Kabupaten Sinjai, Sulawesi Selatan";"Kabupaten Sinjai, Sulawesi Selatan";"SULAWESI SELATAN";"";"Indonesia";"";"";"";"-5.1331752";"120.2245293";"https://maps.google.com/?cid=0x0:0x1e93ee3dcf0494d8";""
"komplek housing";"Komplek perumahan";"Bumi Tirta Nusantara Sinjai";"V6MG+79W, Alehanuae, Kec. Sinjai Utara, Kabupaten Sinjai, Sulawesi Selatan";"Kabupaten Sinjai, Sulawesi Selatan";"SULAWESI SELATAN";"";"Indonesia";"";"";"";"-5.1167672";"120.2259648";"https://maps.google.com/?cid=0x0:0x837e617d4212ad26";""
"komplek housing";"Komplek perumahan";"Anjas's home";"R5RH+JC5, Samaenre, Kec. Sinjai Tengah, Kabupaten Sinjai, Sulawesi Selatan";"Kabupaten Sinjai, Sulawesi Selatan";"SULAWESI SELATAN";"";"Indonesia";"";"";"";"-5.158478";"120.1785951";"https://maps.google.com/?cid=0x0:0x4e53824217cb66b9";""
"komplek housing";"Komplek perumahan";"Rumah kk yaya";"V6HF+P2J, Alehanuae, Kec. Sinjai Utara, Kabupaten Sinjai, Sulawesi Selatan 92615";"Alehanuae, Kec. Sinjai Utara, Kabupaten Sinjai";"SULAWESI SELATAN";"92615";"Indonesia";"";"";"";"-5.120684";"120.2226336";"https://maps.google.com/?cid=0x0:0xb9a95632de53d16a";""
"komplek housing";"Komplek perumahan";"Home Owners KO'bi";"V6PX+FH7, Bongki, Kec. Sinjai Utara, Kabupaten Sinjai, Sulawesi Selatan 92615";"Bongki, Kec. Sinjai Utara, Kabupaten Sinjai";"SULAWESI SELATAN";"92615";"Indonesia";"";"";"";"-5.1138313";"120.2489206";"https://maps.google.com/?cid=0x0:0x23a4fc5f4a407961";""
"komplek housing";"Komplek perumahan";"Homex IsMhA'aa";"V65R+MQP, Jl. Persatuan Raya, saukang, Kec. Sinjai Tim., Kabupaten Sinjai, Sulawesi Selatan 92611";"Jl. Persatuan Raya, saukang, Kec. Sinjai Tim., Kabupaten Sinjai";"SULAWESI SELATAN";"92611";"Indonesia";"";"";"";"-5.15079";"120.2076487";"https://maps.google.com/?cid=0x0:0xdb30f1a34d77aedf";""
"komplek housing";"Komplek perumahan";"Rumah Tina";"Jl. Ranggong Dg. Romo No.75, Biringere, Kec. Sinjai Utara, Kabupaten Sinjai, Sulawesi Selatan 92615";"Biringere, Kec. Sinjai Utara, Kabupaten Sinjai";"SULAWESI SELATAN";"92615";"Indonesia";"";"";"";"-5.1297597";"120.2268713";"https://maps.google.com/?cid=0x0:0xeb698b8e66cb767a";""
"komplek housing";"Pembangunan Perumahan";"Jl. Buhung Pude";"V6MF+M85, Alehanuae, Kec. Sinjai Utara, Kabupaten Sinjai, Sulawesi Selatan 92613";"Alehanuae, Kec. Sinjai Utara, Kabupaten Sinjai";"SULAWESI SELATAN";"92613";"Indonesia";"";"";"";"-5.1158529";"120.2233696";"https://maps.google.com/?cid=0x0:0xca619a769ea3cd7a";""
"komplek housing";"Komplek perumahan";"Rumah P.Hamzah";"V655+HVV, Bongki Lengkese, Kec. Sinjai Tim., Kabupaten Sinjai, Sulawesi Selatan";"Kabupaten Sinjai, Sulawesi Selatan";"SULAWESI SELATAN";"";"Indonesia";"";"";"";"-5.1410156";"120.209672";"https://maps.google.com/?cid=0x0:0x9d454b360a7e3a2a";""
"komplek housing";"komplek housing";"Rumah Kepling Tokka";"V6PF+C7R, Alehanuae, Kec. Sinjai Utara, Kabupaten Sinjai, Sulawesi Selatan";"Kabupaten Sinjai, Sulawesi Selatan";"SULAWESI SELATAN";"";"Indonesia";"";"";"";"-5.1138754";"120.2231369";"https://maps.google.com/?cid=0x0:0x65dee63a062207db";""
"komplek housing";"Komplek perumahan";"Perumahan";"V6GX+HVC, Jl. Manimpahoi, Bongki, Kec. Sinjai Utara, Kabupaten Sinjai, Sulawesi Selatan 92615";"Jl. Manimpahoi, Bongki, Kec. Sinjai Utara, Kabupaten Sinjai";"SULAWESI SELATAN";"92615";"Indonesia";"";"";"";"-5.1235744";"120.2496431";"https://maps.google.com/?cid=0x0:0xd2380e3ec6088e1e";""
"komplek housing";"Perumahan";"BPS Residence Cluster D'Jeffa";"Jl. Bulu Manyurung, Bongki, Kec. Sinjai Utara, Kabupaten Sinjai, Sulawesi Selatan 92615";"Bongki, Kec. Sinjai Utara, Kabupaten Sinjai";"SULAWESI SELATAN";"92615";"Indonesia";"";"";"";"-5.1166464";"120.244613";"https://maps.google.com/?cid=0x0:0x43b2249440b52318";""
"komplek housing";"Komplek perumahan";"Rumah Keluarga Baharuddin  Tenri";"V6GC+QG3, Alehanuae, Kec. Sinjai Utara, Kabupaten Sinjai, Sulawesi Selatan";"Kabupaten Sinjai, Sulawesi Selatan";"SULAWESI SELATAN";"";"Indonesia";"";"";"";"-5.1231041";"120.2213083";"https://maps.google.com/?cid=0x0:0x96ed59ca71c1017a";""
"komplek housing";"Komplek perumahan";"Rumah P. Hasan";"V6HC+4HC, Alehanuae, Kec. Sinjai Utara, Kabupaten Sinjai, Sulawesi Selatan";"Kabupaten Sinjai, Sulawesi Selatan";"SULAWESI SELATAN";"";"Indonesia";"";"";"";"-5.1221958";"120.2213887";"https://maps.google.com/?cid=0x0:0x815dd10cc61bfdf0";""
"komplek housing";"Komplek perumahan";"Rmh keluarga";"V6QF+49P, Alehanuae, Kec. Sinjai Utara, Kabupaten Sinjai, Sulawesi Selatan 92613";"Alehanuae, Kec. Sinjai Utara, Kabupaten Sinjai";"SULAWESI SELATAN";"92613";"Indonesia";"";"";"";"-5.1121629";"120.2234507";"https://maps.google.com/?cid=0x0:0x8aeffd34329bb55b";""
"komplek housing";"Komplek perumahan";"IMMONG";"V629+3C7, Bongki Lengkese, Kec. Sinjai Tim., Kabupaten Sinjai, Sulawesi Selatan 92671";"Bongki Lengkese, Kec. Sinjai Tim., Kabupaten Sinjai";"SULAWESI SELATAN";"92671";"Indonesia";"";"";"";"-5.1501675";"120.2180232";"https://maps.google.com/?cid=0x0:0x27974ed091c62ae8";""
"komplek housing";"Pembangunan Perumahan";"Rumah Pak Kahar";"V6C9+WXM, Alehanuae, Kec. Sinjai Utara, Kabupaten Sinjai, Sulawesi Selatan";"Kabupaten Sinjai, Sulawesi Selatan";"SULAWESI SELATAN";"";"Indonesia";"";"";"";"-5.1276501";"120.219936";"https://maps.google.com/?cid=0x0:0x81ce7a2ba9562c66";""
