Category;Real Category;Business Name;Address;City;State;Postal Code;Country;Phone;Email;Website;Latitude;Longitude;Map Link;Details Link
"mall";"Kantor Perusahaan";"Toserba Prima Srandakan";"Jl. Srandakan No.km1, Sapuangin, Trimurti, Kec. Srandakan, Kabupaten Bantul, Daerah Istimewa Yogyakarta 55762";"Sapuangin, Trimurti, Kec. Srandakan, Kabupaten Bantul";"DAERAH ISTIMEWA YOGYAKARTA";"55762";"Indonesia";" 089518562170";"";"/url?q>>u003dhttp://tiny.cc/toserbaprimasrandakan>>u0026opi>>u003d79508299>>u0026sa>>u003dU>>u0026ved>>u003d0ahUKEwiMyY60qP-LAxU_TGwGHfO-A_oQ61gIFigS>>u0026usg>>u003dAOvVaw3ch8dCEL6_Rz8M2AQuxj_-";"-7.9385289";"110.2485682";"https://maps.google.com/?cid=0x0:0x2e1817ee067c80f2";""
"mall";"Toko bahan makanan";"Mitra Usaha Mapan Srandakan";"Jl. Trimurti, Mangiran, Trimurti, Kec. Srandakan, Kabupaten Bantul, Daerah Istimewa Yogyakarta 55762";"Mangiran, Trimurti, Kec. Srandakan, Kabupaten Bantul";"DAERAH ISTIMEWA YOGYAKARTA";"55762";"Indonesia";" 083867025295";"";"";"-7.94912";"110.2441672";"https://maps.google.com/?cid=0x0:0x441f07f76a5ee065";""
"mall";"Pusat Perbelanjaan";"Pakuwon Mall Jogja";"Jl. Ring Road Utara, Kaliwaru, Condongcatur, Kec. Depok, Kabupaten Sleman, Daerah Istimewa Yogyakarta 55281";"Kaliwaru, Condongcatur, Kec. Depok, Kabupaten Sleman";"DAERAH ISTIMEWA YOGYAKARTA";"55281";"Indonesia";" 02742924095";"";"/url?q>>u003dhttps://pakuwonmalljogja.com/>>u0026opi>>u003d79508299>>u0026sa>>u003dU>>u0026ved>>u003d0ahUKEwiYpMK0qP-LAxUKcGwGHWSsJaoQ61gIFigS>>u0026usg>>u003dAOvVaw0APcwCo2yU-3fSrKG3sG9F";"-7.7588094";"110.3992739";"https://maps.google.com/?cid=0x0:0xa864a4f7fe95e090";""
"mall";"Toko Pakaian";"RR Store Srandakan";"26XR+MJF, Talkondo, Poncosari, Kec. Srandakan, Kabupaten Bantul, Daerah Istimewa Yogyakarta 55762";"Talkondo, Poncosari, Kec. Srandakan, Kabupaten Bantul";"DAERAH ISTIMEWA YOGYAKARTA";"55762";"Indonesia";"";"";"";"-7.9508004";"110.2415341";"https://maps.google.com/?cid=0x0:0x9f16f05a722bb876";""
"mall";"Toko Organik";""Marai Lemu"";"3778+V28, Pedak, Trimurti, Kec. Srandakan, Kabupaten Bantul, Daerah Istimewa Yogyakarta 55762";"Pedak, Trimurti, Kec. Srandakan, Kabupaten Bantul";"DAERAH ISTIMEWA YOGYAKARTA";"55762";"Indonesia";" 087838714376";"";"";"-7.9353454";"110.2650869";"https://maps.google.com/?cid=0x0:0x7e529012694c4eb6";""
"mall";"Pusat Perbelanjaan";"Ismodiharjo Square";"26QP+XPP, Singgoto, Poncosari, Kec. Srandakan, Kabupaten Bantul, Daerah Istimewa Yogyakarta 55762";"Singgoto, Poncosari, Kec. Srandakan, Kabupaten Bantul";"DAERAH ISTIMEWA YOGYAKARTA";"55762";"Indonesia";" 085729297512";"";"";"-7.9600407";"110.2368348";"https://maps.google.com/?cid=0x0:0x8ffe9b2372b6cba5";""
"mall";"Toko Ponsel";"D Cell";"3785+XHQ, dusun gunungsaren lor, RT.79, Trimurti, Kec. Srandakan, Kabupaten Bantul, Daerah Istimewa Yogyakarta 55762";"dusun gunungsaren lor, RT.79, Trimurti, Kec. Srandakan, Kabupaten Bantul";"DAERAH ISTIMEWA YOGYAKARTA";"55762";"Indonesia";" 085642222226";"";"";"-7.932574";"110.2589731";"https://maps.google.com/?cid=0x0:0x53efd8636ff46f5a";""
"mall";"Kantor Perusahaan";"MUSTOFA MOTOR";"362R+JRF, Jl. Pandansimo, Mangiran, Trimurti, Kec. Srandakan, Kabupaten Bantul, Daerah Istimewa Yogyakarta 55762";"Jl. Pandansimo, Mangiran, Trimurti, Kec. Srandakan, Kabupaten Bantul";"DAERAH ISTIMEWA YOGYAKARTA";"55762";"Indonesia";" 08813972434";"";"";"-7.94845";"110.242043";"https://maps.google.com/?cid=0x0:0x126b62e9086ff2e7";""
"mall";"Toko Ponsel";"ONE Celluler";"Lopati, Trimurti, Kec. Srandakan, Kabupaten Bantul, Daerah Istimewa Yogyakarta 55762";"Trimurti, Kec. Srandakan, Kabupaten Bantul";"DAERAH ISTIMEWA YOGYAKARTA";"55762";"Indonesia";" 081280465332";"";"";"-7.9325485";"110.2541621";"https://maps.google.com/?cid=0x0:0x419c01a88eb87b0";""
"mall";"Pembangunan Perumahan";"Ranu Home";"Sawahan RT 40, Cangunan, Trimurti, Kec. Srandakan, Kabupaten Bantul, Daerah Istimewa Yogyakarta 55762";"Cangunan, Trimurti, Kec. Srandakan, Kabupaten Bantul";"DAERAH ISTIMEWA YOGYAKARTA";"55762";"Indonesia";"";"";"";"-7.9468214";"110.255031";"https://maps.google.com/?cid=0x0:0xf065c82ac44aff5e";""
"mall";"Pasar";"Pasar Bodowaluh";"26FP+22W, Kuripan, Poncosari, Kec. Srandakan, Kabupaten Bantul, Daerah Istimewa Yogyakarta 55762";"Kuripan, Poncosari, Kec. Srandakan, Kabupaten Bantul";"DAERAH ISTIMEWA YOGYAKARTA";"55762";"Indonesia";"";"";"";"-7.977392";"110.2350863";"https://maps.google.com/?cid=0x0:0xec21e1e1dfa7959c";""
"mall";"Pasar tradisional";"Pasar Jragan II";"26HQ+Q9W, Jl. Amongtani, Jragan 2, Poncosari, Kec. Srandakan, Kabupaten Bantul, Daerah Istimewa Yogyakarta 55762";"Jl. Amongtani, Jragan 2, Poncosari, Kec. Srandakan, Kabupaten Bantul";"DAERAH ISTIMEWA YOGYAKARTA";"55762";"Indonesia";"";"";"";"-7.9705134";"110.2384676";"https://maps.google.com/?cid=0x0:0x57ad5fc0839b5f69";""
"mall";"Toko umum";"EKO MALL SUPERMARKET";"26JQ+8FP, Jl. Amongtani, Jragan 2, Poncosari, Kec. Srandakan, Kabupaten Bantul, Daerah Istimewa Yogyakarta 55762";"Jl. Amongtani, Jragan 2, Poncosari, Kec. Srandakan, Kabupaten Bantul";"DAERAH ISTIMEWA YOGYAKARTA";"55762";"Indonesia";"";"";"";"-7.9691592";"110.2387178";"https://maps.google.com/?cid=0x0:0xf5c0011dc23b6526";""
"mall";"Toko Mainan";"PASAR MAINAN JOGJA";"3793+7WJ, Lopati, Trimurti, Kec. Srandakan, Kabupaten Bantul, Daerah Istimewa Yogyakarta 55762";"Lopati, Trimurti, Kec. Srandakan, Kabupaten Bantul";"DAERAH ISTIMEWA YOGYAKARTA";"55762";"Indonesia";"";"";"";"-7.931785";"110.2547698";"https://maps.google.com/?cid=0x0:0x96d266f3da92d83d";""
"mall";"Toko Tahu";"Sentra Tahu Ibu Sarbini";"Jl. Srandakan No.RT72, Gunungsaren Kidul, Trimurti, Kec. Srandakan, Kabupaten Bantul, Daerah Istimewa Yogyakarta 55762";"Gunungsaren Kidul, Trimurti, Kec. Srandakan, Kabupaten Bantul";"DAERAH ISTIMEWA YOGYAKARTA";"55762";"Indonesia";" 08882509649";"";"";"-7.937339";"110.2570766";"https://maps.google.com/?cid=0x0:0x8c927c7f9706a563";""
"mall";"Toko";"Toko Grosir Mbak Isti";"37F3+4X4, Jl. Srandakan Bendo, Sawahan, Trimurti, Kec. Srandakan, Kabupaten Bantul, Daerah Istimewa Yogyakarta 55762";"Jl. Srandakan Bendo, Sawahan, Trimurti, Kec. Srandakan, Kabupaten Bantul";"DAERAH ISTIMEWA YOGYAKARTA";"55762";"Indonesia";"";"";"";"-7.9272276";"110.2549515";"https://maps.google.com/?cid=0x0:0x61418e42a0f1cba2";""
"mall";"Toko Makanan";"Bakpia Supardi";"3795+M36, Jl. Kp. Bendo Mangiran, Puluhan Lor, Trimurti, Kec. Srandakan, Kabupaten Bantul, Daerah Istimewa Yogyakarta 55762";"Jl. Kp. Bendo Mangiran, Puluhan Lor, Trimurti, Kec. Srandakan, Kabupaten Bantul";"DAERAH ISTIMEWA YOGYAKARTA";"55762";"Indonesia";" 082138010806";"";"";"-7.9308258";"110.2576544";"https://maps.google.com/?cid=0x0:0x774170bbf848f1c4";""
"mall";"Toko Kerajinan Tangan";"Krondo Ijo";"3793+HQC, Klurahan, Trimurti, Kec. Srandakan, Kabupaten Bantul, Daerah Istimewa Yogyakarta 55762";"Klurahan, Trimurti, Kec. Srandakan, Kabupaten Bantul";"DAERAH ISTIMEWA YOGYAKARTA";"55762";"Indonesia";" 085643950203";"";"";"-7.9310737";"110.2543926";"https://maps.google.com/?cid=0x0:0xda9534d52c698d90";""
"mall";"Toko";"Warung dul kramat jaya";"Talkondo Rt 02, Talkondo, Poncosari, Kec. Srandakan, Kabupaten Bantul, Daerah Istimewa Yogyakarta 55762";"Talkondo, Poncosari, Kec. Srandakan, Kabupaten Bantul";"DAERAH ISTIMEWA YOGYAKARTA";"55762";"Indonesia";"";"";"";"-7.9531285";"110.2412762";"https://maps.google.com/?cid=0x0:0xf97c4111dd008e46";""
"mall";"Kedai Kopi";"Pawon Mbah Bon";"Mangiran, Trimurti, Kec. Srandakan, Kabupaten Bantul, Daerah Istimewa Yogyakarta 55762";"Trimurti, Kec. Srandakan, Kabupaten Bantul";"DAERAH ISTIMEWA YOGYAKARTA";"55762";"Indonesia";" 085725735089";"";"";"-7.9501001";"110.2505126";"https://maps.google.com/?cid=0x0:0xd3190379339615a3";""
"mall";"Toko bahan makanan";"Kue  Snack Mbak Surat";"Gunungsaren Kidul No.Rt71, Puluhan Lor, Trimurti, Kec. Srandakan, Kabupaten Bantul, Daerah Istimewa Yogyakarta 55762";"Puluhan Lor, Trimurti, Kec. Srandakan, Kabupaten Bantul";"DAERAH ISTIMEWA YOGYAKARTA";"55762";"Indonesia";" 085786589299";"";"";"-7.9347945";"110.2603947";"https://maps.google.com/?cid=0x0:0x7f629ea26c5e138f";""
"mall";"Toko Swalayan";"UD Kinasih";"26XW+F6F, Gandeyan, Poncosari, Kec. Srandakan, Kabupaten Bantul, Daerah Istimewa Yogyakarta 55762";"Gandeyan, Poncosari, Kec. Srandakan, Kabupaten Bantul";"DAERAH ISTIMEWA YOGYAKARTA";"55762";"Indonesia";" 081215201112";"";"";"-7.9513034";"110.2455379";"https://maps.google.com/?cid=0x0:0x55c3413001ce96a6";""
"mall";"Pusat Perbelanjaan";"SANIY SayurBuah";"3722+RPM, Jl. Selobentar, Cangunan, Trimurti, Kec. Srandakan, Kabupaten Bantul, Daerah Istimewa Yogyakarta 55762";"Jl. Selobentar, Cangunan, Trimurti, Kec. Srandakan, Kabupaten Bantul";"DAERAH ISTIMEWA YOGYAKARTA";"55762";"Indonesia";" 087838434731";"";"";"-7.9479016";"110.2517969";"https://maps.google.com/?cid=0x0:0x86fa2c3ab05bc993";""
"mall";"Toko bahan makanan";"Lavima Sanden";"27J8+M23, Jalan Raya, Senden, Murtigading, Sanden, Bantul Regency, Special Region of Yogyakarta 55763";"Jalan Raya, Senden, Murtigading, Sanden, Bantul Regency";"DAERAH ISTIMEWA YOGYAKARTA";"55763";"Indonesia";"";"";"";"-7.9683587";"110.265041";"https://maps.google.com/?cid=0x0:0xa23ce83575199f49";""
"mall";"Toko Swalayan";"Mangestoni Swalayan";"Jl. Raya Sanden, Senden, Murtigading, Kec. Sanden, Kabupaten Bantul, Daerah Istimewa Yogyakarta 55763";"Senden, Murtigading, Kec. Sanden, Kabupaten Bantul";"DAERAH ISTIMEWA YOGYAKARTA";"55763";"Indonesia";"";"";"";"-7.9686926";"110.265045";"https://maps.google.com/?cid=0x0:0x16ec13a2655a807";""
"mall";"Pusat Perbelanjaan";"Idamaret";"RT. 37 Gokerten, Srabahan, Srigading, Kec. Sanden, Kabupaten Bantul, Daerah Istimewa Yogyakarta 55763";"Srabahan, Srigading, Kec. Sanden, Kabupaten Bantul";"DAERAH ISTIMEWA YOGYAKARTA";"55763";"Indonesia";" 085743916987";"";"";"-7.9857279";"110.2850871";"https://maps.google.com/?cid=0x0:0x37dfd513f6648c0f";""
"mall";"Pusat Perbelanjaan";"Omah duren";"279P+2H4, Jl. Pahlawan, Wuluadeg, Srigading, Kec. Sanden, Kabupaten Bantul, Daerah Istimewa Yogyakarta 55763";"Jl. Pahlawan, Wuluadeg, Srigading, Kec. Sanden, Kabupaten Bantul";"DAERAH ISTIMEWA YOGYAKARTA";"55763";"Indonesia";" 082323834121";"";"";"-7.982491";"110.2864537";"https://maps.google.com/?cid=0x0:0x68255e954565a528";""
"mall";"Pusat Perbelanjaan";"Uler_brambang";"27HC+X96, Kurahan II, Murtigading, Kec. Sanden, Kabupaten Bantul, Daerah Istimewa Yogyakarta 55763";"Kurahan II, Murtigading, Kec. Sanden, Kabupaten Bantul";"DAERAH ISTIMEWA YOGYAKARTA";"55763";"Indonesia";" 083869613339";"";"";"-7.9700915";"110.2708935";"https://maps.google.com/?cid=0x0:0xb64fe035f18a3003";""
"mall";"Toko";"Timbang Biyen Perabot";"27QF+7F6, Dagan, Murtigading, Kec. Sanden, Kabupaten Bantul, Daerah Istimewa Yogyakarta 55763";"Dagan, Murtigading, Kec. Sanden, Kabupaten Bantul";"DAERAH ISTIMEWA YOGYAKARTA";"55763";"Indonesia";"";"";"";"-7.9618438";"110.2736436";"https://maps.google.com/?cid=0x0:0xe8b8b9c8cce678f3";""
"mall";"Pusat Perbelanjaan";"WARUNG BU ASIH Malangan (ꦮꦫꦸꦁꦧꦸꦄꦱꦶꦃ)";"279M+3CW, Unnamed Road, Srabahan, Srigading, Kec. Sanden, Kabupaten Bantul, Daerah Istimewa Yogyakarta 55763";"Unnamed Road, Srabahan, Srigading, Kec. Sanden, Kabupaten Bantul";"DAERAH ISTIMEWA YOGYAKARTA";"55763";"Indonesia";"";"";"";"-7.9822588";"110.2835912";"https://maps.google.com/?cid=0x0:0x4054b7d76632aee5";""
"mall";"Pasar Ternak";"Kandang Mentok Sanden";"27Q8+H7F, Pucang Anom I, Murtigading, Kec. Sanden, Kabupaten Bantul, Daerah Istimewa Yogyakarta 55763";"Pucang Anom I, Murtigading, Kec. Sanden, Kabupaten Bantul";"DAERAH ISTIMEWA YOGYAKARTA";"55763";"Indonesia";" 085724314846";"";"";"-7.9610681";"110.2656844";"https://maps.google.com/?cid=0x0:0xa83546320e61556e";""
"mall";"Pusat Perbelanjaan";"Distributor resmi NASA";"Bongos 2 dk:8 rt 1, Demakan, Gadingsari, Kec. Sanden, Kabupaten Bantul, Daerah Istimewa Yogyakarta 55763";"Demakan, Gadingsari, Kec. Sanden, Kabupaten Bantul";"DAERAH ISTIMEWA YOGYAKARTA";"55763";"Indonesia";" 081904064240";"";"";"-7.9742059";"110.2536834";"https://maps.google.com/?cid=0x0:0x30a5f75a79069fc9";""
"mall";"Toko";"toko tujimah";"27FM+WCW, Jl. Samas, Wirosutan, Srigading, Kec. Sanden, Kabupaten Bantul, Daerah Istimewa Yogyakarta 55763";"Jl. Samas, Wirosutan, Srigading, Kec. Sanden, Kabupaten Bantul";"DAERAH ISTIMEWA YOGYAKARTA";"55763";"Indonesia";"";"";"";"-7.9751286";"110.2835754";"https://maps.google.com/?cid=0x0:0xef191a5f0d04c6cf";""
"mall";"Toko bahan makanan";"Toko Jasmine";"2779+R46, Pranti, Gadingharjo, Kec. Sanden, Kabupaten Bantul, Daerah Istimewa Yogyakarta 55763";"Pranti, Gadingharjo, Kec. Sanden, Kabupaten Bantul";"DAERAH ISTIMEWA YOGYAKARTA";"55763";"Indonesia";"";"";"";"-7.9854647";"110.2677775";"https://maps.google.com/?cid=0x0:0x12c63536e3f4b1b5";""
"mall";"Toko";"Toko Mbak LISS";"276H+5GP, Karangsuwung, Todiryah, Srigading, Kec. Sanden, Kabupaten Bantul, Daerah Istimewa Yogyakarta 55763";"Karangsuwung, Todiryah, Srigading, Kec. Sanden, Kabupaten Bantul";"DAERAH ISTIMEWA YOGYAKARTA";"55763";"Indonesia";" 087838940008";"";"";"-7.9895441";"110.2788265";"https://maps.google.com/?cid=0x0:0xf03b7eb8d69f97a3";""
"mall";"Pusat Perbelanjaan";"Bawang Aji";"273H+49J, Tegalsari, Srigading, Kec. Sanden, Kabupaten Bantul, Daerah Istimewa Yogyakarta 55763";"Tegalsari, Srigading, Kec. Sanden, Kabupaten Bantul";"DAERAH ISTIMEWA YOGYAKARTA";"55763";"Indonesia";"";"";"";"-7.9971697";"110.2784037";"https://maps.google.com/?cid=0x0:0x4688dfffe27fff17";""
"mall";"Toko";"Stokis NASA AB.1798 Bantul";"Kurahan2, RT.05, Piring I, Murtigading, Kec. Sanden, Kabupaten Bantul, Daerah Istimewa Yogyakarta 55763";"RT.05, Piring I, Murtigading, Kec. Sanden, Kabupaten Bantul";"DAERAH ISTIMEWA YOGYAKARTA";"55763";"Indonesia";" 087838144530";"";"";"-7.9701812";"110.2709848";"https://maps.google.com/?cid=0x0:0x1e6afafdaf828dcb";""
"mall";"Pemasok Produk Kecantikan";"Nu Amoorea Bantul";"Klagaran, Dk. IX No.RT.05, Bende, Gadingsari, Kec. Sanden, Kabupaten Bantul, Daerah Istimewa Yogyakarta 55763";"Dk. IX No.RT.05, Bende, Gadingsari, Kec. Sanden, Kabupaten Bantul";"DAERAH ISTIMEWA YOGYAKARTA";"55763";"Indonesia";"";"";"";"-7.9689167";"110.2416961";"https://maps.google.com/?cid=0x0:0xb0ece5bf24402775";""
"mall";"Toko";"Toko Bu Amanah";"Demakan RT 02, Demakan, Gadingsari, Kec. Sanden, Kabupaten Bantul, Daerah Istimewa Yogyakarta 55763";"Demakan, Gadingsari, Kec. Sanden, Kabupaten Bantul";"DAERAH ISTIMEWA YOGYAKARTA";"55763";"Indonesia";"";"";"";"-7.975373";"110.2519631";"https://maps.google.com/?cid=0x0:0x801a319542c88f66";""
"mall";"Pusat Perbelanjaan";"Aktor Bawang merah";"2758+VG4, RT.74Srigading, Cetan, Kec. Sanden, Kabupaten Bantul, Daerah Istimewa Yogyakarta 55763";"RT.74Srigading, Cetan, Kec. Sanden, Kabupaten Bantul";"DAERAH ISTIMEWA YOGYAKARTA";"55763";"Indonesia";" 082226496772";"";"";"-7.9930763";"110.2774106";"https://maps.google.com/?cid=0x0:0x4d666f2330f6fb6b";""
"mall";"Toko";"Warung Bu Subar";"Pucang Anom II, Murtigading, Kec. Sanden, Kabupaten Bantul, Daerah Istimewa Yogyakarta 55763";"Murtigading, Kec. Sanden, Kabupaten Bantul";"DAERAH ISTIMEWA YOGYAKARTA";"55763";"Indonesia";"";"";"";"-7.9607991";"110.2663821";"https://maps.google.com/?cid=0x0:0x18bf7dfa0c8ac5f9";""
"mall";"Pusat Perbelanjaan";"yusuf design";"2786+QVF, Ngujung, Gadingharjo, Kec. Sanden, Kabupaten Bantul, Daerah Istimewa Yogyakarta 55763";"Ngujung, Gadingharjo, Kec. Sanden, Kabupaten Bantul";"DAERAH ISTIMEWA YOGYAKARTA";"55763";"Indonesia";" 087721965698";"";"";"-7.9830607";"110.2621577";"https://maps.google.com/?cid=0x0:0xad957ebd676f7643";""
"mall";"mall";"Kec. Sanden";"Kabupaten Bantul, Daerah Istimewa Yogyakarta";"Kabupaten Bantul, Daerah Istimewa Yogyakarta";"DAERAH ISTIMEWA YOGYAKARTA";"";"Indonesia";"";"";"";"-7.9904148";"110.2663226";"https://maps.google.com/?cid=0x0:0x4027a76e352fbf0";""
"mall";"Toko Barang Bekas";"Grosir Barkas";"27R8+XMV, Pucang Anom I, Murtigading, Kec. Sanden, Kabupaten Bantul, Daerah Istimewa Yogyakarta 55763";"Pucang Anom I, Murtigading, Kec. Sanden, Kabupaten Bantul";"DAERAH ISTIMEWA YOGYAKARTA";"55763";"Indonesia";" 089663385517";"";"";"-7.9575208";"110.2666811";"https://maps.google.com/?cid=0x0:0xf4db7888a79006b4";""
"mall";"Toko";"Toko Kharisma";"277C+C9P, Jl. Samas Kuwaru, Pranti, Gadingharjo, Kec. Sanden, Kabupaten Bantul, Daerah Istimewa Yogyakarta 55763";"Jl. Samas Kuwaru, Pranti, Gadingharjo, Kec. Sanden, Kabupaten Bantul";"DAERAH ISTIMEWA YOGYAKARTA";"55763";"Indonesia";"";"";"";"-7.9864084";"110.2709589";"https://maps.google.com/?cid=0x0:0x6ae09e8f0cc591fc";""
"mall";"Toko bahan makanan";"Toko Alvin Klontong Sembako";"273J+PMC, sogesanden, Srigading, Kec. Sanden, Kabupaten Bantul, Daerah Istimewa Yogyakarta 55763";"sogesanden, Srigading, Kec. Sanden, Kabupaten Bantul";"DAERAH ISTIMEWA YOGYAKARTA";"55763";"Indonesia";" 082135517409";"";"";"-7.9956855";"110.2816536";"https://maps.google.com/?cid=0x0:0x7e4f0df5e8163cc5";""
"mall";"Toko bahan makanan";"Toko Bu TINI";"kemiri rt 06, Jl. Patihan, Nanggulan, Gadingsari, Kec. Sanden, Kabupaten Bantul, Daerah Istimewa Yogyakarta 55763";"Jl. Patihan, Nanggulan, Gadingsari, Kec. Sanden, Kabupaten Bantul";"DAERAH ISTIMEWA YOGYAKARTA";"55763";"Indonesia";" 083144689285";"";"";"-7.9715927";"110.2495971";"https://maps.google.com/?cid=0x0:0xa85d9cd59728c3ce";""
"mall";"Pusat Perbelanjaan";"Warung mbk sri";"27HM+6GQ, Celeb, Srigading, Kec. Sanden, Kabupaten Bantul, Daerah Istimewa Yogyakarta 55763";"Celeb, Srigading, Kec. Sanden, Kabupaten Bantul";"DAERAH ISTIMEWA YOGYAKARTA";"55763";"Indonesia";"";"";"";"-7.9719185";"110.2838469";"https://maps.google.com/?cid=0x0:0xff7c3609c163c1db";""
"mall";"Pusat Perbelanjaan";"Crisxal x Nasa Kretek Bantul";"Kretek rt 02, Kretek, Parangtritis, Kec. Kretek, Kabupaten Bantul, Daerah Istimewa Yogyakarta 55772";"Kretek, Parangtritis, Kec. Kretek, Kabupaten Bantul";"DAERAH ISTIMEWA YOGYAKARTA";"55772";"Indonesia";" 085729704442";"";"";"-7.9910248";"110.3146227";"https://maps.google.com/?cid=0x0:0x5f9679a5a4ea6250";""
"mall";"Toko";"Sumber Rejeki Kretek";"27FW+JV9, Bracan Togahan, Tirtomulyo, Kec. Kretek, Kabupaten Bantul, Daerah Istimewa Yogyakarta 55772";"Bracan Togahan, Tirtomulyo, Kec. Kretek, Kabupaten Bantul";"DAERAH ISTIMEWA YOGYAKARTA";"55772";"Indonesia";"";"";"";"-7.9759525";"110.2972418";"https://maps.google.com/?cid=0x0:0x5b2a8ddcf83367d4";""
"mall";"Toko Swalayan";"Ayuk Mete";"Samiran RT.04, Samiran, Parangtritis, Kec. Kretek, Kabupaten Bantul, Daerah Istimewa Yogyakarta 55772";"Samiran, Parangtritis, Kec. Kretek, Kabupaten Bantul";"DAERAH ISTIMEWA YOGYAKARTA";"55772";"Indonesia";" 08175416973";"";"";"-8.0005523";"110.306777";"https://maps.google.com/?cid=0x0:0xd23351e917e1bd65";""
"mall";"Toko Pakaian";"HiuOmpong Store";"Unnamed Road, Galan, Tirtosari, Kec. Kretek, Kabupaten Bantul, Daerah Istimewa Yogyakarta 55772";"Galan, Tirtosari, Kec. Kretek, Kabupaten Bantul";"DAERAH ISTIMEWA YOGYAKARTA";"55772";"Indonesia";" 081329298260";"";"";"-7.9941367";"110.295995";"https://maps.google.com/?cid=0x0:0xe9c7a2a717ceb4d1";""
"mall";"Kompleks Apartemen";"COD Home";"27QP+H7V, Paliyan, RT.02, Paliman, Tirtomulyo, Kec. Kretek, Kabupaten Bantul, Daerah Istimewa Yogyakarta 55772";"Paliyan, RT.02, Paliman, Tirtomulyo, Kec. Kretek, Kabupaten Bantul";"DAERAH ISTIMEWA YOGYAKARTA";"55772";"Indonesia";" 081294367654";"";"/url?q>>u003dhttps://www.facebook.com/nunukonero>>u0026opi>>u003d79508299>>u0026sa>>u003dU>>u0026ved>>u003d0ahUKEwjt8froqP-LAxWVSGwGHTbFPc0Q61gIFSgR>>u0026usg>>u003dAOvVaw0oXD7CUXsDxIAFw_xfhNnz";"-7.9610122";"110.2856567";"https://maps.google.com/?cid=0x0:0x320c0b229a35b6fd";""
"mall";"Pusat Perbelanjaan";"D'0mah Kewan";"274W+78H, Rt01, Buruhan, Tirtosari, Kec. Kretek, Kabupaten Bantul, Daerah Istimewa Yogyakarta 55772";"Rt01, Buruhan, Tirtosari, Kec. Kretek, Kabupaten Bantul";"DAERAH ISTIMEWA YOGYAKARTA";"55772";"Indonesia";" 081391874070";"";"";"-7.9943214";"110.295866";"https://maps.google.com/?cid=0x0:0x79264b56f45f2eeb";""
"mall";"Pusat Perbelanjaan";"Sindhu Raharjo";"Blantik rt 03, Blantik, Tirtomulyo, Kec. Kretek, Kabupaten Bantul, Daerah Istimewa Yogyakarta 55772";"Blantik, Tirtomulyo, Kec. Kretek, Kabupaten Bantul";"DAERAH ISTIMEWA YOGYAKARTA";"55772";"Indonesia";"";"";"";"-7.959701";"110.2800797";"https://maps.google.com/?cid=0x0:0xf44bb6bc15a8525e";""
"mall";"Pusat Perbelanjaan";"Wanita Karya";"2863+6FX, Mriyan, Donotirto, Kec. Kretek, Kabupaten Bantul, Daerah Istimewa Yogyakarta 55772";"Mriyan, Donotirto, Kec. Kretek, Kabupaten Bantul";"DAERAH ISTIMEWA YOGYAKARTA";"55772";"Indonesia";" 083116949094";"";"";"-7.989378";"110.303749";"https://maps.google.com/?cid=0x0:0x12d66f76701a1d5c";""
"mall";"Pusat Perbelanjaan";"Toko Rohmi꧋ꦠꦺꦴꦏꦺꦴꦫꦺꦴꦃꦩꦶ";"X8Q9+JRG, Grogol IX, Parangtritis, Kec. Kretek, Kabupaten Bantul, Daerah Istimewa Yogyakarta 55772";"Grogol IX, Parangtritis, Kec. Kretek, Kabupaten Bantul";"DAERAH ISTIMEWA YOGYAKARTA";"55772";"Indonesia";" 0818278969";"";"";"-8.0109367";"110.3195678";"https://maps.google.com/?cid=0x0:0x369375cbf5aae2d1";""
"mall";"Pusat Perbelanjaan";"JOKO NURDIANTA";"2898+9VC, Mersan, Donotirto, Kec. Kretek, Kabupaten Bantul, Daerah Istimewa Yogyakarta 55772";"Mersan, Donotirto, Kec. Kretek, Kabupaten Bantul";"DAERAH ISTIMEWA YOGYAKARTA";"55772";"Indonesia";"";"";"";"-7.981561";"110.3171455";"https://maps.google.com/?cid=0x0:0x8bbd81c16a744ef0";""
"mall";"Pusat Perbelanjaan";"AREV PC Official";"27GR+2FG, Bracan, RT.02, Bracan Togahan, Tirtomulyo, Kec. Kretek, Kabupaten Bantul, Daerah Istimewa Yogyakarta 55772";"Bracan, RT.02, Bracan Togahan, Tirtomulyo, Kec. Kretek, Kabupaten Bantul";"DAERAH ISTIMEWA YOGYAKARTA";"55772";"Indonesia";" 08998424108";"";"";"-7.9749304";"110.2912033";"https://maps.google.com/?cid=0x0:0xc94a336b1e054366";""
"mall";"Pusat Perbelanjaan";"Annaya Store";"27PR+GQJ, Karen, Tirtomulyo, Kec. Kretek, Kabupaten Bantul, Daerah Istimewa Yogyakarta 55772";"Karen, Tirtomulyo, Kec. Kretek, Kabupaten Bantul";"DAERAH ISTIMEWA YOGYAKARTA";"55772";"Indonesia";"";"";"";"-7.9636713";"110.2918777";"https://maps.google.com/?cid=0x0:0xe2e7cbd3785fb33f";""
"mall";"Toko Makanan";"erikawdyaa store";"Jl. Utama Baros, Baros, Tirtohargo, Kec. Kretek, Kabupaten Bantul, Daerah Istimewa Yogyakarta 55772";"Baros, Tirtohargo, Kec. Kretek, Kabupaten Bantul";"DAERAH ISTIMEWA YOGYAKARTA";"55772";"Indonesia";" 085701287704";"";"/url?q>>u003dhttps://erikaamofitt.blogspot.com/>>u0026opi>>u003d79508299>>u0026sa>>u003dU>>u0026ved>>u003d0ahUKEwiiqfLuqP-LAxVRXGwGHYeIA34Q61gIFigS>>u0026usg>>u003dAOvVaw2FRdoRCWq_7cGfQxroTWDY";"-8.0000173";"110.2838082";"https://maps.google.com/?cid=0x0:0xcf84c3a0eae8d57e";""
"mall";"Pusat Perbelanjaan";"Goeboek Cell";"X8X3+F5H, Samiran, Parangtritis, Kec. Kretek, Kabupaten Bantul, Daerah Istimewa Yogyakarta 55772";"Samiran, Parangtritis, Kec. Kretek, Kabupaten Bantul";"DAERAH ISTIMEWA YOGYAKARTA";"55772";"Indonesia";" 085777733380";"";"";"-8.0013006";"110.3029805";"https://maps.google.com/?cid=0x0:0x96b9cc40be251d58";""
"mall";"Pusat Perbelanjaan";"Senor Tank";"274W+684, Galan, Tirtosari, Kec. Kretek, Kabupaten Bantul, Daerah Istimewa Yogyakarta 55772";"Galan, Tirtosari, Kec. Kretek, Kabupaten Bantul";"DAERAH ISTIMEWA YOGYAKARTA";"55772";"Indonesia";" 08562746411";"";"";"-7.9944834";"110.2958326";"https://maps.google.com/?cid=0x0:0xb4c7ad740d123692";""
"mall";"Pusat Perbelanjaan";"Adam cell";"289H+Q37, Colo, Krapyak Kulon, Donotirto, Kec. Kretek, Kabupaten Bantul, Daerah Istimewa Yogyakarta 55772";"Colo, Krapyak Kulon, Donotirto, Kec. Kretek, Kabupaten Bantul";"DAERAH ISTIMEWA YOGYAKARTA";"55772";"Indonesia";"";"";"";"-7.9805919";"110.3276762";"https://maps.google.com/?cid=0x0:0x462a2464819e77d7";""
"mall";"Toko Makanan";"Peyek crispy ningrum";"274X+3RC, Unnamed Road, Galan, Tirtosari, Kec. Kretek, Kabupaten Bantul, Daerah Istimewa Yogyakarta 55772";"Unnamed Road, Galan, Tirtosari, Kec. Kretek, Kabupaten Bantul";"DAERAH ISTIMEWA YOGYAKARTA";"55772";"Indonesia";"";"";"";"-7.9948191";"110.2995198";"https://maps.google.com/?cid=0x0:0xab8cccc2c6ea138e";""
"mall";"Komplek perumahan";"Susi Murwani";"Bracan Togahan, Tirtomulyo, Kec. Kretek, Kabupaten Bantul, Daerah Istimewa Yogyakarta 55772";"Tirtomulyo, Kec. Kretek, Kabupaten Bantul";"DAERAH ISTIMEWA YOGYAKARTA";"55772";"Indonesia";" 085292273919";"";"";"-7.9753803";"110.2958558";"https://maps.google.com/?cid=0x0:0x2a8ad8ae24bb104e";""
"mall";"Pusat Perbelanjaan";"Distributor camilan";"28CG+7CG, Unnamed Road, Colo, Donotirto, Kec. Kretek, Kabupaten Bantul, Daerah Istimewa Yogyakarta 55772";"Unnamed Road, Colo, Donotirto, Kec. Kretek, Kabupaten Bantul";"DAERAH ISTIMEWA YOGYAKARTA";"55772";"Indonesia";" 085261992792";"";"";"-7.9793195";"110.3260821";"https://maps.google.com/?cid=0x0:0x3d375278dbc32f5b";""
"mall";"mall";"Daerah Istimewa Yogyakarta 55772";"Kabupaten Bantul, Daerah Istimewa Yogyakarta";"Kabupaten Bantul, Daerah Istimewa Yogyakarta";"DAERAH ISTIMEWA YOGYAKARTA";"";"Indonesia";"";"";"";"-7.990013";"110.3010938";"https://maps.google.com/?cid=0x0:0x1c00c5eb5b53c300";""
"mall";"Pusat Perbelanjaan";"Mekar꧋ꦩꦼꦏꦂ";"yk, Jl. Parangtritis No.km 24, Grogol VIII, Parangtritis, Kabupaten Bantul, Daerah Istimewa Yogyakarta 55772";"Jl. Parangtritis No.km 24, Grogol VIII, Parangtritis, Kabupaten Bantul";"DAERAH ISTIMEWA YOGYAKARTA";"55772";"Indonesia";" 083198411637";"";"";"-8.0108916";"110.3193685";"https://maps.google.com/?cid=0x0:0x7749b126d2f0d38f";""
"mall";"Toko Barang Bekas";"Emran Thrift(ꦄꦼꦩꦿꦤ꧀ꦛꦿꦶꦥ꦳꧀ꦠ꧀)";"274W+5GW, Buruhan, Tirtosari, Kec. Kretek, Kabupaten Bantul, Daerah Istimewa Yogyakarta 55772";"Buruhan, Tirtosari, Kec. Kretek, Kabupaten Bantul";"DAERAH ISTIMEWA YOGYAKARTA";"55772";"Indonesia";" 0882007868518";"";"";"-7.9945923";"110.2963026";"https://maps.google.com/?cid=0x0:0x78e1fa9433152f3";""
"mall";"Toko bahan makanan";"Agus Shop Jambu";"Jl. Parangtritis, Gadingharjo, Donotirto, Kec. Kretek, Kabupaten Bantul, Daerah Istimewa Yogyakarta 55772";"Gadingharjo, Donotirto, Kec. Kretek, Kabupaten Bantul";"DAERAH ISTIMEWA YOGYAKARTA";"55772";"Indonesia";" 08170180076";"";"";"-7.9805855";"110.3167328";"https://maps.google.com/?cid=0x0:0x848df1a92fab53b0";""
"mall";"Pusat Perbelanjaan";"Omah Silir";"Buruhan Rt-03, Galan, Tirtosari, Kec. Kretek, Kabupaten Bantul, Daerah Istimewa Yogyakarta 55772";"Galan, Tirtosari, Kec. Kretek, Kabupaten Bantul";"DAERAH ISTIMEWA YOGYAKARTA";"55772";"Indonesia";" 081329719217";"";"";"-7.9926563";"110.2968414";"https://maps.google.com/?cid=0x0:0xbd222450b8484387";""
"mall";"Grosir Perlengkapan Rumah Tangga";"DRUM PUNDONG";"Jonggrangan, Srihardono, Kec. Pundong, Kabupaten Bantul, Daerah Istimewa Yogyakarta 55771";"Srihardono, Kec. Pundong, Kabupaten Bantul";"DAERAH ISTIMEWA YOGYAKARTA";"55771";"Indonesia";" 085816570003";"";"";"-7.9498481";"110.3576667";"https://maps.google.com/?cid=0x0:0x71426fb99eb39cd1";""
"mall";"Pasar";"Pasar Pundong";"28VW+QJ2, Srihardono, Pundong, Srihardono, Kec. Bantul, Kabupaten Bantul, Daerah Istimewa Yogyakarta 55771";"Srihardono, Pundong, Srihardono, Kec. Bantul, Kabupaten Bantul";"DAERAH ISTIMEWA YOGYAKARTA";"55771";"Indonesia";"";"";"";"-7.9556016";"110.3465266";"https://maps.google.com/?cid=0x0:0x747f99bf986e0c8d";""
"mall";"Toko Pakaian";"Omah Fashion Jogja";"Biro, Seloharjo, Kec. Pundong, Kabupaten Bantul, Daerah Istimewa Yogyakarta 55771";"Seloharjo, Kec. Pundong, Kabupaten Bantul";"DAERAH ISTIMEWA YOGYAKARTA";"55771";"Indonesia";" 082138373578";"";"";"-7.9806074";"110.3323201";"https://maps.google.com/?cid=0x0:0x6eb967d5accde56d";""
"mall";"Pusat Perbelanjaan";"STOKIS MILAGROS PUNDONG BANTUL YOGYAKARTA";"28VW+P74, Pundong, Srihardono, Kec. Pundong, Kabupaten Bantul, Daerah Istimewa Yogyakarta 55771";"Pundong, Srihardono, Kec. Pundong, Kabupaten Bantul";"DAERAH ISTIMEWA YOGYAKARTA";"55771";"Indonesia";" 081542468557";"";"";"-7.9557441";"110.3456983";"https://maps.google.com/?cid=0x0:0xc09c3dc4c16d7549";""
"mall";"Dapur Umum";"Toko Idaman Pundong";"28XW+579, Jl. Mangun Negoro, Pundong, Srihardono, Kec. Pundong, Kabupaten Bantul, Daerah Istimewa Yogyakarta 55771";"Jl. Mangun Negoro, Pundong, Srihardono, Kec. Pundong, Kabupaten Bantul";"DAERAH ISTIMEWA YOGYAKARTA";"55771";"Indonesia";" 087738266667";"";"";"-7.9520799";"110.3457371";"https://maps.google.com/?cid=0x0:0xaa1f4f20a790d9a9";""
"mall";"Toko";"Dzaka Olshop";"Unnamed Road, 55771, Setegan, Srihardono, Kec. Pundong, Kabupaten Bantul, Daerah Istimewa Yogyakarta 55771";"55771, Setegan, Srihardono, Kec. Pundong, Kabupaten Bantul";"DAERAH ISTIMEWA YOGYAKARTA";"55771";"Indonesia";" 087834315208";"";"";"-7.9660809";"110.3456701";"https://maps.google.com/?cid=0x0:0x7429c222ba081e56";""
"mall";"Pusat Perbelanjaan";"Dlla";"28VP+X8X, Kantongan, Badan, Panjangrejo, Kec. Pundong, Kabupaten Bantul, Daerah Istimewa Yogyakarta 55771";"Kantongan, Badan, Panjangrejo, Kec. Pundong, Kabupaten Bantul";"DAERAH ISTIMEWA YOGYAKARTA";"55771";"Indonesia";" 087731397760";"";"";"-7.9550175";"110.3358581";"https://maps.google.com/?cid=0x0:0x4bfb3123caaaf582";""
"mall";"Pusat Perbelanjaan";"AINI GROSIR";"28HJ+QC2, Watu, Panjangrejo, Kec. Pundong, Kabupaten Bantul, Daerah Istimewa Yogyakarta 55771";"Watu, Panjangrejo, Kec. Pundong, Kabupaten Bantul";"DAERAH ISTIMEWA YOGYAKARTA";"55771";"Indonesia";" 082134512475";"";"";"-7.9706219";"110.3310025";"https://maps.google.com/?cid=0x0:0x571138be845a52f0";""
"mall";"Pusat Perbelanjaan";"Waroeng Kang Agus";"29J4+2P3, Dukuh, Seloharjo, Kec. Pundong, Kabupaten Bantul, Daerah Istimewa Yogyakarta 55771";"Dukuh, Seloharjo, Kec. Pundong, Kabupaten Bantul";"DAERAH ISTIMEWA YOGYAKARTA";"55771";"Indonesia";"";"";"";"-7.9699985";"110.3567869";"https://maps.google.com/?cid=0x0:0xd0b22c6aee5b90c6";""
"mall";"Toko";"WARUNG SADE MBAK YAH";"3924+G4H, Jl. Diryokusumo, Jonggrangan, Srihardono, Kec. Pundong, Kabupaten Bantul, Daerah Istimewa Yogyakarta 55771";"Jl. Diryokusumo, Jonggrangan, Srihardono, Kec. Pundong, Kabupaten Bantul";"DAERAH ISTIMEWA YOGYAKARTA";"55771";"Indonesia";" 085729238950";"";"";"-7.9486807";"110.355374";"https://maps.google.com/?cid=0x0:0x670cd4371b6d3677";""
"mall";"";"Lancar Jumangkah";"28MM+9HP, Watu, Panjangrejo, Kec. Pundong, Kabupaten Bantul, Daerah Istimewa Yogyakarta 55771";"Watu, Panjangrejo, Kec. Pundong, Kabupaten Bantul";"DAERAH ISTIMEWA YOGYAKARTA";"55771";"Indonesia";" 02747103923";"";"";"-7.9665461";"110.3339446";"https://maps.google.com/?cid=0x0:0xb9c9b8e50a4be91f";""
"mall";"Toko";"SAHILA GROUP";"28VW+V7H, Pundong, Srihardono, Kec. Pundong, Kabupaten Bantul, Daerah Istimewa Yogyakarta 55771";"Pundong, Srihardono, Kec. Pundong, Kabupaten Bantul";"DAERAH ISTIMEWA YOGYAKARTA";"55771";"Indonesia";" 088233310339";"";"";"-7.9553108";"110.3457491";"https://maps.google.com/?cid=0x0:0x2962da5f1880c8e9";""
"mall";"Toko Suvenir Pernikahan";"Mas ardisouvenir";"28GJ+MGC, Jetis, Panjangrejo, Kec. Pundong, Kabupaten Bantul, Daerah Istimewa Yogyakarta 55771";"Jetis, Panjangrejo, Kec. Pundong, Kabupaten Bantul";"DAERAH ISTIMEWA YOGYAKARTA";"55771";"Indonesia";" 089527961999";"";"";"-7.9733173";"110.3312774";"https://maps.google.com/?cid=0x0:0x2685f1e0c738287d";""
"mall";"Toko";"JY cell";"3934+J2G, Jonggrangan, Srihardono, Kec. Pundong, Kabupaten Bantul, Daerah Istimewa Yogyakarta 55771";"Jonggrangan, Srihardono, Kec. Pundong, Kabupaten Bantul";"DAERAH ISTIMEWA YOGYAKARTA";"55771";"Indonesia";"";"";"";"-7.9459351";"110.3550888";"https://maps.google.com/?cid=0x0:0xf5b961c48e0e334b";""
"mall";"Pabrik Keramik";"Klutik Pottery";"Jetis, Panjangrejo, Kec. Pundong, Kabupaten Bantul, Daerah Istimewa Yogyakarta 55771";"Panjangrejo, Kec. Pundong, Kabupaten Bantul";"DAERAH ISTIMEWA YOGYAKARTA";"55771";"Indonesia";" 085540622983";"";"";"-7.9709506";"110.3307749";"https://maps.google.com/?cid=0x0:0x3a127cd6d6371d6f";""
"mall";"Pusat Perbelanjaan";"Warung Bu Asih";"29P4+8H4 Gudang Rejo, Nambangan, Seloharjo, Kec. Pundong, Kabupaten Bantul, Daerah Istimewa Yogyakarta 55771";"Nambangan, Seloharjo, Kec. Pundong, Kabupaten Bantul";"DAERAH ISTIMEWA YOGYAKARTA";"55771";"Indonesia";" 085228571500";"";"";"-7.9642381";"110.3564449";"https://maps.google.com/?cid=0x0:0xca24514670e5faa6";""
"mall";"Pusat Perbelanjaan";"Toko Klontong Pak Robi";"28JM+626, Unnamed Road, Watu, Panjangrejo, Kec. Pundong, Kabupaten Bantul, Daerah Istimewa Yogyakarta 55771";"Unnamed Road, Watu, Panjangrejo, Kec. Pundong, Kabupaten Bantul";"DAERAH ISTIMEWA YOGYAKARTA";"55771";"Indonesia";" 085868684403";"";"";"-7.9694617";"110.3325158";"https://maps.google.com/?cid=0x0:0x7d1d641c5f365ff7";""
"mall";"Pasar Petani";"Tri Mulyono Lombok";"289M+RH7, Ngentak, Seloharjo, Kec. Pundong, Kabupaten Bantul, Daerah Istimewa Yogyakarta 55771";"Ngentak, Seloharjo, Kec. Pundong, Kabupaten Bantul";"DAERAH ISTIMEWA YOGYAKARTA";"55771";"Indonesia";" 081804272318";"";"";"-7.9804582";"110.3339362";"https://maps.google.com/?cid=0x0:0x7fd6071cca83fbd8";""
"mall";"Pertanian";"Serba Serbi Bibit";"28WX+H6M, Pundong, Srihardono, Kec. Pundong, Kabupaten Bantul, Daerah Istimewa Yogyakarta 55771";"Pundong, Srihardono, Kec. Pundong, Kabupaten Bantul";"DAERAH ISTIMEWA YOGYAKARTA";"55771";"Indonesia";" 0895390525352";"";"";"-7.9535267";"110.3480333";"https://maps.google.com/?cid=0x0:0x241ba19ca28f9bc6";""
"mall";"mall";"Daerah Istimewa Yogyakarta 55771";"Kec. Pundong, Kabupaten Bantul, Daerah Istimewa Yogyakarta";"Kabupaten Bantul, Daerah Istimewa Yogyakarta";"DAERAH ISTIMEWA YOGYAKARTA";"";"Indonesia";"";"";"";"-7.9675496";"110.3368391";"https://maps.google.com/?cid=0x0:0x1c00c5eb5b53c2f0";""
"mall";"Pusat Perbelanjaan";"PotiCk Tinuta";"Tangkil RT. 03, Tangkil, Srihardono, Kec. Pundong, Kabupaten Bantul, Daerah Istimewa Yogyakarta 55771";"Tangkil, Srihardono, Kec. Pundong, Kabupaten Bantul";"DAERAH ISTIMEWA YOGYAKARTA";"55771";"Indonesia";" 0817273759";"";"";"-7.9470588";"110.3485794";"https://maps.google.com/?cid=0x0:0xb5b62315ab554c78";""
"mall";"Pengekspor kerajinan tangan";"Mantex craft";"Watu, Panjangrejo, Kec. Pundong, Kabupaten Bantul, Daerah Istimewa Yogyakarta 55771";"Panjangrejo, Kec. Pundong, Kabupaten Bantul";"DAERAH ISTIMEWA YOGYAKARTA";"55771";"Indonesia";" 085713321116";"";"/url?q>>u003dhttp://mantexcraft.blogspot.com/>>u0026opi>>u003d79508299>>u0026sa>>u003dU>>u0026ved>>u003d0ahUKEwi5rOSIqf-LAxXgcWwGHf04GNAQ61gIFigS>>u0026usg>>u003dAOvVaw0lGNP-NJmcRRzg9CB6eECz";"-7.9700111";"110.3308832";"https://maps.google.com/?cid=0x0:0x1ad571b17914ab66";""
"mall";"Pusat Perbelanjaan";"BERKAH BAROKAH SALE";"28V8+P4M, Tulus, Mulyodadi, Kec. Bambanglipuro, Kabupaten Bantul, Daerah Istimewa Yogyakarta 55764";"Tulus, Mulyodadi, Kec. Bambanglipuro, Kabupaten Bantul";"DAERAH ISTIMEWA YOGYAKARTA";"55764";"Indonesia";" 081393079748";"";"";"-7.955666";"110.3152883";"https://maps.google.com/?cid=0x0:0xad25e7d46986104a";""
"mall";"Toko Swalayan";"Modela Toserba ganjuran";"38F9+773, Jl. Ganjuran, Jogodayoh, Sumbermulyo, Kec. Bambanglipuro, Kabupaten Bantul, Daerah Istimewa Yogyakarta 55764";"Jl. Ganjuran, Jogodayoh, Sumbermulyo, Kec. Bambanglipuro, Kabupaten Bantul";"DAERAH ISTIMEWA YOGYAKARTA";"55764";"Indonesia";"";"";"";"-7.9268693";"110.3181588";"https://maps.google.com/?cid=0x0:0x7f910da6c3c6ecad";""
"mall";"Pusat Perbelanjaan";"PUSAT CRYSTAL X BANTUL";"387F+Q23, Jl. Caben, Gunungan, Sumbermulyo, Kec. Bambanglipuro, Kabupaten Bantul, Daerah Istimewa Yogyakarta 55764";"Jl. Caben, Gunungan, Sumbermulyo, Kec. Bambanglipuro, Kabupaten Bantul";"DAERAH ISTIMEWA YOGYAKARTA";"55764";"Indonesia";" 085950548222";"";"/url?q>>u003dhttp://endahwahyuningsihnasabantul.blogspot.com/>>u0026opi>>u003d79508299>>u0026sa>>u003dU>>u0026ved>>u003d0ahUKEwjI4OOZqf-LAxVQwzgGHY6WMJcQ61gIFSgR>>u0026usg>>u003dAOvVaw1ushAM2yqDaBgxZPnHDVSd";"-7.9356107";"110.3225427";"https://maps.google.com/?cid=0x0:0x67e6abacf1215e41";""
"mall";"Pusat Perbelanjaan";"Toko Pojok";"27VW+3X6, Prenggan, Sidomulyo, Kec. Bambanglipuro, Kabupaten Bantul, Daerah Istimewa Yogyakarta 55764";"Prenggan, Sidomulyo, Kec. Bambanglipuro, Kabupaten Bantul";"DAERAH ISTIMEWA YOGYAKARTA";"55764";"Indonesia";"";"";"";"-7.9573288";"110.2973856";"https://maps.google.com/?cid=0x0:0x44fbed32bb2e195c";""
"mall";"Toko";"Toko Berkah";"389G+2W9, Plumbungan, Sumbermulyo, Kec. Bambanglipuro, Kabupaten Bantul, Daerah Istimewa Yogyakarta 55764";"Plumbungan, Sumbermulyo, Kec. Bambanglipuro, Kabupaten Bantul";"DAERAH ISTIMEWA YOGYAKARTA";"55764";"Indonesia";" 087705086678";"";"";"-7.932473";"110.3273467";"https://maps.google.com/?cid=0x0:0x9275555fa5b82fa4";""
"mall";"Pusat Perbelanjaan";"Marfuah Market";"28R3+HCV, Plebengan, Sidomulyo, Kec. Bambanglipuro, Kabupaten Bantul, Daerah Istimewa Yogyakarta 55764";"Plebengan, Sidomulyo, Kec. Bambanglipuro, Kabupaten Bantul";"DAERAH ISTIMEWA YOGYAKARTA";"55764";"Indonesia";"";"";"";"-7.9585123";"110.3035355";"https://maps.google.com/?cid=0x0:0xd021babeec7275c7";""
"mall";"Pusat Perbelanjaan";"GUBUG BIMO";"28X3+X66, Plemantung, Sidomulyo, Kec. Bambanglipuro, Kabupaten Bantul, Daerah Istimewa Yogyakarta 55764";"Plemantung, Sidomulyo, Kec. Bambanglipuro, Kabupaten Bantul";"DAERAH ISTIMEWA YOGYAKARTA";"55764";"Indonesia";"";"";"";"-7.9500869";"110.3030143";"https://maps.google.com/?cid=0x0:0x731ca39922f3398b";""
"mall";"Pusat Perbelanjaan";"Cinta Kasih";"38F9+9G6, Jogodayoh, Sumbermulyo, Kec. Bambanglipuro, Kabupaten Bantul, Daerah Istimewa Yogyakarta 55764";"Jogodayoh, Sumbermulyo, Kec. Bambanglipuro, Kabupaten Bantul";"DAERAH ISTIMEWA YOGYAKARTA";"55764";"Indonesia";" 085743991999";"";"";"-7.926581";"110.3187516";"https://maps.google.com/?cid=0x0:0x6044a6d19fe6be00";""
"mall";"Pusat Perbelanjaan";"Distrix Mart  Cell";"Koripan, Palihan, Sidomulyo, Kec. Bambanglipuro, Kabupaten Bantul, Daerah Istimewa Yogyakarta 55764";"Palihan, Sidomulyo, Kec. Bambanglipuro, Kabupaten Bantul";"DAERAH ISTIMEWA YOGYAKARTA";"55764";"Indonesia";"";"";"";"-7.948298";"110.293054";"https://maps.google.com/?cid=0x0:0x440ef0b4d71846d6";""
"mall";"Pusat Perbelanjaan";"By Bettafish";"28X9+P96, Unnamed Road, Plumutan, Mulyodadi, Kec. Bambanglipuro, Kabupaten Bantul, Daerah Istimewa Yogyakarta 55764";"Unnamed Road, Plumutan, Mulyodadi, Kec. Bambanglipuro, Kabupaten Bantul";"DAERAH ISTIMEWA YOGYAKARTA";"55764";"Indonesia";" 083838339331";"";"";"-7.9507029";"110.3184027";"https://maps.google.com/?cid=0x0:0x3b5f77c3d5f7be5d";""
"mall";"Toko";"Toko Bu Cunik";"38CF+MP3, Kaligondang, Sumbermulyo, Kec. Bambanglipuro, Kabupaten Bantul, Daerah Istimewa Yogyakarta 55764";"Kaligondang, Sumbermulyo, Kec. Bambanglipuro, Kabupaten Bantul";"DAERAH ISTIMEWA YOGYAKARTA";"55764";"Indonesia";"";"";"";"-7.9283637";"110.324294";"https://maps.google.com/?cid=0x0:0x28c1e8071046eef0";""
"mall";"Toko";"Toko Plastik  Dos "MBALI JAYA" """;"Rt:05, Ngambah, Mulyodadi, Kec. Bambanglipuro, Kabupaten Bantul, Daerah Istimewa Yogyakarta 55764";"Ngambah, Mulyodadi, Kec. Bambanglipuro, Kabupaten Bantul";"DAERAH ISTIMEWA YOGYAKARTA";"55764";"Indonesia";" 081335566779";"";"";"-7.9469406";"110.3130695";"https://maps.google.com/?cid=0x0:0x2fa2e5840475464f";""
"mall";"Mal outlet";"Raja mendho";"28X3+RX2, Plemantung, Sidomulyo, Kec. Bambanglipuro, Kabupaten Bantul, Daerah Istimewa Yogyakarta 55764";"Plemantung, Sidomulyo, Kec. Bambanglipuro, Kabupaten Bantul";"DAERAH ISTIMEWA YOGYAKARTA";"55764";"Indonesia";" 083188294849";"";"";"-7.9502861";"110.3048885";"https://maps.google.com/?cid=0x0:0x1148008570925676";""
"mall";"Pusat Perbelanjaan";"ANZ_JOGJA";"cangkring,rt 03, Plumutan, Mulyodadi, Kec. Bambanglipuro, Kabupaten Bantul, Daerah Istimewa Yogyakarta 55764";"Plumutan, Mulyodadi, Kec. Bambanglipuro, Kabupaten Bantul";"DAERAH ISTIMEWA YOGYAKARTA";"55764";"Indonesia";"";"";"";"-7.9602357";"110.3161141";"https://maps.google.com/?cid=0x0:0x63b7b85b5a133ec2";""
"mall";"Toko umum";"MEGA CELL acc bansel";"28VC+9M5, Paker, Mulyodadi, Kec. Bambanglipuro, Kabupaten Bantul, Daerah Istimewa Yogyakarta 55764";"Paker, Mulyodadi, Kec. Bambanglipuro, Kabupaten Bantul";"DAERAH ISTIMEWA YOGYAKARTA";"55764";"Indonesia";" 085876444567";"";"";"-7.9566187";"110.3217289";"https://maps.google.com/?cid=0x0:0xbb356fd87505c5dd";""
"mall";"Pusat Perbelanjaan";"Aqila sembako";"3843+FGM, Unnamed Road, Carikan, Mulyodadi, Kec. Bambanglipuro, Kabupaten Bantul, Daerah Istimewa Yogyakarta 55764";"Unnamed Road, Carikan, Mulyodadi, Kec. Bambanglipuro, Kabupaten Bantul";"DAERAH ISTIMEWA YOGYAKARTA";"55764";"Indonesia";" 081931770806";"";"";"-7.9437771";"110.3038056";"https://maps.google.com/?cid=0x0:0xe64b38eae463b690";""
"mall";"Pusat Perbelanjaan";"Siti Milagros";"Gg. Sawo Kepel, Tulus, Mulyodadi, Kec. Bambanglipuro, Kabupaten Bantul, Daerah Istimewa Yogyakarta 55764";"Tulus, Mulyodadi, Kec. Bambanglipuro, Kabupaten Bantul";"DAERAH ISTIMEWA YOGYAKARTA";"55764";"Indonesia";" 082226590622";"";"";"-7.9547283";"110.3158463";"https://maps.google.com/?cid=0x0:0x9b4a8a53663cc52b";""
"mall";"Pusat Perbelanjaan";"Kece_bettafish";"Tempel RT.03, Palihan, Sidomulyo, Kec. Bambanglipuro, Kabupaten Bantul, Daerah Istimewa Yogyakarta 55764";"Palihan, Sidomulyo, Kec. Bambanglipuro, Kabupaten Bantul";"DAERAH ISTIMEWA YOGYAKARTA";"55764";"Indonesia";" 081225336768";"";"/url?q>>u003dhttps://shopee.co.id/paulushendi123%3Fv%3Dad7%26smtt%3D0.0.3>>u0026opi>>u003d79508299>>u0026sa>>u003dU>>u0026ved>>u003d0ahUKEwjmktGdqf-LAxXNR2wGHcTYAkQQ61gIFigS>>u0026usg>>u003dAOvVaw0o1UmJN60Pmu_LN6CNeUZp";"-7.9517162";"110.2944981";"https://maps.google.com/?cid=0x0:0x1f050797aea0f5fb";""
"mall";"Toko";"Jogja beauty case";"3834+QR7, Gg. Nilem, Kepuh, Mulyodadi, Kec. Bambanglipuro, Kabupaten Bantul, Daerah Istimewa Yogyakarta 55764";"Gg. Nilem, Kepuh, Mulyodadi, Kec. Bambanglipuro, Kabupaten Bantul";"DAERAH ISTIMEWA YOGYAKARTA";"55764";"Indonesia";"";"";"";"-7.945588";"110.3070328";"https://maps.google.com/?cid=0x0:0x653f52d4e510de48";""
"mall";"mall";"Daerah Istimewa Yogyakarta 55764";"Kec. Bambanglipuro, Kabupaten Bantul, Daerah Istimewa Yogyakarta";"Kabupaten Bantul, Daerah Istimewa Yogyakarta";"DAERAH ISTIMEWA YOGYAKARTA";"";"Indonesia";"";"";"";"-7.9481229";"110.3130087";"https://maps.google.com/?cid=0x0:0x1c00c5eb5b53c2e0";""
"mall";"Pusat Perbelanjaan";"Tempe Koro Mbah Sam";"Jl. Glodogan No.RT.04, Kuwon, Sidomulyo, Kec. Bambanglipuro, Kabupaten Bantul, Daerah Istimewa Yogyakarta 55764";"Kuwon, Sidomulyo, Kec. Bambanglipuro, Kabupaten Bantul";"DAERAH ISTIMEWA YOGYAKARTA";"55764";"Indonesia";"";"";"";"-7.9685134";"110.312455";"https://maps.google.com/?cid=0x0:0x514ed85f41ac8d94";""
"mall";"Pusat Perbelanjaan";"Outlet shalsa /preloved.Cha";"Jl. Parangtritis No.21, Gedongan, Panjangrejo, Kec. Pundong, Kabupaten Bantul, Daerah Istimewa Yogyakarta 55764";"Gedongan, Panjangrejo, Kec. Pundong, Kabupaten Bantul";"DAERAH ISTIMEWA YOGYAKARTA";"55764";"Indonesia";" 081367082481";"";"";"-7.9629793";"110.3222297";"https://maps.google.com/?cid=0x0:0xe61990ff7cbb07a7";""
"mall";"Pusat Perbelanjaan";"BERKAH SAYUR  SEMBAKO";"Jl. Siten No.RT 05, Tangkilan, Sumbermulyo, Kec. Bambanglipuro, Kabupaten Bantul, Daerah Istimewa Yogyakarta 55764";"Tangkilan, Sumbermulyo, Kec. Bambanglipuro, Kabupaten Bantul";"DAERAH ISTIMEWA YOGYAKARTA";"55764";"Indonesia";"";"";"";"-7.9292187";"110.3078832";"https://maps.google.com/?cid=0x0:0xa20837ee8595c4a9";""
"mall";"Toko bahan makanan";"Toko kelontong MB tini";"385F+CWM, Gunungan, Sumbermulyo, Kec. Bambanglipuro, Kabupaten Bantul, Daerah Istimewa Yogyakarta 55764";"Gunungan, Sumbermulyo, Kec. Bambanglipuro, Kabupaten Bantul";"DAERAH ISTIMEWA YOGYAKARTA";"55764";"Indonesia";" 089649388625";"";"";"-7.9414082";"110.3248091";"https://maps.google.com/?cid=0x0:0xfba85d81dacf0048";""
"mall";"Pusat Perbelanjaan";"Warung Mbak Ilah";"28RC+C8G, Unnamed Road, Paker, Mulyodadi, Kec. Bambanglipuro, Kabupaten Bantul, Daerah Istimewa Yogyakarta 55764";"Unnamed Road, Paker, Mulyodadi, Kec. Bambanglipuro, Kabupaten Bantul";"DAERAH ISTIMEWA YOGYAKARTA";"55764";"Indonesia";"";"";"";"-7.9589274";"110.320841";"https://maps.google.com/?cid=0x0:0xed5df14577cf4817";""
"mall";"Toko bahan makanan";"PERMATA SWALAYAN";"37VV+9GJ, njuron, Gedongsari, Wijirejo, Kec. Pandak, Kabupaten Bantul, Daerah Istimewa Yogyakarta 55761";"njuron, Gedongsari, Wijirejo, Kec. Pandak, Kabupaten Bantul";"DAERAH ISTIMEWA YOGYAKARTA";"55761";"Indonesia";" 085643555950";"";"";"-7.906534";"110.2937624";"https://maps.google.com/?cid=0x0:0x494e4c732aee6e95";""
"mall";"Toko Makanan Sehat";"Geplak Eco Asli Bantul";"37FJ+2Q2, Jigudan, Triharjo, Kec. Pandak, Kabupaten Bantul, Daerah Istimewa Yogyakarta 55761";"Jigudan, Triharjo, Kec. Pandak, Kabupaten Bantul";"DAERAH ISTIMEWA YOGYAKARTA";"55761";"Indonesia";"";"";"";"-7.9274883";"110.2818881";"https://maps.google.com/?cid=0x0:0x5888bb1793492b0c";""
"mall";"Toko";"Toko Cahaya";"379F+973, Jl. Raya Sanden, Puluhan Kidul, Caturharjo, Kec. Pandak, Kabupaten Bantul, Daerah Istimewa Yogyakarta 55761";"Jl. Raya Sanden, Puluhan Kidul, Caturharjo, Kec. Pandak, Kabupaten Bantul";"DAERAH ISTIMEWA YOGYAKARTA";"55761";"Indonesia";"";"";"";"-7.9316229";"110.2731872";"https://maps.google.com/?cid=0x0:0xdb05c1ad0ff96961";""
"mall";"Pusat Perbelanjaan";"Stockist Nasa Pandak";"Siyangan Rt 006, Juwono, Triharjo, Kec. Pandak, Kabupaten Bantul, Daerah Istimewa Yogyakarta 55761";"Juwono, Triharjo, Kec. Pandak, Kabupaten Bantul";"DAERAH ISTIMEWA YOGYAKARTA";"55761";"Indonesia";" 088227399499";"";"";"-7.9156084";"110.2781368";"https://maps.google.com/?cid=0x0:0x3f38d44d39454188";""
"mall";"Toko Pakaian";"Showroom Kampung Batik Tirto Triharjo Pandak Bantul";"37GQ+4H6, Tirto, Triharjo, Kec. Pandak, Kabupaten Bantul, Daerah Istimewa Yogyakarta 55761";"Tirto, Triharjo, Kec. Pandak, Kabupaten Bantul";"DAERAH ISTIMEWA YOGYAKARTA";"55761";"Indonesia";" 08122789983";"";"";"-7.9247106";"110.2888807";"https://maps.google.com/?cid=0x0:0x7f0aadbf31183c32";""
"mall";"Toserba";"Toko Moncher";"37GQ+3XP, Jaten, Triharjo, Kec. Pandak, Kabupaten Bantul, Daerah Istimewa Yogyakarta 55761";"Jaten, Triharjo, Kec. Pandak, Kabupaten Bantul";"DAERAH ISTIMEWA YOGYAKARTA";"55761";"Indonesia";"";"";"";"-7.924792";"110.289955";"https://maps.google.com/?cid=0x0:0xa542a1c4c0e46687";""
"mall";"Toko";"Andrian OLShop/Pusat CRISTAL X n Cofc Pandak";"3748+RFR, dukuh dampulan, Kaprakan, Caturharjo, Pandak, Bantul Regency, Special Region of Yogyakarta 55761";"dukuh dampulan, Kaprakan, Caturharjo, Pandak, Bantul Regency";"DAERAH ISTIMEWA YOGYAKARTA";"55761";"Indonesia";" 08174124514";"";"";"-7.9428974";"110.2661431";"https://maps.google.com/?cid=0x0:0x18174242402ed338";""
"mall";"Toko bahan makanan";"Lapak Putri Store Bantul Yogyakarta";"37GF+352, Ngabean, RT.01, Gunturan, Triharjo, Kec. Pandak, Kabupaten Bantul, Daerah Istimewa Yogyakarta 55761";"Ngabean, RT.01, Gunturan, Triharjo, Kec. Pandak, Kabupaten Bantul";"DAERAH ISTIMEWA YOGYAKARTA";"55761";"Indonesia";" 089671760322";"";"";"-7.9248697";"110.2728791";"https://maps.google.com/?cid=0x0:0x5f92a11d65c547e8";""
"mall";"Pemasok Produk Makanan";"Oleh Oleh Bantul Yogyakarta";"Jigudan rt 05, Jigudan, Triharjo, Kec. Pandak, Kabupaten Bantul, Daerah Istimewa Yogyakarta 55761";"Jigudan, Triharjo, Kec. Pandak, Kabupaten Bantul";"DAERAH ISTIMEWA YOGYAKARTA";"55761";"Indonesia";" 087738242244";"";"";"-7.9267345";"110.2816378";"https://maps.google.com/?cid=0x0:0xa6c1185d3823fda2";""
"mall";"Toko Makanan";"Omah Ndeso";"379V+X8M, gunting, RT.01, Karanggede, Gilangharjo, Kec. Pandak, Kabupaten Bantul, Daerah Istimewa Yogyakarta 55761";"gunting, RT.01, Karanggede, Gilangharjo, Kec. Pandak, Kabupaten Bantul";"DAERAH ISTIMEWA YOGYAKARTA";"55761";"Indonesia";" 081934436837";"";"";"-7.93005";"110.293305";"https://maps.google.com/?cid=0x0:0x4cdd96e52e8ed9";""
"mall";"Pasar";"Pasar Grosir Jogja";"3882+8CC, banjarwaru, Krekah, Gilangharjo, Kec. Pandak, Kabupaten Bantul, Daerah Istimewa Yogyakarta 55761";"banjarwaru, Krekah, Gilangharjo, Kec. Pandak, Kabupaten Bantul";"DAERAH ISTIMEWA YOGYAKARTA";"55761";"Indonesia";" 081328960719";"";"";"-7.9341859";"110.3010029";"https://maps.google.com/?cid=0x0:0xf4eaf1a8fccfee41";""
"mall";"Pusat Perbelanjaan";"Indoberas";"38W5+WMP, Jodog, Gilangharjo, Kec. Pandak, Kabupaten Bantul, Daerah Istimewa Yogyakarta 55761";"Jodog, Gilangharjo, Kec. Pandak, Kabupaten Bantul";"DAERAH ISTIMEWA YOGYAKARTA";"55761";"Indonesia";" 081391911667";"";"";"-7.902654";"110.3092036";"https://maps.google.com/?cid=0x0:0x878e0ab13264b460";""
"mall";"Toko Pakaian";"Toko "JM Market"";"Jl. Srandakan Km. 1 Karangasem RT 01, Gilangharjo, Kapanewon Pandak, Kabupaten Bantul, Daerah Istimewa Yogyakarta 55761";"Gilangharjo, Kapanewon Pandak, Kabupaten Bantul";"DAERAH ISTIMEWA YOGYAKARTA";"55761";"Indonesia";" 0274368846";"";"";"-7.9064058";"110.3127712";"https://maps.google.com/?cid=0x0:0x67694807ee2311c4";""
"mall";"Minimarket";"Warung Klontong Bu Marni";"38R3+W37, bajang, Pandak, Wijirejo, Kec. Pandak, Kabupaten Bantul, Daerah Istimewa Yogyakarta 55761";"bajang, Pandak, Wijirejo, Kec. Pandak, Kabupaten Bantul";"DAERAH ISTIMEWA YOGYAKARTA";"55761";"Indonesia";"";"";"";"-7.9077023";"110.302669";"https://maps.google.com/?cid=0x0:0x85f07b4e073f8120";""
"mall";"Pusat Perbelanjaan";"AnugrahShop(ꦄꦤꦸꦒꦿꦃꦱ꧀ꦲꦺꦴꦥ꧀)";"Gunting, Gilangharjo, Kec. Pandak, Kabupaten Bantul, Daerah Istimewa Yogyakarta 55761";"Gilangharjo, Kec. Pandak, Kabupaten Bantul";"DAERAH ISTIMEWA YOGYAKARTA";"55761";"Indonesia";" 08812946528";"";"";"-7.9334201";"110.2924474";"https://maps.google.com/?cid=0x0:0xf957d17e5ac16057";""
"mall";"Pusat Perbelanjaan";"Kefvin Kembang Kambil";"37RM+PJ8, Kwalangan, Wijirejo, Kec. Pandak, Kabupaten Bantul, Daerah Istimewa Yogyakarta 55761";"Kwalangan, Wijirejo, Kec. Pandak, Kabupaten Bantul";"DAERAH ISTIMEWA YOGYAKARTA";"55761";"Indonesia";" 082314482516";"";"";"-7.9082041";"110.2840867";"https://maps.google.com/?cid=0x0:0xdfe3edcf2adf82b6";""
"mall";"Pusat Perbelanjaan";"ERRI HNI";"RW.01, Gedongsari, Wijirejo, Kec. Pandak, Kabupaten Bantul, Daerah Istimewa Yogyakarta 55761";"Gedongsari, Wijirejo, Kec. Pandak, Kabupaten Bantul";"DAERAH ISTIMEWA YOGYAKARTA";"55761";"Indonesia";" 085743254401";"";"";"-7.9148789";"110.2937564";"https://maps.google.com/?cid=0x0:0xd81a78c5c2670f80";""
"mall";"Pusat Perbelanjaan";"Stockist Nasa Yanti Pandak";"Dukuhdampulan Rt 04 Krapakan, Kaprakan, Caturharjo, Kec. Pandak, Kabupaten Bantul, Daerah Istimewa Yogyakarta 55761";"Kaprakan, Caturharjo, Kec. Pandak, Kabupaten Bantul";"DAERAH ISTIMEWA YOGYAKARTA";"55761";"Indonesia";" 085727655039";"";"";"-7.9410755";"110.2655251";"https://maps.google.com/?cid=0x0:0xaaf7fc2cc6e3010";""
"mall";"Pusat Perbelanjaan";"Pakuwon Mall Jogja";"Jl. Ring Road Utara, Kaliwaru, Condongcatur, Kec. Depok, Kabupaten Sleman, Daerah Istimewa Yogyakarta 55281";"Kaliwaru, Condongcatur, Kec. Depok, Kabupaten Sleman";"DAERAH ISTIMEWA YOGYAKARTA";"55281";"Indonesia";" 02742924095";"";"/url?q>>u003dhttps://pakuwonmalljogja.com/>>u0026opi>>u003d79508299>>u0026sa>>u003dU>>u0026ved>>u003d0ahUKEwibkYm2qf-LAxVzSmwGHW1eEl4Q61gIFigS>>u0026usg>>u003dAOvVaw1owQAMi1w1Qj28xUG98AFz";"-7.7588094";"110.3992739";"https://maps.google.com/?cid=0x0:0xa864a4f7fe95e090";""
"mall";"mall";"Daerah Istimewa Yogyakarta 55761";"Kec. Pandak, Kabupaten Bantul, Daerah Istimewa Yogyakarta";"Kabupaten Bantul, Daerah Istimewa Yogyakarta";"DAERAH ISTIMEWA YOGYAKARTA";"";"Indonesia";"";"";"";"-7.9129225";"110.2951364";"https://maps.google.com/?cid=0x0:0x1c00c5eb5b53c2b0";""
"mall";"Toko Alat Musik";"Allea Drumband";"38R5+64P, bajangtempel, Karangasem, Gilangharjo, Kec. Pandak, Kabupaten Bantul, Daerah Istimewa Yogyakarta 55761";"bajangtempel, Karangasem, Gilangharjo, Kec. Pandak, Kabupaten Bantul";"DAERAH ISTIMEWA YOGYAKARTA";"55761";"Indonesia";" 08562542027";"";"";"-7.9094149";"110.3078232";"https://maps.google.com/?cid=0x0:0xd8f4f6c3486870db";""
"mall";"Pusat Perbelanjaan";"Revaltashop 2";"38P5+8X3, Joboran, Gilangharjo, Kec. Pandak, Kabupaten Bantul, Daerah Istimewa Yogyakarta 55761";"Joboran, Gilangharjo, Kec. Pandak, Kabupaten Bantul";"DAERAH ISTIMEWA YOGYAKARTA";"55761";"Indonesia";" 0895355430075";"";"";"-7.9142382";"110.3099162";"https://maps.google.com/?cid=0x0:0x8c2f2d233edf7133";""
"mall";"Pusat Perbelanjaan";"Nana Online Shop SMKN Pandak";"37GV+FRH, Ngaran, Gilangharjo, Kec. Pandak, Kabupaten Bantul, Daerah Istimewa Yogyakarta 55761";"Ngaran, Gilangharjo, Kec. Pandak, Kabupaten Bantul";"DAERAH ISTIMEWA YOGYAKARTA";"55761";"Indonesia";"";"";"";"-7.923819";"110.2946181";"https://maps.google.com/?cid=0x0:0x6d3040c4edfde088";""
"mall";"Pusat Perbelanjaan";"Gubuk NUK_SHOP mr. Oziik";"Jl. Sedayu-Gesikan Gesikan IlI No.Rt 04, Gesikan II, Wijirejo, Kec. Pandak, Kabupaten Bantul, Daerah Istimewa Yogyakarta 55761";"Gesikan II, Wijirejo, Kec. Pandak, Kabupaten Bantul";"DAERAH ISTIMEWA YOGYAKARTA";"55761";"Indonesia";" 085600980553";"";"";"-7.8988763";"110.304399";"https://maps.google.com/?cid=0x0:0xd726d508705f8243";""
"mall";"Pusat Perbelanjaan";"Fitria Group";"38J5+GX7, Jl. Bantulan, Kauman, Gilangharjo, Kec. Pandak, Kabupaten Bantul, Daerah Istimewa Yogyakarta 55761";"Jl. Bantulan, Kauman, Gilangharjo, Kec. Pandak, Kabupaten Bantul";"DAERAH ISTIMEWA YOGYAKARTA";"55761";"Indonesia";" 081938800045";"";"";"-7.918708";"110.3099364";"https://maps.google.com/?cid=0x0:0x6c14a9521dfcd057";""
"mall";"Pusat Perbelanjaan";"Mandiri 47";"Jl. HOS. Cokro Aminoto Jl. Badegan No.47 Rt 09, Nyangkringan, Bantul, Kec. Bantul, Kabupaten Bantul, Daerah Istimewa Yogyakarta 55711";"Nyangkringan, Bantul, Kec. Bantul, Kabupaten Bantul";"DAERAH ISTIMEWA YOGYAKARTA";"55711";"Indonesia";" 0274367368";"";"";"-7.8897175";"110.3318814";"https://maps.google.com/?cid=0x0:0xe4c0dd41a5c0bd35";""
"mall";"Pusat Perbelanjaan";"Pakuwon Mall Jogja";"Jl. Ring Road Utara, Kaliwaru, Condongcatur, Kec. Depok, Kabupaten Sleman, Daerah Istimewa Yogyakarta 55281";"Kaliwaru, Condongcatur, Kec. Depok, Kabupaten Sleman";"DAERAH ISTIMEWA YOGYAKARTA";"55281";"Indonesia";" 02742924095";"";"/url?q>>u003dhttps://pakuwonmalljogja.com/>>u0026opi>>u003d79508299>>u0026sa>>u003dU>>u0026ved>>u003d0ahUKEwj17JzJqf-LAxWb4zgGHUccIIgQ61gIFigS>>u0026usg>>u003dAOvVaw3AxIl5FHNf0jNojc4xzgbo";"-7.7588094";"110.3992739";"https://maps.google.com/?cid=0x0:0xa864a4f7fe95e090";""
"mall";"Pasar";"Pasar Kliwon Bantul";"488H+796, Jl. Moh. Yamin No.41-21, Kurahan, Bantul, Kec. Bantul, Kabupaten Bantul, Daerah Istimewa Yogyakarta 55711";"Jl. Moh. Yamin No.41-21, Kurahan, Bantul, Kec. Bantul, Kabupaten Bantul";"DAERAH ISTIMEWA YOGYAKARTA";"55711";"Indonesia";"";"";"";"-7.8843748";"110.3250168";"https://maps.google.com/?cid=0x0:0x6b776cf58190f1ba";""
"mall";"Pusat Perbelanjaan";"Plaza Ambarrukmo";"Jl. Laksda Adisucipto No.80, Ambarukmo, Caturtunggal, Kec. Depok, Kabupaten Sleman, Daerah Istimewa Yogyakarta 55281";"Ambarukmo, Caturtunggal, Kec. Depok, Kabupaten Sleman";"DAERAH ISTIMEWA YOGYAKARTA";"55281";"Indonesia";" 02744331000";"";"/url?q>>u003dhttps://www.plaza-ambarrukmo.co.id/>>u0026opi>>u003d79508299>>u0026sa>>u003dU>>u0026ved>>u003d0ahUKEwj5zPbJqf-LAxVEyDgGHf6XLRcQ61gIFigS>>u0026usg>>u003dAOvVaw2H_fq6Vn9AuJ2Ai1kD05Sx";"-7.7825776";"110.4010956";"https://maps.google.com/?cid=0x0:0x1ce91a3c5aa8b3bc";""
"mall";"Pusat Perbelanjaan";"Bantul Family Group";"Puskesmas, Jl. Bantul Km 9 Geblag depan, Gandekan, Bantul, Kec. Bantul, Kabupaten Bantul, Daerah Istimewa Yogyakarta 55711";"Jl. Bantul Km 9 Geblag depan, Gandekan, Bantul, Kec. Bantul, Kabupaten Bantul";"DAERAH ISTIMEWA YOGYAKARTA";"55711";"Indonesia";" 082314516390";"";"/url?q>>u003dhttp://sbflash.com/>>u0026opi>>u003d79508299>>u0026sa>>u003dU>>u0026ved>>u003d0ahUKEwir0o7Kqf-LAxVqxzgGHWHaAjoQ61gIFigS>>u0026usg>>u003dAOvVaw1jwg-qvuBTWX3L-2CBqdQE";"-7.8717914";"110.3281493";"https://maps.google.com/?cid=0x0:0xc23e9e01ea65abe";""
"mall";"Pusat Perbelanjaan";"Moreskin Bantul yogyakarta";"487Q+5Q5, Pasutan, Trirenggo, Kec. Bantul, Kabupaten Bantul, Daerah Istimewa Yogyakarta 55714";"Pasutan, Trirenggo, Kec. Bantul, Kabupaten Bantul";"DAERAH ISTIMEWA YOGYAKARTA";"55714";"Indonesia";" 081818239944";"";"";"-7.8871164";"110.3394769";"https://maps.google.com/?cid=0x0:0x2d7029f9a2e53b9";""
"mall";"Pusat Perbelanjaan";"Ruko BABE";"48HH+MPH, Geblag, Bantul, Kec. Bantul, Kabupaten Bantul, Daerah Istimewa Yogyakarta 55711";"Geblag, Bantul, Kec. Bantul, Kabupaten Bantul";"DAERAH ISTIMEWA YOGYAKARTA";"55711";"Indonesia";" 081214359440";"";"";"-7.8708003";"110.3293683";"https://maps.google.com/?cid=0x0:0x7d22ccb417f54e63";""
"mall";"Kantor Perusahaan";"Naufal PF";"488M+4Q7, Bantul Wr., Bantul, Kec. Bantul, Kabupaten Bantul, Daerah Istimewa Yogyakarta 55711";"Bantul Wr., Bantul, Kec. Bantul, Kabupaten Bantul";"DAERAH ISTIMEWA YOGYAKARTA";"55711";"Indonesia";" 081541184534";"";"";"-7.8847215";"110.3344317";"https://maps.google.com/?cid=0x0:0x64fdde20eb60cb27";""
"mall";"Pusat Perbelanjaan";"Gerai Tsaniya";"Jl. Jend. Sudirman No.148, Nyangkringan, Bantul, Kec. Bantul, Kabupaten Bantul, Daerah Istimewa Yogyakarta 55711";"Nyangkringan, Bantul, Kec. Bantul, Kabupaten Bantul";"DAERAH ISTIMEWA YOGYAKARTA";"55711";"Indonesia";" 081904218386";"";"";"-7.8878451";"110.3290325";"https://maps.google.com/?cid=0x0:0x23fc78f22e729bc6";""
"mall";"Pusat Perbelanjaan";"Cv Tempe Dele";"484J+6FW, karang anom bejen, Gg. Pemuda, Bejen, Bantul, Kec. Bantul, Kabupaten Bantul, Daerah Istimewa Yogyakarta 55711";"karang anom bejen, Gg. Pemuda, Bejen, Bantul, Kec. Bantul, Kabupaten Bantul";"DAERAH ISTIMEWA YOGYAKARTA";"55711";"Indonesia";" 081802695713";"";"";"-7.8943761";"110.3311997";"https://maps.google.com/?cid=0x0:0x167b0372f4bf3a7d";""
"mall";"Toko";"Omah Wangi Bantul Sudirman";"Jl. Jend. Sudirman, Nyangkringan, Bantul, Kec. Bantul, Kabupaten Bantul, Daerah Istimewa Yogyakarta 55711";"Nyangkringan, Bantul, Kec. Bantul, Kabupaten Bantul";"DAERAH ISTIMEWA YOGYAKARTA";"55711";"Indonesia";" 0895710926400";"";"";"-7.8860151";"110.3309043";"https://maps.google.com/?cid=0x0:0xe1fe8ec16c1012d7";""
"mall";"Toko Perhiasan";"Toko Emas Gajah Putih Bantul";"487J+W78, Kurahan, Bantul, Kec. Bantul, Kabupaten Bantul, Daerah Istimewa Yogyakarta 55711";"Kurahan, Bantul, Kec. Bantul, Kabupaten Bantul";"DAERAH ISTIMEWA YOGYAKARTA";"55711";"Indonesia";"";"";"";"-7.885224";"110.3307041";"https://maps.google.com/?cid=0x0:0x893a128c4dfc0ba8";""
"mall";"Apotek";"Candi Pharma";"Jl. HOS. Cokro Aminoto No.10, Karangbayam, Bantul, Kec. Bantul, Kabupaten Bantul, Daerah Istimewa Yogyakarta 55711";"Karangbayam, Bantul, Kec. Bantul, Kabupaten Bantul";"DAERAH ISTIMEWA YOGYAKARTA";"55711";"Indonesia";"";"";"";"-7.8917721";"110.3342197";"https://maps.google.com/?cid=0x0:0xd209b3036908c413";""
"mall";"Toko Pakaian";"Supplyer Branded Matahari";"484R+G5M, Jl. Dr. Wahidin Sudiro Husodo, Area Sawah, Trirenggo, Kec. Bantul, Kabupaten Bantul, Daerah Istimewa Yogyakarta 55714";"Jl. Dr. Wahidin Sudiro Husodo, Area Sawah, Trirenggo, Kec. Bantul, Kabupaten Bantul";"DAERAH ISTIMEWA YOGYAKARTA";"55714";"Indonesia";" 081246088091";"";"/url?q>>u003dhttp://www.matahari.co.id/>>u0026opi>>u003d79508299>>u0026sa>>u003dU>>u0026ved>>u003d0ahUKEwjlvrfMqf-LAxWUyTgGHfQIIL8Q61gIFSgR>>u0026usg>>u003dAOvVaw2O4r8Yo8HPe62Hkf_raRkX";"-7.8936609";"110.3404216";"https://maps.google.com/?cid=0x0:0x480e6d965704698e";""
"mall";"Pusat Perbelanjaan";"Malioboro Mall";"Jl. Mataram No.31, Suryatmajan, Kec. Danurejan, Kota Yogyakarta, Daerah Istimewa Yogyakarta 55213";"Suryatmajan, Kec. Danurejan, Kota Yogyakarta";"DAERAH ISTIMEWA YOGYAKARTA";"55213";"Indonesia";" 0274551888";"";"/url?q>>u003dhttp://malmalioboro.co.id/>>u0026opi>>u003d79508299>>u0026sa>>u003dU>>u0026ved>>u003d0ahUKEwijiN7Mqf-LAxWI7jgGHSPcISQQ61gIFigS>>u0026usg>>u003dAOvVaw3iheQxj96K-7cavTmm9iYF";"-7.7933702";"110.3668603";"https://maps.google.com/?cid=0x0:0xd57e2a1709526952";""
"mall";"Pusat Perbelanjaan";"SemarMoyoCellular";"Jl. Diponegoro No.235, Teruman, Bantul, Kec. Bantul, Kabupaten Bantul, Daerah Istimewa Yogyakarta 55711";"Teruman, Bantul, Kec. Bantul, Kabupaten Bantul";"DAERAH ISTIMEWA YOGYAKARTA";"55711";"Indonesia";" 08989823999";"";"";"-7.8790385";"110.3209687";"https://maps.google.com/?cid=0x0:0xb53ee93af1ea03b6";""
"mall";"Pusat Perbelanjaan";"Toko Hoki";"Jl. Mgr. Sugiyo Pranoto, Bantul Timur, Bantul, Kec. Bantul, Kabupaten Bantul, Daerah Istimewa Yogyakarta 55711";"Bantul Timur, Bantul, Kec. Bantul, Kabupaten Bantul";"DAERAH ISTIMEWA YOGYAKARTA";"55711";"Indonesia";" 082134864875";"";"";"-7.8849728";"110.3354637";"https://maps.google.com/?cid=0x0:0xffeeca3b5174693d";""
"mall";"Pusat Perbelanjaan";"Farel_arloji_Olshop";"4869+355, Jl. Prof. DR. Soepomo, Mandingan, Ringinharjo, Kec. Bantul, Kabupaten Bantul, Daerah Istimewa Yogyakarta 55712";"Jl. Prof. DR. Soepomo, Mandingan, Ringinharjo, Kec. Bantul, Kabupaten Bantul";"DAERAH ISTIMEWA YOGYAKARTA";"55712";"Indonesia";" 082242978292";"";"";"-7.889866";"110.3179991";"https://maps.google.com/?cid=0x0:0xce0deb8724bfd297";""
"mall";"Toko Pakaian";"TOKO SERBA 35.000 GOSE BANTUL";"Jalan Kh. Wahid Hasyim, Ringinharjo, Bejen, Bantul, Kec. Bantul, Kabupaten Bantul, Daerah Istimewa Yogyakarta 55712";"Ringinharjo, Bejen, Bantul, Kec. Bantul, Kabupaten Bantul";"DAERAH ISTIMEWA YOGYAKARTA";"55712";"Indonesia";" 081226123557";"";"";"-7.8912082";"110.3257444";"https://maps.google.com/?cid=0x0:0xf549fa19ea20068f";""
"mall";"mall";"Daerah Istimewa Yogyakarta 55711";"Bantul, Kec. Bantul, Kabupaten Bantul, Daerah Istimewa Yogyakarta";"Kabupaten Bantul, Daerah Istimewa Yogyakarta";"DAERAH ISTIMEWA YOGYAKARTA";"";"Indonesia";"";"";"";"-7.8829191";"110.3279026";"https://maps.google.com/?cid=0x0:0x1c00c5eb5b53c250";""
"mall";"Minimarket";"Artha Jaya Store";"Depok, RT, Gandekan, Bantul, Kec. Bantul, Kabupaten Bantul, Daerah Istimewa Yogyakarta 55711";"RT, Gandekan, Bantul, Kec. Bantul, Kabupaten Bantul";"DAERAH ISTIMEWA YOGYAKARTA";"55711";"Indonesia";" 08976619980";"";"";"-7.8822511";"110.3306077";"https://maps.google.com/?cid=0x0:0xb41ce774e42db602";""
"mall";"Toko";"Tekun Muliya";"487J+Q33, Unnamed Road, Kurahan, Bantul, Kec. Bantul, Kabupaten Bantul, Daerah Istimewa Yogyakarta 55711";"Unnamed Road, Kurahan, Bantul, Kec. Bantul, Kabupaten Bantul";"DAERAH ISTIMEWA YOGYAKARTA";"55711";"Indonesia";"";"";"";"-7.8856062";"110.330174";"https://maps.google.com/?cid=0x0:0xc5133de6a4dc810f";""
"mall";"Pusat Perbelanjaan";"Ani pusat Crystal X pokoh palbapang bantul";"Pokoh RT 06, Pokoh, Palbapang, Kec. Bantul, Kabupaten Bantul, Daerah Istimewa Yogyakarta 55713";"Pokoh, Palbapang, Kec. Bantul, Kabupaten Bantul";"DAERAH ISTIMEWA YOGYAKARTA";"55713";"Indonesia";" 082134334992";"";"";"-7.9024176";"110.3292688";"https://maps.google.com/?cid=0x0:0xaaf5270e0889b894";""
"mall";"Pusat Perbelanjaan";"Pakuwon Mall Jogja";"Jl. Ring Road Utara, Kaliwaru, Condongcatur, Kec. Depok, Kabupaten Sleman, Daerah Istimewa Yogyakarta 55281";"Kaliwaru, Condongcatur, Kec. Depok, Kabupaten Sleman";"DAERAH ISTIMEWA YOGYAKARTA";"55281";"Indonesia";" 02742924095";"";"/url?q>>u003dhttps://pakuwonmalljogja.com/>>u0026opi>>u003d79508299>>u0026sa>>u003dU>>u0026ved>>u003d0ahUKEwiFnvzfqf-LAxUFUGwGHQqOAcIQ61gIFigS>>u0026usg>>u003dAOvVaw3NcyRKkcDY0FJmJ4o8ZdS9";"-7.7588094";"110.3992739";"https://maps.google.com/?cid=0x0:0xa864a4f7fe95e090";""
"mall";"Pusat Perbelanjaan";"Plaza Ambarrukmo";"Jl. Laksda Adisucipto No.80, Ambarukmo, Caturtunggal, Kec. Depok, Kabupaten Sleman, Daerah Istimewa Yogyakarta 55281";"Ambarukmo, Caturtunggal, Kec. Depok, Kabupaten Sleman";"DAERAH ISTIMEWA YOGYAKARTA";"55281";"Indonesia";" 02744331000";"";"/url?q>>u003dhttps://www.plaza-ambarrukmo.co.id/>>u0026opi>>u003d79508299>>u0026sa>>u003dU>>u0026ved>>u003d0ahUKEwikuYzgqf-LAxVfTWwGHX40H_EQ61gIFigS>>u0026usg>>u003dAOvVaw08kqVrspzX-QkzVWEMYcNC";"-7.7825776";"110.4010956";"https://maps.google.com/?cid=0x0:0x1ce91a3c5aa8b3bc";""
"mall";"Pasar";"Pasar Kliwon Bantul";"488H+796, Jl. Moh. Yamin No.41-21, Kurahan, Bantul, Kec. Bantul, Kabupaten Bantul, Daerah Istimewa Yogyakarta 55711";"Jl. Moh. Yamin No.41-21, Kurahan, Bantul, Kec. Bantul, Kabupaten Bantul";"DAERAH ISTIMEWA YOGYAKARTA";"55711";"Indonesia";"";"";"";"-7.8843748";"110.3250168";"https://maps.google.com/?cid=0x0:0x6b776cf58190f1ba";""
"mall";"Pusat Perbelanjaan";"Moreskin Bantul yogyakarta";"487Q+5Q5, Pasutan, Trirenggo, Kec. Bantul, Kabupaten Bantul, Daerah Istimewa Yogyakarta 55714";"Pasutan, Trirenggo, Kec. Bantul, Kabupaten Bantul";"DAERAH ISTIMEWA YOGYAKARTA";"55714";"Indonesia";" 081818239944";"";"";"-7.8871164";"110.3394769";"https://maps.google.com/?cid=0x0:0x2d7029f9a2e53b9";""
"mall";"Pusat Perbelanjaan";"Malioboro Mall";"Jl. Mataram No.31, Suryatmajan, Kec. Danurejan, Kota Yogyakarta, Daerah Istimewa Yogyakarta 55213";"Suryatmajan, Kec. Danurejan, Kota Yogyakarta";"DAERAH ISTIMEWA YOGYAKARTA";"55213";"Indonesia";" 0274551888";"";"/url?q>>u003dhttp://malmalioboro.co.id/>>u0026opi>>u003d79508299>>u0026sa>>u003dU>>u0026ved>>u003d0ahUKEwimv_jgqf-LAxXcTGwGHU_2FiQQ61gIFigS>>u0026usg>>u003dAOvVaw2tivgLnWgE1xQt9y5SgdsL";"-7.7933702";"110.3668603";"https://maps.google.com/?cid=0x0:0xd57e2a1709526952";""
"mall";"Pusat Perbelanjaan";"Gerai Tsaniya";"Jl. Jend. Sudirman No.148, Nyangkringan, Bantul, Kec. Bantul, Kabupaten Bantul, Daerah Istimewa Yogyakarta 55711";"Nyangkringan, Bantul, Kec. Bantul, Kabupaten Bantul";"DAERAH ISTIMEWA YOGYAKARTA";"55711";"Indonesia";" 081904218386";"";"";"-7.8878451";"110.3290325";"https://maps.google.com/?cid=0x0:0x23fc78f22e729bc6";""
"mall";"Pusat Perbelanjaan";"Farel_arloji_Olshop";"4869+355, Jl. Prof. DR. Soepomo, Mandingan, Ringinharjo, Kec. Bantul, Kabupaten Bantul, Daerah Istimewa Yogyakarta 55712";"Jl. Prof. DR. Soepomo, Mandingan, Ringinharjo, Kec. Bantul, Kabupaten Bantul";"DAERAH ISTIMEWA YOGYAKARTA";"55712";"Indonesia";" 082242978292";"";"";"-7.889866";"110.3179991";"https://maps.google.com/?cid=0x0:0xce0deb8724bfd297";""
"mall";"Dealer Motor Bekas";"Sorum GAMPANG MOTOR";"4887+6QC, Rt07, Deresan, Ringinharjo, Kec. Bantul, Kabupaten Bantul, Daerah Istimewa Yogyakarta 55712";"Rt07, Deresan, Ringinharjo, Kec. Bantul, Kabupaten Bantul";"DAERAH ISTIMEWA YOGYAKARTA";"55712";"Indonesia";" 085100001159";"";"";"-7.8844375";"110.3143906";"https://maps.google.com/?cid=0x0:0x954b1cb67a387a76";""
"mall";"Toko";"Toko Yuni";"4866+2JG, Gumuk, Ringinharjo, Kec. Bantul, Kabupaten Bantul, Daerah Istimewa Yogyakarta 55712";"Gumuk, Ringinharjo, Kec. Bantul, Kabupaten Bantul";"DAERAH ISTIMEWA YOGYAKARTA";"55712";"Indonesia";"";"";"";"-7.8899299";"110.3115655";"https://maps.google.com/?cid=0x0:0x978ec6b796b51263";""
"mall";"Pusat Perbelanjaan";"Inti Sari Jaya 1";"4848+F4F, Jl. Jomblang, Jomlang, Palbapang, Kec. Bantul, Kabupaten Bantul, Daerah Istimewa Yogyakarta 55713";"Jl. Jomblang, Jomlang, Palbapang, Kec. Bantul, Kabupaten Bantul";"DAERAH ISTIMEWA YOGYAKARTA";"55713";"Indonesia";" 082111127506";"";"";"-7.893819";"110.3153054";"https://maps.google.com/?cid=0x0:0x13b81b1dfddb3403";""
"mall";"Pusat Perbelanjaan";"Ani pusat Crystal X pokoh palbapang bantul";"Pokoh RT 06, Pokoh, Palbapang, Kec. Bantul, Kabupaten Bantul, Daerah Istimewa Yogyakarta 55713";"Pokoh, Palbapang, Kec. Bantul, Kabupaten Bantul";"DAERAH ISTIMEWA YOGYAKARTA";"55713";"Indonesia";" 082134334992";"";"";"-7.9024176";"110.3292688";"https://maps.google.com/?cid=0x0:0xaaf5270e0889b894";""
"mall";"Toko Buku Agama";"Toko Muslim";"4888+467, Gemahan, Ringinharjo, Kec. Bantul, Kabupaten Bantul, Daerah Istimewa Yogyakarta 55712";"Gemahan, Ringinharjo, Kec. Bantul, Kabupaten Bantul";"DAERAH ISTIMEWA YOGYAKARTA";"55712";"Indonesia";"";"";"";"-7.8847062";"110.3155339";"https://maps.google.com/?cid=0x0:0xccd33448bced1e05";""
"mall";"Pusat Perbelanjaan";"ADAM CELL";"Jl. Diponegoro, Gemahan, Ringinharjo, Kec. Bantul, Kabupaten Bantul, Daerah Istimewa Yogyakarta 55712";"Gemahan, Ringinharjo, Kec. Bantul, Kabupaten Bantul";"DAERAH ISTIMEWA YOGYAKARTA";"55712";"Indonesia";" 089674422006";"";"";"-7.8775341";"110.3171262";"https://maps.google.com/?cid=0x0:0x1a4803e6610fb415";""
"mall";"Pusat Perbelanjaan";"SemarMoyoCellular";"Jl. Diponegoro No.235, Teruman, Bantul, Kec. Bantul, Kabupaten Bantul, Daerah Istimewa Yogyakarta 55711";"Teruman, Bantul, Kec. Bantul, Kabupaten Bantul";"DAERAH ISTIMEWA YOGYAKARTA";"55711";"Indonesia";" 08989823999";"";"";"-7.8790385";"110.3209687";"https://maps.google.com/?cid=0x0:0xb53ee93af1ea03b6";""
"mall";"Pusat Perbelanjaan";"Toety Bumbu LLR";"4877+C9G, Deresan, Ringinharjo, Kec. Bantul, Kabupaten Bantul, Daerah Istimewa Yogyakarta 55712";"Deresan, Ringinharjo, Kec. Bantul, Kabupaten Bantul";"DAERAH ISTIMEWA YOGYAKARTA";"55712";"Indonesia";" 081904027747";"";"";"-7.8864393";"110.3134624";"https://maps.google.com/?cid=0x0:0xd3b6c17c5bd7ca89";""
"mall";"Pemasok Air Minum Dalam Kemasan";"Agen Hexamart";"4859+7FC, Bantul Karang, Ringinharjo, Kec. Bantul, Kabupaten Bantul, Daerah Istimewa Yogyakarta 55712";"Bantul Karang, Ringinharjo, Kec. Bantul, Kabupaten Bantul";"DAERAH ISTIMEWA YOGYAKARTA";"55712";"Indonesia";" 085643966396";"";"";"-7.8918065";"110.3186253";"https://maps.google.com/?cid=0x0:0x6777f20166a0b9e0";""
"mall";"Toko";"Tekun Muliya";"487J+Q33, Unnamed Road, Kurahan, Bantul, Kec. Bantul, Kabupaten Bantul, Daerah Istimewa Yogyakarta 55711";"Unnamed Road, Kurahan, Bantul, Kec. Bantul, Kabupaten Bantul";"DAERAH ISTIMEWA YOGYAKARTA";"55711";"Indonesia";"";"";"";"-7.8856062";"110.330174";"https://maps.google.com/?cid=0x0:0xc5133de6a4dc810f";""
"mall";"Toko Perabot Supermarket";"Paijos Garden, Jual Perabot Dan Pakaian";"4849+37H, Bantul Karang, RT.04, Bantul Karang, Ringinharjo, Kec. Bantul, Kabupaten Bantul, Daerah Istimewa Yogyakarta 55712";"Bantul Karang, RT.04, Bantul Karang, Ringinharjo, Kec. Bantul, Kabupaten Bantul";"DAERAH ISTIMEWA YOGYAKARTA";"55712";"Indonesia";" 087734755048";"";"";"-7.8948232";"110.3182487";"https://maps.google.com/?cid=0x0:0x89a7afe93306b3cd";""
"mall";"Pusat Perbelanjaan";"Distributor NASA Bantul";"Deresan RT 03, Deresan, Ringinharjo, Kec. Bantul, Kabupaten Bantul, Daerah Istimewa Yogyakarta 55712";"Deresan, Ringinharjo, Kec. Bantul, Kabupaten Bantul";"DAERAH ISTIMEWA YOGYAKARTA";"55712";"Indonesia";" 085747232636";"";"";"-7.8851006";"110.3161763";"https://maps.google.com/?cid=0x0:0xbec74e2abdc916a7";""
"mall";"mall";"Daerah Istimewa Yogyakarta 55712";"Ringinharjo, Kec. Bantul, Kabupaten Bantul, Daerah Istimewa Yogyakarta";"Kabupaten Bantul, Daerah Istimewa Yogyakarta";"DAERAH ISTIMEWA YOGYAKARTA";"";"Indonesia";"";"";"";"-7.8886726";"110.3159875";"https://maps.google.com/?cid=0x0:0x1c00c5eb5b53c260";""
"mall";"Pusat Perbelanjaan";"GROSIR CAMILAN MEDIA";"Jl. Kolonel Sugiono, Jonggrangan RT 5, Teruman, Bantul, Kec. Bantul, Kabupaten Bantul, Daerah Istimewa Yogyakarta 55712";"Jonggrangan RT 5, Teruman, Bantul, Kec. Bantul, Kabupaten Bantul";"DAERAH ISTIMEWA YOGYAKARTA";"55712";"Indonesia";" 085103017521";"";"";"-7.8804825";"110.31958";"https://maps.google.com/?cid=0x0:0x63e72542cedc1fa1";""
"mall";"Pasar";"Lucky Angel";"Kadirejo, Palbapang, Kec. Bantul, Kabupaten Bantul, Daerah Istimewa Yogyakarta 55713";"Palbapang, Kec. Bantul, Kabupaten Bantul";"DAERAH ISTIMEWA YOGYAKARTA";"55713";"Indonesia";" 087845691269";"";"";"-7.8985639";"110.3169428";"https://maps.google.com/?cid=0x0:0xee68e8f065f957a3";""
"mall";"Pusat Perbelanjaan";"Pakuwon Mall Jogja";"Jl. Ring Road Utara, Kaliwaru, Condongcatur, Kec. Depok, Kabupaten Sleman, Daerah Istimewa Yogyakarta 55281";"Kaliwaru, Condongcatur, Kec. Depok, Kabupaten Sleman";"DAERAH ISTIMEWA YOGYAKARTA";"55281";"Indonesia";" 02742924095";"";"/url?q>>u003dhttps://pakuwonmalljogja.com/>>u0026opi>>u003d79508299>>u0026sa>>u003dU>>u0026ved>>u003d0ahUKEwjf-Kz2qf-LAxU-4zgGHcChGToQ61gIFigS>>u0026usg>>u003dAOvVaw0jduFBuCJ57BEdMyJHQ8op";"-7.7588094";"110.3992739";"https://maps.google.com/?cid=0x0:0xa864a4f7fe95e090";""
"mall";"Pusat Perbelanjaan";"Plaza Ambarrukmo";"Jl. Laksda Adisucipto No.80, Ambarukmo, Caturtunggal, Kec. Depok, Kabupaten Sleman, Daerah Istimewa Yogyakarta 55281";"Ambarukmo, Caturtunggal, Kec. Depok, Kabupaten Sleman";"DAERAH ISTIMEWA YOGYAKARTA";"55281";"Indonesia";" 02744331000";"";"/url?q>>u003dhttps://www.plaza-ambarrukmo.co.id/>>u0026opi>>u003d79508299>>u0026sa>>u003dU>>u0026ved>>u003d0ahUKEwjgocv2qf-LAxVsR2wGHbZwBBkQ61gIFigS>>u0026usg>>u003dAOvVaw3JwbLDCzUZk7Ko-awQ7PSn";"-7.7825776";"110.4010956";"https://maps.google.com/?cid=0x0:0x1ce91a3c5aa8b3bc";""
"mall";"Pusat Perbelanjaan";"Royal Mart";"38PJ+XH9, Ngringinan, Palbapang, Kec. Bantul, Kabupaten Bantul, Daerah Istimewa Yogyakarta 55713";"Ngringinan, Palbapang, Kec. Bantul, Kabupaten Bantul";"DAERAH ISTIMEWA YOGYAKARTA";"55713";"Indonesia";" 082334223655";"";"";"-7.9124923";"110.3316476";"https://maps.google.com/?cid=0x0:0x53fc59f41b0222cb";""
"mall";"Toko Pakaian";"Toko "JM Market"";"Jl. Srandakan Km. 1 Karangasem RT 01, Gilangharjo, Kapanewon Pandak, Kabupaten Bantul, Daerah Istimewa Yogyakarta 55761";"Gilangharjo, Kapanewon Pandak, Kabupaten Bantul";"DAERAH ISTIMEWA YOGYAKARTA";"55761";"Indonesia";" 0274368846";"";"";"-7.9064058";"110.3127712";"https://maps.google.com/?cid=0x0:0x67694807ee2311c4";""
"mall";"Pusat Perbelanjaan";"Inti Sari Jaya 1";"4848+F4F, Jl. Jomblang, Jomlang, Palbapang, Kec. Bantul, Kabupaten Bantul, Daerah Istimewa Yogyakarta 55713";"Jl. Jomblang, Jomlang, Palbapang, Kec. Bantul, Kabupaten Bantul";"DAERAH ISTIMEWA YOGYAKARTA";"55713";"Indonesia";" 082111127506";"";"";"-7.893819";"110.3153054";"https://maps.google.com/?cid=0x0:0x13b81b1dfddb3403";""
"mall";"Pusat Perbelanjaan";"Windea Olshop";"Peni No.Rt 05, Peni, Palbapang, Kec. Bantul, Kabupaten Bantul, Daerah Istimewa Yogyakarta 55713";"Peni, Palbapang, Kec. Bantul, Kabupaten Bantul";"DAERAH ISTIMEWA YOGYAKARTA";"55713";"Indonesia";" 085727264671";"";"";"-7.909243";"110.331758";"https://maps.google.com/?cid=0x0:0x9927bf7c97bbd8a2";""
"mall";"Pusat Perbelanjaan";"Sudar bakule doro";"38WG+56R, Taskombang, Palbapang, Kec. Bantul, Kabupaten Bantul, Daerah Istimewa Yogyakarta 55713";"Taskombang, Palbapang, Kec. Bantul, Kabupaten Bantul";"DAERAH ISTIMEWA YOGYAKARTA";"55713";"Indonesia";"";"";"";"-7.9045126";"110.3255211";"https://maps.google.com/?cid=0x0:0xa53848e866882613";""
"mall";"Pasar";"Lucky Angel";"Kadirejo, Palbapang, Kec. Bantul, Kabupaten Bantul, Daerah Istimewa Yogyakarta 55713";"Palbapang, Kec. Bantul, Kabupaten Bantul";"DAERAH ISTIMEWA YOGYAKARTA";"55713";"Indonesia";" 087845691269";"";"";"-7.8985639";"110.3169428";"https://maps.google.com/?cid=0x0:0xee68e8f065f957a3";""
"mall";"Toko Swalayan";"Modela Toserba ganjuran";"38F9+773, Jl. Ganjuran, Jogodayoh, Sumbermulyo, Kec. Bambanglipuro, Kabupaten Bantul, Daerah Istimewa Yogyakarta 55764";"Jl. Ganjuran, Jogodayoh, Sumbermulyo, Kec. Bambanglipuro, Kabupaten Bantul";"DAERAH ISTIMEWA YOGYAKARTA";"55764";"Indonesia";"";"";"";"-7.9268693";"110.3181588";"https://maps.google.com/?cid=0x0:0x7f910da6c3c6ecad";""
"mall";"Pusat Perbelanjaan";"Gubuk Emak";"Jopaitan RT.2 Dusun Serut, Gunuk, Palbapang, Kec. Bantul, Kabupaten Bantul, Daerah Istimewa Yogyakarta 55713";"Gunuk, Palbapang, Kec. Bantul, Kabupaten Bantul";"DAERAH ISTIMEWA YOGYAKARTA";"55713";"Indonesia";" 0819899349";"";"";"-7.9087844";"110.3338183";"https://maps.google.com/?cid=0x0:0xfcf63dea8b6027cd";""
"mall";"Pusat Perbelanjaan";"Pusat jajanan tradisional";"38R8+79R, Dagaran, Palbapang, Kec. Bantul, Kabupaten Bantul, Daerah Istimewa Yogyakarta 55713";"Dagaran, Palbapang, Kec. Bantul, Kabupaten Bantul";"DAERAH ISTIMEWA YOGYAKARTA";"55713";"Indonesia";"";"";"";"-7.9092674";"110.3158998";"https://maps.google.com/?cid=0x0:0x4e12b37552d91ec1";""
"mall";"Toko";"TOKO FANO JAYA";"38W8+84F, Jl. Brigjen Katamso, Kadirejo, Palbapang, Kec. Bantul, Kabupaten Bantul, Daerah Istimewa Yogyakarta 55713";"Jl. Brigjen Katamso, Kadirejo, Palbapang, Kec. Bantul, Kabupaten Bantul";"DAERAH ISTIMEWA YOGYAKARTA";"55713";"Indonesia";" 085877672738";"";"";"-7.9041991";"110.3153007";"https://maps.google.com/?cid=0x0:0xd40f342c21017308";""
"mall";"Toko";"Geplak Bantul Ndaru Joyo";"38Q9+QCH, Jl. Samas, Klodran, Palbapang, Kec. Bantul, Kabupaten Bantul, Daerah Istimewa Yogyakarta 55713";"Jl. Samas, Klodran, Palbapang, Kec. Bantul, Kabupaten Bantul";"DAERAH ISTIMEWA YOGYAKARTA";"55713";"Indonesia";" 081328263900";"";"";"-7.9105715";"110.3186228";"https://maps.google.com/?cid=0x0:0x4881e0cd7fe47283";""
"mall";"Tahu";"TAHU PONG SUMURAN PALBAPANG";"sumuran, Palbapang RT 05, Taskombang, Palbapang, Kec. Bantul, Kabupaten Bantul, Daerah Istimewa Yogyakarta 55713";"Palbapang RT 05, Taskombang, Palbapang, Kec. Bantul, Kabupaten Bantul";"DAERAH ISTIMEWA YOGYAKARTA";"55713";"Indonesia";" 085729693417";"";"";"-7.9005202";"110.3219427";"https://maps.google.com/?cid=0x0:0x848537fbfc4b50e6";""
"mall";"Pusat Perbelanjaan";"STOKIS NASA BANTUL AB.1917";"Bolon, Palbapang, Kec. Bantul, Kabupaten Bantul, Daerah Istimewa Yogyakarta 55713";"Palbapang, Kec. Bantul, Kabupaten Bantul";"DAERAH ISTIMEWA YOGYAKARTA";"55713";"Indonesia";" 085643811078";"";"";"-7.907959";"110.3245793";"https://maps.google.com/?cid=0x0:0x2c8a61ead34c7d91";""
"mall";"Toko Aksesori Pakaian";"Purbasari Shop";"Nglebak RT.08 Dk.Dagaran, Joboran, Palbapang, Kec. Bantul, Kabupaten Bantul, Daerah Istimewa Yogyakarta 55761";"Joboran, Palbapang, Kec. Bantul, Kabupaten Bantul";"DAERAH ISTIMEWA YOGYAKARTA";"55761";"Indonesia";" 08112664032";"";"";"-7.9156927";"110.3116731";"https://maps.google.com/?cid=0x0:0xd5e16a80a0387b7f";""
"mall";"Pusat Perbelanjaan";"Farel_arloji_Olshop";"4869+355, Jl. Prof. DR. Soepomo, Mandingan, Ringinharjo, Kec. Bantul, Kabupaten Bantul, Daerah Istimewa Yogyakarta 55712";"Jl. Prof. DR. Soepomo, Mandingan, Ringinharjo, Kec. Bantul, Kabupaten Bantul";"DAERAH ISTIMEWA YOGYAKARTA";"55712";"Indonesia";" 082242978292";"";"";"-7.889866";"110.3179991";"https://maps.google.com/?cid=0x0:0xce0deb8724bfd297";""
"mall";"Pusat Perbelanjaan";"Moreskin Bantul yogyakarta";"487Q+5Q5, Pasutan, Trirenggo, Kec. Bantul, Kabupaten Bantul, Daerah Istimewa Yogyakarta 55714";"Pasutan, Trirenggo, Kec. Bantul, Kabupaten Bantul";"DAERAH ISTIMEWA YOGYAKARTA";"55714";"Indonesia";" 081818239944";"";"";"-7.8871164";"110.3394769";"https://maps.google.com/?cid=0x0:0x2d7029f9a2e53b9";""
"mall";"Pusat Perbelanjaan";"Warung Pak Sudiyono";"Karasan RT 06, Kadirejo, Palbapang, Kec. Bantul, Kabupaten Bantul, Daerah Istimewa Yogyakarta 55713";"Kadirejo, Palbapang, Kec. Bantul, Kabupaten Bantul";"DAERAH ISTIMEWA YOGYAKARTA";"55713";"Indonesia";"";"";"";"-7.9030155";"110.3183606";"https://maps.google.com/?cid=0x0:0x319fc246f9569bd7";""
"mall";"mall";"Daerah Istimewa Yogyakarta 55713";"Palbapang, Kec. Bantul, Kabupaten Bantul, Daerah Istimewa Yogyakarta";"Kabupaten Bantul, Daerah Istimewa Yogyakarta";"DAERAH ISTIMEWA YOGYAKARTA";"";"Indonesia";"";"";"";"-7.9089919";"110.321945";"https://maps.google.com/?cid=0x0:0x1c00c5eb5b53c270";""
"mall";"Pusat Perbelanjaan";"Jogja City Mall";"Jl. Magelang No.6 No.18, Kutu Patran, Sinduadi, Kec. Mlati, Kabupaten Sleman, Daerah Istimewa Yogyakarta 55284";"Kutu Patran, Sinduadi, Kec. Mlati, Kabupaten Sleman";"DAERAH ISTIMEWA YOGYAKARTA";"55284";"Indonesia";" 02745305855";"";"/url?q>>u003dhttp://www.jogjacitymall.com/>>u0026opi>>u003d79508299>>u0026sa>>u003dU>>u0026ved>>u003d0ahUKEwiA9br7qf-LAxXO4zgGHVRfA8oQ61gIFigS>>u0026usg>>u003dAOvVaw2MckzKlcBaVFjh1EUtdsB8";"-7.7532424";"110.3609091";"https://maps.google.com/?cid=0x0:0x39d891d2e8da95a9";""
"mall";"Toko Pakaian";"TOKO SERBA 35.000 GOSE BANTUL";"Jalan Kh. Wahid Hasyim, Ringinharjo, Bejen, Bantul, Kec. Bantul, Kabupaten Bantul, Daerah Istimewa Yogyakarta 55712";"Ringinharjo, Bejen, Bantul, Kec. Bantul, Kabupaten Bantul";"DAERAH ISTIMEWA YOGYAKARTA";"55712";"Indonesia";" 081226123557";"";"/url?q>>u003dhttps://www.facebook.com/madick.madick.376>>u0026opi>>u003d79508299>>u0026sa>>u003dU>>u0026ved>>u003d0ahUKEwilv-z7qf-LAxWqyDgGHV1fPfEQ61gIFigS>>u0026usg>>u003dAOvVaw3EYofW7Eg91afPE9zmRdm3";"-7.8912082";"110.3257444";"https://maps.google.com/?cid=0x0:0xf549fa19ea20068f";""
"mall";"Toko Makanan";"Olshopmurah Bantul";"Kanutan, Sumbermulyo, Kec. Bambanglipuro, Kabupaten Bantul, Daerah Istimewa Yogyakarta 55764";"Sumbermulyo, Kec. Bambanglipuro, Kabupaten Bantul";"DAERAH ISTIMEWA YOGYAKARTA";"55764";"Indonesia";" 089674176796";"";"";"-7.9229518";"110.3142501";"https://maps.google.com/?cid=0x0:0xb0ee49d9c900e528";""
"mall";"Toko bahan makanan";"N.A.D.A SEMBAKO 2";"38PC+M5F, Taruban, Palbapang, Kec. Bantul, Kabupaten Bantul, Daerah Istimewa Yogyakarta 55713";"Taruban, Palbapang, Kec. Bantul, Kabupaten Bantul";"DAERAH ISTIMEWA YOGYAKARTA";"55713";"Indonesia";" 087779188918";"";"";"-7.913356";"110.3205146";"https://maps.google.com/?cid=0x0:0x582f1470fb03e98e";""
"mall";"Toko Perbaikan Ponsel";"Cheap Servis ( HP ) Handphone";"Jedingan.RT 07, Peni, Palbapang, Kec. Bantul, Kabupaten Bantul, Daerah Istimewa Yogyakarta 55713";"Peni, Palbapang, Kec. Bantul, Kabupaten Bantul";"DAERAH ISTIMEWA YOGYAKARTA";"55713";"Indonesia";" 085704642677";"";"";"-7.9109328";"110.328784";"https://maps.google.com/?cid=0x0:0x5b23215b2bb30a4a";""
"mall";"Toko Makanan";"INTISARI JAYA 2";"Jl. Brigjen Katamso, Jomlang, Palbapang, Kec. Bantul, Kabupaten Bantul, Daerah Istimewa Yogyakarta 55713";"Jomlang, Palbapang, Kec. Bantul, Kabupaten Bantul";"DAERAH ISTIMEWA YOGYAKARTA";"55713";"Indonesia";" 081392845205";"";"";"-7.897976";"110.3159127";"https://maps.google.com/?cid=0x0:0xaed5b0cb4e3ef060";""
"mall";"Pusat Perbelanjaan";"Damara Mart (My Way HPAI Marwah Skincare)";"Bakulan Wetan, Trirenggo, Kec. Jetis, Kabupaten Bantul, Daerah Istimewa Yogyakarta 55714";"Trirenggo, Kec. Jetis, Kabupaten Bantul";"DAERAH ISTIMEWA YOGYAKARTA";"55714";"Indonesia";" 089518501333";"";"/url?q>>u003dhttps://shopee.co.id/dicky.damara>>u0026opi>>u003d79508299>>u0026sa>>u003dU>>u0026ved>>u003d0ahUKEwjfmoKOqv-LAxVIbWwGHaxfGbEQ61gIFigS>>u0026usg>>u003dAOvVaw3Gsqrk54bFtJ8OTzEZU8uc";"-7.909081";"110.351839";"https://maps.google.com/?cid=0x0:0x5d68a1c8f6c1f542";""
"mall";"Pusat Perbelanjaan";"Pakuwon Mall Jogja";"Jl. Ring Road Utara, Kaliwaru, Condongcatur, Kec. Depok, Kabupaten Sleman, Daerah Istimewa Yogyakarta 55281";"Kaliwaru, Condongcatur, Kec. Depok, Kabupaten Sleman";"DAERAH ISTIMEWA YOGYAKARTA";"55281";"Indonesia";" 02742924095";"";"/url?q>>u003dhttps://pakuwonmalljogja.com/>>u0026opi>>u003d79508299>>u0026sa>>u003dU>>u0026ved>>u003d0ahUKEwi_uJCOqv-LAxVrzzgGHUqBLeIQ61gIFigS>>u0026usg>>u003dAOvVaw0MdsBx0VKUlNRhoABZkmaD";"-7.7588094";"110.3992739";"https://maps.google.com/?cid=0x0:0xa864a4f7fe95e090";""
"mall";"Pusat Perbelanjaan";"Moreskin Bantul yogyakarta";"487Q+5Q5, Pasutan, Trirenggo, Kec. Bantul, Kabupaten Bantul, Daerah Istimewa Yogyakarta 55714";"Pasutan, Trirenggo, Kec. Bantul, Kabupaten Bantul";"DAERAH ISTIMEWA YOGYAKARTA";"55714";"Indonesia";" 081818239944";"";"";"-7.8871164";"110.3394769";"https://maps.google.com/?cid=0x0:0x2d7029f9a2e53b9";""
"mall";"Toko";"Store_dotuku";"Jl. Manding Kidul, Manding, Trirenggo, Kec. Bantul, Kabupaten Bantul, Daerah Istimewa Yogyakarta 55714";"Manding, Trirenggo, Kec. Bantul, Kabupaten Bantul";"DAERAH ISTIMEWA YOGYAKARTA";"55714";"Indonesia";" 082325451466";"";"";"-7.9026052";"110.3520051";"https://maps.google.com/?cid=0x0:0x5544535173fcde9e";""
"mall";"Toko";"Toko DEFI";"38XR+74M, Jl. Ir. H. Juanda, Area Sawah, Trirenggo, Kec. Bantul, Kabupaten Bantul, Daerah Istimewa Yogyakarta 55714";"Jl. Ir. H. Juanda, Area Sawah, Trirenggo, Kec. Bantul, Kabupaten Bantul";"DAERAH ISTIMEWA YOGYAKARTA";"55714";"Indonesia";" 085878725683";"";"";"-7.901792";"110.3403";"https://maps.google.com/?cid=0x0:0x4cbc38e2e379df19";""
"mall";"Toko Pakaian";"Supplyer Branded Matahari";"484R+G5M, Jl. Dr. Wahidin Sudiro Husodo, Area Sawah, Trirenggo, Kec. Bantul, Kabupaten Bantul, Daerah Istimewa Yogyakarta 55714";"Jl. Dr. Wahidin Sudiro Husodo, Area Sawah, Trirenggo, Kec. Bantul, Kabupaten Bantul";"DAERAH ISTIMEWA YOGYAKARTA";"55714";"Indonesia";" 081246088091";"";"";"-7.8936609";"110.3404216";"https://maps.google.com/?cid=0x0:0x480e6d965704698e";""
"mall";"Pusat Perbelanjaan";"Plaza Ambarrukmo";"Jl. Laksda Adisucipto No.80, Ambarukmo, Caturtunggal, Kec. Depok, Kabupaten Sleman, Daerah Istimewa Yogyakarta 55281";"Ambarukmo, Caturtunggal, Kec. Depok, Kabupaten Sleman";"DAERAH ISTIMEWA YOGYAKARTA";"55281";"Indonesia";" 02744331000";"";"";"-7.7825776";"110.4010956";"https://maps.google.com/?cid=0x0:0x1ce91a3c5aa8b3bc";""
"mall";"Pusat Perbelanjaan";"Royal Mart";"38PJ+XH9, Ngringinan, Palbapang, Kec. Bantul, Kabupaten Bantul, Daerah Istimewa Yogyakarta 55713";"Ngringinan, Palbapang, Kec. Bantul, Kabupaten Bantul";"DAERAH ISTIMEWA YOGYAKARTA";"55713";"Indonesia";" 082334223655";"";"";"-7.9124923";"110.3316476";"https://maps.google.com/?cid=0x0:0x53fc59f41b0222cb";""
"mall";"Kantor Perusahaan";"Naufal PF";"488M+4Q7, Bantul Wr., Bantul, Kec. Bantul, Kabupaten Bantul, Daerah Istimewa Yogyakarta 55711";"Bantul Wr., Bantul, Kec. Bantul, Kabupaten Bantul";"DAERAH ISTIMEWA YOGYAKARTA";"55711";"Indonesia";" 081541184534";"";"";"-7.8847215";"110.3344317";"https://maps.google.com/?cid=0x0:0x64fdde20eb60cb27";""
"mall";"Pusat Perbelanjaan";"Alaska Store 1";"484V+C3J, Jl. Dr. Wahidin Sudiro Husodo, Area Sawah, Trirenggo, Kec. Bantul, Kabupaten Bantul, Daerah Istimewa Yogyakarta 55714";"Jl. Dr. Wahidin Sudiro Husodo, Area Sawah, Trirenggo, Kec. Bantul, Kabupaten Bantul";"DAERAH ISTIMEWA YOGYAKARTA";"55714";"Indonesia";" 087838234886";"";"";"-7.893914";"110.3426539";"https://maps.google.com/?cid=0x0:0xa797c2eba79d62d7";""
"mall";"Kafe";"Mendem duren";"484Q+MQV, Jl. Wahidin Sudiro Husodo, Area Sawah, Trirenggo, Kec. Bantul, Kabupaten Bantul, Daerah Istimewa Yogyakarta 55714";"Jl. Wahidin Sudiro Husodo, Area Sawah, Trirenggo, Kec. Bantul, Kabupaten Bantul";"DAERAH ISTIMEWA YOGYAKARTA";"55714";"Indonesia";"";"";"";"-7.8932641";"110.3394131";"https://maps.google.com/?cid=0x0:0x72640b36b326c451";""
"mall";"Pusat Perbelanjaan";"Gerai Tsaniya";"Jl. Jend. Sudirman No.148, Nyangkringan, Bantul, Kec. Bantul, Kabupaten Bantul, Daerah Istimewa Yogyakarta 55711";"Nyangkringan, Bantul, Kec. Bantul, Kabupaten Bantul";"DAERAH ISTIMEWA YOGYAKARTA";"55711";"Indonesia";" 081904218386";"";"";"-7.8878451";"110.3290325";"https://maps.google.com/?cid=0x0:0x23fc78f22e729bc6";""
"mall";"Pusat Perbelanjaan";"Minio Official YK";"39X2+QCM, Manding, Trirenggo, Kec. Bantul, Kabupaten Bantul, Daerah Istimewa Yogyakarta 55714";"Manding, Trirenggo, Kec. Bantul, Kabupaten Bantul";"DAERAH ISTIMEWA YOGYAKARTA";"55714";"Indonesia";" 083867727225";"";"";"-7.9005401";"110.3510487";"https://maps.google.com/?cid=0x0:0x4c8f10ebe65d6ef5";""
"mall";"Toko Perlengkapan Kado";"Go Fast Project (Buket, Frame, Snack Tower)";"Sumber Bantikan RT08, Trirenggo, Kec. Bantul, Kabupaten Bantul, Daerah Istimewa Yogyakarta 55714";"Trirenggo, Kec. Bantul, Kabupaten Bantul";"DAERAH ISTIMEWA YOGYAKARTA";"55714";"Indonesia";" 085954943434";"";"";"-7.9122325";"110.340906";"https://maps.google.com/?cid=0x0:0x952c2a7cf9f01e3e";""
"mall";"Pasar";"Pasar Kliwon Bantul";"488H+796, Jl. Moh. Yamin No.41-21, Kurahan, Bantul, Kec. Bantul, Kabupaten Bantul, Daerah Istimewa Yogyakarta 55711";"Jl. Moh. Yamin No.41-21, Kurahan, Bantul, Kec. Bantul, Kabupaten Bantul";"DAERAH ISTIMEWA YOGYAKARTA";"55711";"Indonesia";"";"";"";"-7.8843748";"110.3250168";"https://maps.google.com/?cid=0x0:0x6b776cf58190f1ba";""
"mall";"Toko Suvenir";"siska store";"Bantul Timur, Trirenggo, Kec. Bantul, yogyakarta, Daerah Istimewa Yogyakarta 55714";"Trirenggo, Kec. Bantul, yogyakarta";"DAERAH ISTIMEWA YOGYAKARTA";"55714";"Indonesia";" 081228085816";"";"/url?q>>u003dhttp://skakhrns.blogspot.com/>>u0026opi>>u003d79508299>>u0026sa>>u003dU>>u0026ved>>u003d0ahUKEwih2oGSqv-LAxWx4jgGHZOwDrQQ61gIFigS>>u0026usg>>u003dAOvVaw3l7g8mpA4oppG_dxythb-5";"-7.8859702";"110.3383244";"https://maps.google.com/?cid=0x0:0x79aa2229f82b19b1";""
"mall";"Toko Kosmetik";"Lets Go Shop";"483V+P6H, Jl. Anggrek, RT.03/RW.23, Nogosari, Trirenggo, Kec. Bantul, Kabupaten Bantul, Daerah Istimewa Yogyakarta 55714";"Jl. Anggrek, RT.03/RW.23, Nogosari, Trirenggo, Kec. Bantul, Kabupaten Bantul";"DAERAH ISTIMEWA YOGYAKARTA";"55714";"Indonesia";" 087839226288";"";"";"-7.8956417";"110.3431006";"https://maps.google.com/?cid=0x0:0xf0bda20a441775bc";""
"mall";"Pusat Perbelanjaan";"UNI STORE";"Patalan, Kec. Jetis, Kabupaten Bantul, Daerah Istimewa Yogyakarta 55781";"Kec. Jetis, Kabupaten Bantul";"DAERAH ISTIMEWA YOGYAKARTA";"55781";"Indonesia";" 08984463602";"";"";"-7.9226634";"110.3509955";"https://maps.google.com/?cid=0x0:0xe99a900c9e68f693";""
"mall";"Toko umum";"PD ALSHOP";"Jl. Manding Kidul No.rt 06, Area Sawah, Trirenggo, Kec. Bantul, Kabupaten Bantul, Daerah Istimewa Yogyakarta 55714";"Area Sawah, Trirenggo, Kec. Bantul, Kabupaten Bantul";"DAERAH ISTIMEWA YOGYAKARTA";"55714";"Indonesia";" 087739697749";"";"";"-7.903116";"110.34906";"https://maps.google.com/?cid=0x0:0x5124d53127c4fe8c";""
"mall";"mall";"Daerah Istimewa Yogyakarta 55714";"Trirenggo, Kec. Bantul, Kabupaten Bantul, Daerah Istimewa Yogyakarta";"Kabupaten Bantul, Daerah Istimewa Yogyakarta";"DAERAH ISTIMEWA YOGYAKARTA";"";"Indonesia";"";"";"";"-7.8974795";"110.3457756";"https://maps.google.com/?cid=0x0:0x1c00c5eb5b53c280";""
"mall";"Toko Burung";"Burung Masteran Jogja";"38MR+3WW, Cempoko, Trirenggo, Kec. Bantul, Kabupaten Bantul, Daerah Istimewa Yogyakarta 55714";"Cempoko, Trirenggo, Kec. Bantul, Kabupaten Bantul";"DAERAH ISTIMEWA YOGYAKARTA";"55714";"Indonesia";" 082198581812";"";"";"-7.9172003";"110.3422738";"https://maps.google.com/?cid=0x0:0xa1a875ee559e023a";""
"mall";"Pusat Perbelanjaan";"Fian Cell";"482V+C3P, Jl. Mawar, Nogosari, Trirenggo, Kec. Bantul, Kabupaten Bantul, Daerah Istimewa Yogyakarta 55714";"Jl. Mawar, Nogosari, Trirenggo, Kec. Bantul, Kabupaten Bantul";"DAERAH ISTIMEWA YOGYAKARTA";"55714";"Indonesia";"";"";"";"-7.8989248";"110.3426933";"https://maps.google.com/?cid=0x0:0x2150e73cd63b787";""
"mall";"Pusat Perbelanjaan";"AZKA CARD";"Jl. Marsda Adisucipto No.6, Bejen, Bantul, Kec. Bantul, Kabupaten Bantul, Daerah Istimewa Yogyakarta 55714";"Bejen, Bantul, Kec. Bantul, Kabupaten Bantul";"DAERAH ISTIMEWA YOGYAKARTA";"55714";"Indonesia";" 08999905015";"";"";"-7.8934159";"110.3352227";"https://maps.google.com/?cid=0x0:0xb9dc934fa9f6b095";""
"mall";"Toko";"Omah Wangi Bantul Sudirman";"Jl. Jend. Sudirman, Nyangkringan, Bantul, Kec. Bantul, Kabupaten Bantul, Daerah Istimewa Yogyakarta 55711";"Nyangkringan, Bantul, Kec. Bantul, Kabupaten Bantul";"DAERAH ISTIMEWA YOGYAKARTA";"55711";"Indonesia";" 0895710926400";"";"";"-7.8860151";"110.3309043";"https://maps.google.com/?cid=0x0:0xe1fe8ec16c1012d7";""
"mall";"Pusat Perbelanjaan";"Cv Tempe Dele";"484J+6FW, karang anom bejen, Gg. Pemuda, Bejen, Bantul, Kec. Bantul, Kabupaten Bantul, Daerah Istimewa Yogyakarta 55711";"karang anom bejen, Gg. Pemuda, Bejen, Bantul, Kec. Bantul, Kabupaten Bantul";"DAERAH ISTIMEWA YOGYAKARTA";"55711";"Indonesia";" 081802695713";"";"";"-7.8943761";"110.3311997";"https://maps.google.com/?cid=0x0:0x167b0372f4bf3a7d";""
"mall";"Pusat Perbelanjaan";"Pakuwon Mall Jogja";"Jl. Ring Road Utara, Kaliwaru, Condongcatur, Kec. Depok, Kabupaten Sleman, Daerah Istimewa Yogyakarta 55281";"Kaliwaru, Condongcatur, Kec. Depok, Kabupaten Sleman";"DAERAH ISTIMEWA YOGYAKARTA";"55281";"Indonesia";" 02742924095";"";"/url?q>>u003dhttps://pakuwonmalljogja.com/>>u0026opi>>u003d79508299>>u0026sa>>u003dU>>u0026ved>>u003d0ahUKEwiiu5elqv-LAxWOwzgGHaw1GpcQ61gIFigS>>u0026usg>>u003dAOvVaw3J-YEgAkwLDUpT8hfnPkl5";"-7.7588094";"110.3992739";"https://maps.google.com/?cid=0x0:0xa864a4f7fe95e090";""
"mall";"Pusat Perbelanjaan";"Jogja City Mall";"Jl. Magelang No.6 No.18, Kutu Patran, Sinduadi, Kec. Mlati, Kabupaten Sleman, Daerah Istimewa Yogyakarta 55284";"Kutu Patran, Sinduadi, Kec. Mlati, Kabupaten Sleman";"DAERAH ISTIMEWA YOGYAKARTA";"55284";"Indonesia";" 02745305855";"";"/url?q>>u003dhttp://www.jogjacitymall.com/>>u0026opi>>u003d79508299>>u0026sa>>u003dU>>u0026ved>>u003d0ahUKEwiDo7mlqv-LAxXU4zgGHdo-PWUQ61gIFigS>>u0026usg>>u003dAOvVaw1JdBJuhA7N0LSGPkwG5W9r";"-7.7532424";"110.3609091";"https://maps.google.com/?cid=0x0:0x39d891d2e8da95a9";""
"mall";"Pusat Perbelanjaan";"Plaza Ambarrukmo";"Jl. Laksda Adisucipto No.80, Ambarukmo, Caturtunggal, Kec. Depok, Kabupaten Sleman, Daerah Istimewa Yogyakarta 55281";"Ambarukmo, Caturtunggal, Kec. Depok, Kabupaten Sleman";"DAERAH ISTIMEWA YOGYAKARTA";"55281";"Indonesia";" 02744331000";"";"/url?q>>u003dhttps://www.plaza-ambarrukmo.co.id/>>u0026opi>>u003d79508299>>u0026sa>>u003dU>>u0026ved>>u003d0ahUKEwjY99alqv-LAxUlyzgGHczgOYIQ61gIFigS>>u0026usg>>u003dAOvVaw2-i6rPv1bXbO12QgKA8oO0";"-7.7825776";"110.4010956";"https://maps.google.com/?cid=0x0:0x1ce91a3c5aa8b3bc";""
"mall";"Pusat Perbelanjaan";"OMAH JOGJA GROSIR";"NECO RT 03, Neco, Sabdodadi, Kec. Bantul, Kabupaten Bantul, Daerah Istimewa Yogyakarta 55715";"Neco, Sabdodadi, Kec. Bantul, Kabupaten Bantul";"DAERAH ISTIMEWA YOGYAKARTA";"55715";"Indonesia";" 0895406661111";"";"";"-7.8887084";"110.3494988";"https://maps.google.com/?cid=0x0:0xc4c6c36ab225d8bc";""
"mall";"mall";"Kripik tempe Mak Saminah";"39X8+FV6, Gatak, Sumberagung, Kec. Jetis, Kabupaten Bantul, Daerah Istimewa Yogyakarta 55781";"Gatak, Sumberagung, Kec. Jetis, Kabupaten Bantul";"DAERAH ISTIMEWA YOGYAKARTA";"55781";"Indonesia";" 088216646991";"";"";"-7.9013391";"110.367152";"https://maps.google.com/?cid=0x0:0xb59c5b4db84c36f4";""
"mall";"Pusat Perbelanjaan";"Peyek Ndlewer mustofa";"manggung Kowen, RT.5, Sewon / Sanggrahan, Timbulharjo, Kec. Sewon, Kabupaten Bantul, Daerah Istimewa Yogyakarta 55185";"RT.5, Sewon / Sanggrahan, Timbulharjo, Kec. Sewon, Kabupaten Bantul";"DAERAH ISTIMEWA YOGYAKARTA";"55185";"Indonesia";" 085729842332";"";"";"-7.8852446";"110.3638817";"https://maps.google.com/?cid=0x0:0x99bec604fdff692f";""
"mall";"Toko";"Store_dotuku";"Jl. Manding Kidul, Manding, Trirenggo, Kec. Bantul, Kabupaten Bantul, Daerah Istimewa Yogyakarta 55714";"Manding, Trirenggo, Kec. Bantul, Kabupaten Bantul";"DAERAH ISTIMEWA YOGYAKARTA";"55714";"Indonesia";" 082325451466";"";"";"-7.9026052";"110.3520051";"https://maps.google.com/?cid=0x0:0x5544535173fcde9e";""
"mall";"Ahli Kacamata";"Yuli Kacamata Ion Nano";"Manding, Sabdodadi, Kec. Bantul, Kabupaten Bantul, Daerah Istimewa Yogyakarta 55715";"Sabdodadi, Kec. Bantul, Kabupaten Bantul";"DAERAH ISTIMEWA YOGYAKARTA";"55715";"Indonesia";" 087875174224";"";"/url?q>>u003dhttps://k-mart.co.id/cart/KDrFXSA1>>u0026opi>>u003d79508299>>u0026sa>>u003dU>>u0026ved>>u003d0ahUKEwjp3I-nqv-LAxUOzDgGHSj5GdMQ61gIFigS>>u0026usg>>u003dAOvVaw24HUe4gWNHwk2532yDmdzd";"-7.8945385";"110.3514517";"https://maps.google.com/?cid=0x0:0xb24b0c3091935cd";""
"mall";"Toko Optik";"OPTIK TAMATA";"Gabusan, Jl. Parangtritis No.9, RW.9, Gabusan, Timbulharjo, Kec. Sewon, Kabupaten Bantul, Daerah Istimewa Yogyakarta 55185";"Jl. Parangtritis No.9, RW.9, Gabusan, Timbulharjo, Kec. Sewon, Kabupaten Bantul";"DAERAH ISTIMEWA YOGYAKARTA";"55185";"Indonesia";" 081804244443";"";"";"-7.88234";"110.3525859";"https://maps.google.com/?cid=0x0:0xfdb06ec1bd891f42";""
"mall";"Toko bahan makanan";"TIMBUL REJEKI Grosir  Eceran ꦠꦶꦩ꧀ꦧꦸꦭꦽꦗꦼꦏꦶꦒꦿꦺꦴꦱꦶꦂꦢꦤꦼꦕꦼꦫꦤ꧀";"49F4+9R3, Degan, Timbulharjo, Kec. Sewon, Kabupaten Bantul, Daerah Istimewa Yogyakarta 55185";"Degan, Timbulharjo, Kec. Sewon, Kabupaten Bantul";"DAERAH ISTIMEWA YOGYAKARTA";"55185";"Indonesia";" 082328481220";"";"";"-7.8766164";"110.3570454";"https://maps.google.com/?cid=0x0:0xc9d22b259479c665";""
"mall";"Pusat Perbelanjaan";"Archo Leather";"Manding, Sabdodadi, Kec. Bantul, Kabupaten Bantul, Daerah Istimewa Yogyakarta 55715";"Sabdodadi, Kec. Bantul, Kabupaten Bantul";"DAERAH ISTIMEWA YOGYAKARTA";"55715";"Indonesia";" 085727725940";"";"";"-7.8935912";"110.3512822";"https://maps.google.com/?cid=0x0:0x39e17e9330cf728d";""
"mall";"Grosir";"Kebon Cupang Yogyakarta";"482X+9JM, Manding, Sabdodadi, Kec. Bantul, Kabupaten Bantul, Daerah Istimewa Yogyakarta 55715";"Manding, Sabdodadi, Kec. Bantul, Kabupaten Bantul";"DAERAH ISTIMEWA YOGYAKARTA";"55715";"Indonesia";" 0895380241406";"";"";"-7.8990304";"110.3490388";"https://maps.google.com/?cid=0x0:0x5fcf540cd4e251b7";""
"mall";"Toko Mainan";"FAMILY TOYS BANTUL";"Jl. Pramuka No.31, Area Sawah, Trirenggo, Kec. Bantul, Kabupaten Bantul, Daerah Istimewa Yogyakarta 55714";"Area Sawah, Trirenggo, Kec. Bantul, Kabupaten Bantul";"DAERAH ISTIMEWA YOGYAKARTA";"55714";"Indonesia";" 085800050950";"";"";"-7.8848828";"110.3473402";"https://maps.google.com/?cid=0x0:0x7356b11964a9bac6";""
"mall";"Pusat Perbelanjaan";"Moreskin Bantul yogyakarta";"487Q+5Q5, Pasutan, Trirenggo, Kec. Bantul, Kabupaten Bantul, Daerah Istimewa Yogyakarta 55714";"Pasutan, Trirenggo, Kec. Bantul, Kabupaten Bantul";"DAERAH ISTIMEWA YOGYAKARTA";"55714";"Indonesia";" 081818239944";"";"";"-7.8871164";"110.3394769";"https://maps.google.com/?cid=0x0:0x2d7029f9a2e53b9";""
"mall";"Pusat Perbelanjaan";"Malioboro Mall";"Jl. Mataram No.31, Suryatmajan, Kec. Danurejan, Kota Yogyakarta, Daerah Istimewa Yogyakarta 55213";"Suryatmajan, Kec. Danurejan, Kota Yogyakarta";"DAERAH ISTIMEWA YOGYAKARTA";"55213";"Indonesia";" 0274551888";"";"/url?q>>u003dhttp://malmalioboro.co.id/>>u0026opi>>u003d79508299>>u0026sa>>u003dU>>u0026ved>>u003d0ahUKEwiyqv2oqv-LAxW5XGwGHUxUBtoQ61gIFigS>>u0026usg>>u003dAOvVaw2KOFmivM839mehRuIE1PqR";"-7.7933702";"110.3668603";"https://maps.google.com/?cid=0x0:0xd57e2a1709526952";""
"mall";"Jasa Konstruksi dan Bangunan";"Heri Berkah las";"487X+PQX, Sragan, Trirenggo, Kec. Bantul, Kabupaten Bantul, Daerah Istimewa Yogyakarta 55715";"Sragan, Trirenggo, Kec. Bantul, Kabupaten Bantul";"DAERAH ISTIMEWA YOGYAKARTA";"55715";"Indonesia";" 0895422394592";"";"";"-7.8856478";"110.3494777";"https://maps.google.com/?cid=0x0:0xc967d44d6d14e52f";""
"mall";"Toko Kesehatan dan Kecantikan";"Yulia K-Mart";"Jl. Dr. Wahidin Sudiro Husodo No.RT. 004, Manding, Sabdodadi, Kec. Bantul, Kabupaten Bantul, Daerah Istimewa Yogyakarta 55715";"Manding, Sabdodadi, Kec. Bantul, Kabupaten Bantul";"DAERAH ISTIMEWA YOGYAKARTA";"55715";"Indonesia";" 081334354121";"";"";"-7.8945921";"110.3514993";"https://maps.google.com/?cid=0x0:0x3565d7ddfbdf0bed";""
"mall";"Toko Suvenir";"Toko As Salaam Pusat Oleh Oleh Haji dan Umroh";"488W+2R3, Jl. Pramuka, Code, Bantul, Kec. Bantul, Kabupaten Bantul, Daerah Istimewa Yogyakarta";"Kabupaten Bantul, Daerah Istimewa Yogyakarta";"DAERAH ISTIMEWA YOGYAKARTA";"";"Indonesia";" 082227175086";"";"";"-7.8849939";"110.3470525";"https://maps.google.com/?cid=0x0:0xaf8399cb055ce9ea";""
"mall";"Toko";"S3 OLSHOP";"kersan rt03, Gabusan, Timbulharjo, Kec. Sewon, Kabupaten Bantul, Daerah Istimewa Yogyakarta 55185";"Gabusan, Timbulharjo, Kec. Sewon, Kabupaten Bantul";"DAERAH ISTIMEWA YOGYAKARTA";"55185";"Indonesia";" 081904111812";"";"";"-7.8799405";"110.3498048";"https://maps.google.com/?cid=0x0:0xb258d128589495e0";""
"mall";"mall";"Daerah Istimewa Yogyakarta 55715";"Sabdodadi, Kec. Bantul, Kabupaten Bantul, Daerah Istimewa Yogyakarta";"Kabupaten Bantul, Daerah Istimewa Yogyakarta";"DAERAH ISTIMEWA YOGYAKARTA";"";"Indonesia";"";"";"";"-7.8917246";"110.3576912";"https://maps.google.com/?cid=0x0:0x1c00c5eb5b53c290";""
"mall";"Pusat Perbelanjaan";"PUSAT CRYSTAL X BANTUL";"387F+Q23, Jl. Caben, Gunungan, Sumbermulyo, Kec. Bambanglipuro, Kabupaten Bantul, Daerah Istimewa Yogyakarta 55764";"Jl. Caben, Gunungan, Sumbermulyo, Kec. Bambanglipuro, Kabupaten Bantul";"DAERAH ISTIMEWA YOGYAKARTA";"55764";"Indonesia";" 085950548222";"";"/url?q>>u003dhttp://endahwahyuningsihnasabantul.blogspot.com/>>u0026opi>>u003d79508299>>u0026sa>>u003dU>>u0026ved>>u003d0ahUKEwjls8qqqv-LAxVbzjgGHTLqB7MQ61gIFSgR>>u0026usg>>u003dAOvVaw0SaXam2i3nfio044_4vPhd";"-7.9356107";"110.3225427";"https://maps.google.com/?cid=0x0:0x67e6abacf1215e41";""
"mall";"Pusat Perbelanjaan";"Kampoeng Semarang Di Jogja";"5, Jl. Parangtritis No.KM, RW.5, Tarudan, Bangunharjo, Kabupaten Bantul, Daerah Istimewa Yogyakarta 55188";"Jl. Parangtritis No.KM, RW.5, Tarudan, Bangunharjo, Kabupaten Bantul";"DAERAH ISTIMEWA YOGYAKARTA";"55188";"Indonesia";"";"";"";"-7.8443713";"110.3621787";"https://maps.google.com/?cid=0x0:0xa2fe7b03605435ee";""
"mall";"Pusat Perbelanjaan";"BellaSTORE";"Bangeran Sabdodadi Bantul RT 06, Kabupaten Bantul, Daerah Istimewa Yogyakarta 55715";"Kabupaten Bantul";"DAERAH ISTIMEWA YOGYAKARTA";"55715";"Indonesia";" 089510470805";"";"";"-7.8917246";"110.3576912";"https://maps.google.com/?cid=0x0:0x77719b0017ef1788";""
