Category;Real Category;Business Name;Address;City;State;Postal Code;Country;Phone;Email;Website;Latitude;Longitude;Map Link;Details Link
"building materials";"Toko Bahan Bangunan";"TOKO BANGUNAN AAD";"85H6+7VX, Jln. K.H. Hasyim Asy'ari, Kuala Batahan, Kec. Batahan";"Kabupaten Mandailing Natal, Sumatera Utara";"SUMATERA UTARA";"";"Indonesia";" 087891105252";"";"";"0.3282437";"99.1622211";"https://maps.google.com/?cid=0x0:0x5ca7852f6dc66438";""
"building materials";"Gudang";"UD.MITRA SEJATI";"9787+PWV, Jalan Lintas, Batahan IV, Kec. Batahan, Kabupaten Mandailing Natal, Sumatera Utara 22988";"Jalan Lintas, Batahan IV, Kec. Batahan, Kabupaten Mandailing Natal";"SUMATERA UTARA";"22988";"Indonesia";"";"";"";"0.3668546";"99.2647851";"https://maps.google.com/?cid=0x0:0x20423889ebf2ec50";""
"building materials";"building materials";"Batahan";"Sari Kenanga, Kec. Batahan, Kabupaten Mandailing Natal, Sumatera Utara";"Kabupaten Mandailing Natal, Sumatera Utara";"SUMATERA UTARA";"";"Indonesia";"";"";"";"0.396003";"99.141617";"https://maps.google.com/?cid=0x0:0x27081349cdba551e";""
"building materials";"building materials";"Sumatera Utara 22983";"Kabupaten Mandailing Natal, Sumatera Utara";"Kabupaten Mandailing Natal, Sumatera Utara";"SUMATERA UTARA";"";"Indonesia";"";"";"";"0.7058278";"99.3229213";"https://maps.google.com/?cid=0x0:0x2cc041769b34cd56";""
"building materials";"Toko Bahan Bangunan";"Mulia Rasoki";"Jl. Lintas Sumbar No.169, Huta Raja, Kec. Ranto Baek, Kabupaten Mandailing Natal, Sumatera Utara 22983";"Huta Raja, Kec. Ranto Baek, Kabupaten Mandailing Natal";"SUMATERA UTARA";"22983";"Indonesia";"";"";"";"0.5198635";"99.4028234";"https://maps.google.com/?cid=0x0:0x2ec2eda4088c69b7";""
"building materials";"Toko Bahan Bangunan";"Api Toko Bangunan";"MCC8+764, Jl. Lintas Natal, Bangkelang, Kec. Batang Natal, Kabupaten Mandailing Natal, Sumatera Utara 22983";"Jl. Lintas Natal, Bangkelang, Kec. Batang Natal, Kabupaten Mandailing Natal";"SUMATERA UTARA";"22983";"Indonesia";"";"";"";"0.6706446";"99.4155809";"https://maps.google.com/?cid=0x0:0xd6e2cd88eafbac38";""
"building materials";"Toko Bahan Bangunan";"Madina steel";"RHXC+9QC, Jl. Lintas Timur, Sipolu Polu, Kec. Panyabungan, Kabupaten Mandailing Natal, Sumatera Utara";"Kabupaten Mandailing Natal, Sumatera Utara";"SUMATERA UTARA";"";"Indonesia";" 082267313298";"";"";"0.8484321";"99.5719042";"https://maps.google.com/?cid=0x0:0xbb8424ccaa9cfc";""
"building materials";"Toko Bahan Bangunan";"UD. Akbar Bangunan / Akbar Safety panyabungan";"Desa, Hutarimbaru, Kec. Panyabungan Sel., Kabupaten Mandailing Natal, Sumatera Utara 22994";"Hutarimbaru, Kec. Panyabungan Sel., Kabupaten Mandailing Natal";"SUMATERA UTARA";"22994";"Indonesia";" 081362929907";"";"";"0.7442233";"99.5561863";"https://maps.google.com/?cid=0x0:0xf9f9137c9ac13cbb";""
"building materials";"Toko Bahan Bangunan";"Putra jaya batako";"J8G4+GG7, Simpang Gambir, Kec. Lingga Bayu, Kabupaten Mandailing Natal, Sumatera Utara 22983";"Simpang Gambir, Kec. Lingga Bayu, Kabupaten Mandailing Natal";"SUMATERA UTARA";"22983";"Indonesia";"";"";"";"0.6262786";"99.3062823";"https://maps.google.com/?cid=0x0:0x920a3af31953daff";""
"building materials";"Toko Perlengkapan Rumah";"UD Usaha Baru";"J76Q+XVM, Simpang Gambir, Kec. Lingga Bayu, Kabupaten Mandailing Natal, Sumatera Utara 22983";"Simpang Gambir, Kec. Lingga Bayu, Kabupaten Mandailing Natal";"SUMATERA UTARA";"22983";"Indonesia";"";"";"";"0.6124719";"99.2896734";"https://maps.google.com/?cid=0x0:0x6c20ff92ad3c3dfb";""
"building materials";"Toko Bahan Bangunan";"TOKO MADINA BAJA";"QHFH+VJC, Purba Baru, Kec. Lembah Sorik Marapi, Kabupaten Mandailing Natal, Sumatera Utara 22952";"Purba Baru, Kec. Lembah Sorik Marapi, Kabupaten Mandailing Natal";"SUMATERA UTARA";"22952";"Indonesia";" 081360095448";"";"";"0.7746936";"99.5790012";"https://maps.google.com/?cid=0x0:0xfa3e945f08a2a73b";""
"building materials";"Toko Swalayan";"UD Banjar Makmur";"C64P+FM3, Muara Pertemuan, Kec. Batahan, Kabupaten Mandailing Natal, Sumatera Utara 22988";"Muara Pertemuan, Kec. Batahan, Kabupaten Mandailing Natal";"SUMATERA UTARA";"22988";"Indonesia";" 082166444688";"";"";"0.4061297";"99.2366786";"https://maps.google.com/?cid=0x0:0x8adeff0bc1e7ceb8";""
"building materials";"Toko Bahan Bangunan";"UD.PUTRA BAHRAN TANOBATO";"Jl. Lintas Natal No.Kel, Tano Bato, Kec. Panyabungan Sel., Kabupaten Mandailing Natal, Sumatera Utara 22994";"Tano Bato, Kec. Panyabungan Sel., Kabupaten Mandailing Natal";"SUMATERA UTARA";"22994";"Indonesia";"";"";"";"0.7423196";"99.5544282";"https://maps.google.com/?cid=0x0:0x51d50c685a364eff";""
"building materials";"Toko Bahan Bangunan";"Usaha Lubis";"Penyabungan, Jl. Willem Iskandar No.64, Panyabungan II, Kec. Panyabungan, Kabupaten Mandailing Natal, Sumatera Utara 22976";"Jl. Willem Iskandar No.64, Panyabungan II, Kec. Panyabungan, Kabupaten Mandailing Natal";"SUMATERA UTARA";"22976";"Indonesia";"";"";"";"0.8588128";"99.5627589";"https://maps.google.com/?cid=0x0:0x70f5a4817d2d1ad2";""
"building materials";"Toko Bahan Bangunan";"Ammil Lubis";"Sipolu Polu, Kec. Panyabungan, Kabupaten Mandailing Natal, Sumatera Utara 22976";"Kec. Panyabungan, Kabupaten Mandailing Natal";"SUMATERA UTARA";"22976";"Indonesia";"";"";"";"0.8569796";"99.5662755";"https://maps.google.com/?cid=0x0:0xe83c1ac147f348f3";""
"building materials";"Toko Bahan Bangunan";"TOKO BANGUNAN AAD";"85H6+7VX, Jln. K.H. Hasyim Asy'ari, Kuala Batahan, Kec. Batahan";"Kabupaten Mandailing Natal, Sumatera Utara";"SUMATERA UTARA";"";"Indonesia";" 087891105252";"";"";"0.3282437";"99.1622211";"https://maps.google.com/?cid=0x0:0x5ca7852f6dc66438";""
"building materials";"Toko Bahan Bangunan";"Jayaboard";"Jl. Willem Iskandar No.225, Pidoli Dolok, Kec. Panyabungan, Kabupaten Mandailing Natal, Sumatera Utara 22977";"Pidoli Dolok, Kec. Panyabungan, Kabupaten Mandailing Natal";"SUMATERA UTARA";"22977";"Indonesia";"";"";"";"0.8514958";"99.562422";"https://maps.google.com/?cid=0x0:0x7abd6810efd3ec4b";""
"building materials";"Toko Bahan Bangunan";"UD. BERKAH";"PHJ8+43J, Unnamed Road, Huta Raja, Kec. Panyabungan Sel., Kabupaten Mandailing Natal, Sumatera Utara 22994";"Unnamed Road, Huta Raja, Kec. Panyabungan Sel., Kabupaten Mandailing Natal";"SUMATERA UTARA";"22994";"Indonesia";" 081218728057";"";"";"0.7303418";"99.5651395";"https://maps.google.com/?cid=0x0:0xcc42f8d81d56e303";""
"building materials";"Toko Bahan Bangunan";"UD.WIWIN";"Panggautan, Kec. Natal, Kabupaten Mandailing Natal, Sumatera Utara 22987";"Kec. Natal, Kabupaten Mandailing Natal";"SUMATERA UTARA";"22987";"Indonesia";" 081262582188";"";"";"0.5819258";"99.1089545";"https://maps.google.com/?cid=0x0:0x8b9851740af8d251";""
"building materials";"Toko Bahan Bangunan";"UD. H.Rohmatulloh Rangkuti";"Jl. Trans Sumatera Bukittinggi - Padang Sidempuan, Aek Lapan, Kec. Panyabungan, Kabupaten Mandailing Natal, Sumatera Utara 22977";"Aek Lapan, Kec. Panyabungan, Kabupaten Mandailing Natal";"SUMATERA UTARA";"22977";"Indonesia";" 081260207870";"";"";"0.8486723";"99.562532";"https://maps.google.com/?cid=0x0:0x4373c04c4a112e32";""
"building materials";"Toko Bahan Bangunan";"CV.AMANAH";"Purba Baru, Kec. Lembah Sorik Marapi, Kabupaten Mandailing Natal, Sumatera Utara 22952";"Kec. Lembah Sorik Marapi, Kabupaten Mandailing Natal";"SUMATERA UTARA";"22952";"Indonesia";" 082273382929";"";"";"0.7722503";"99.5786137";"https://maps.google.com/?cid=0x0:0x1b223bb67f0992ae";""
"building materials";"Toko Bahan Bangunan";"UD. TOR ROBURAN";"Roburan Lombang, Kec. Panyabungan Sel., Kabupaten Mandailing Natal, Sumatera Utara 22952";"Kec. Panyabungan Sel., Kabupaten Mandailing Natal";"SUMATERA UTARA";"22952";"Indonesia";" 081260364823";"";"";"0.7566596";"99.5469786";"https://maps.google.com/?cid=0x0:0x3f8fc4ee76ad6424";""
"building materials";"Toko Bahan Bangunan";"Warung Royhan";"G9V3+Q9F, Padangsilojongan, Kec. Ranto Baek, Kabupaten Mandailing Natal, Sumatera Utara";"Kabupaten Mandailing Natal, Sumatera Utara";"SUMATERA UTARA";"";"Indonesia";"";"";"";"0.5444486";"99.3534348";"https://maps.google.com/?cid=0x0:0x153ce6746b74cf1b";""
"building materials";"Pemasok Bahan Bangunan";"TOKO BANGUNAN ABADI JAYA";"Tabuyung, Kec. Muara Batang Gadis, Kabupaten Mandailing Natal, Sumatera Utara 22987";"Kec. Muara Batang Gadis, Kabupaten Mandailing Natal";"SUMATERA UTARA";"22987";"Indonesia";" 081361040106";"";"";"0.849167";"98.9873683";"https://maps.google.com/?cid=0x0:0x67b9bed181c9ccf9";""
"building materials";"building materials";"Kec. Batang Natal";"Kabupaten Mandailing Natal, Sumatera Utara";"Kabupaten Mandailing Natal, Sumatera Utara";"SUMATERA UTARA";"";"Indonesia";"";"";"";"0.6935105";"99.3682743";"https://maps.google.com/?cid=0x0:0xa4ec6197579adc7c";""
"building materials";"building materials";"Kec. Bukit Malintang";"Kabupaten Mandailing Natal, Sumatera Utara";"Kabupaten Mandailing Natal, Sumatera Utara";"SUMATERA UTARA";"";"Indonesia";"";"";"";"0.9590125";"99.523324";"https://maps.google.com/?cid=0x0:0x8cbf4c0e15a9b446";""
"building materials";"Kantor Perusahaan";"UD. Roni Rahmat";"XGW6+CH3, Aek Mual, Kec. Siabu, Kabupaten Mandailing Natal, Sumatera Utara 22976";"Aek Mual, Kec. Siabu, Kabupaten Mandailing Natal";"SUMATERA UTARA";"22976";"Indonesia";" 085359297755";"";"";"0.9960106";"99.511429";"https://maps.google.com/?cid=0x0:0x116973655ce53272";""
"building materials";"Toko";"Ud.batu bara";"Jl. Trans Sumatera Bukittinggi - Padang Sidempuan No.50, Mompang Jae, Kec. Panyabungan Utara, Kabupaten Mandailing Natal, Sumatera Utara 22976";"Mompang Jae, Kec. Panyabungan Utara, Kabupaten Mandailing Natal";"SUMATERA UTARA";"22976";"Indonesia";" 081370643241";"";"";"0.9181221";"99.5246481";"https://maps.google.com/?cid=0x0:0xae893bd80dfb8ce9";""
"building materials";"Toko Bahan Bangunan";"Cv.bunda Rosmina Jaya";"WGR9+4GM, Jl. Trans Sumatera Bukittinggi - Padang Sidempuan, Jambur Padang Matinggi, Kec. Panyabungan Utara, Kabupaten Mandailing Natal, Sumatera Utara 22976";"Jl. Trans Sumatera Bukittinggi - Padang Sidempuan, Jambur Padang Matinggi, Kec. Panyabungan Utara, Kabupaten Mandailing Natal";"SUMATERA UTARA";"22976";"Indonesia";" 081909781606";"";"";"0.9403295";"99.5187913";"https://maps.google.com/?cid=0x0:0x1a451443e3a0510c";""
"building materials";"Toko Bahan Bangunan";"Toko Bangunan " UD. FAIZ BERKAH " Psr Sinonoan";"XGV7+348, Jl. Trans Sumatera Bukittinggi - Padang Sidempuan, Siabu, Kec. Siabu, Kabupaten Mandailing Natal, Sumatera Utara 22976";"Jl. Trans Sumatera Bukittinggi - Padang Sidempuan, Siabu, Kec. Siabu, Kabupaten Mandailing Natal";"SUMATERA UTARA";"22976";"Indonesia";" 081265152194";"";"";"0.9926662";"99.5128386";"https://maps.google.com/?cid=0x0:0x1a61f8c641512c27";""
"building materials";"Toko Bahan Bangunan";"UD. Adly Parapat";"XFPQ+8J, Tangga Bosi III, Kec. Siabu, Kabupaten Mandailing Natal, Sumatera Utara";"Kabupaten Mandailing Natal, Sumatera Utara";"SUMATERA UTARA";"";"Indonesia";" 081361008787";"";"";"0.9858285";"99.4890703";"https://maps.google.com/?cid=0x0:0xb7e6579a08e02da";""
"building materials";"Toko Bahan Bangunan";"Toko jombur nek";"2G54+Q2C, Huraba I, Kec. Siabu, Kabupaten Mandailing Natal, Sumatera Utara 22976";"Huraba I, Kec. Siabu, Kabupaten Mandailing Natal";"SUMATERA UTARA";"22976";"Indonesia";" 081397758688";"";"";"1.0094333";"99.5050194";"https://maps.google.com/?cid=0x0:0x7a65d65adcf4a13c";""
"building materials";"Toko Bahan Bangunan";"MHD Zaky NST";"2F9R+M42, JL Lintas Medan Padang, Siabu, Bonan Dolok, Madina, Kabupaten Mandailing Natal, Sumatera Utara 22976";"JL Lintas Medan Padang, Siabu, Bonan Dolok, Madina, Kabupaten Mandailing Natal";"SUMATERA UTARA";"22976";"Indonesia";" 082168263607";"";"";"1.0191444";"99.4902583";"https://maps.google.com/?cid=0x0:0xef138e495c259e0a";""
"building materials";"Toko";"Toko batubara";"WG65+MXG, Baringin Jaya, Kec. Panyabungan Utara, Kabupaten Mandailing Natal, Sumatera Utara 22976";"Baringin Jaya, Kec. Panyabungan Utara, Kabupaten Mandailing Natal";"SUMATERA UTARA";"22976";"Indonesia";"";"";"";"0.911688";"99.5099427";"https://maps.google.com/?cid=0x0:0xa031e7ae2935efb6";""
"building materials";"building materials";"Sumatera Utara 22978";"Kec. Panyabungan, Kabupaten Mandailing Natal, Sumatera Utara";"Kabupaten Mandailing Natal, Sumatera Utara";"SUMATERA UTARA";"";"Indonesia";"";"";"";"0.9023294";"99.6230001";"https://maps.google.com/?cid=0x0:0x95c21c8ceb0fedfe";""
"building materials";"Toko Bahan Bangunan";"Madina steel";"RHXC+9QC, Jl. Lintas Timur, Sipolu Polu, Kec. Panyabungan, Kabupaten Mandailing Natal, Sumatera Utara";"Kabupaten Mandailing Natal, Sumatera Utara";"SUMATERA UTARA";"";"Indonesia";" 082267313298";"";"";"0.8484321";"99.5719042";"https://maps.google.com/?cid=0x0:0xbb8424ccaa9cfc";""
"building materials";"Toko Bahan Bangunan";"Usaha Lubis";"Penyabungan, Jl. Willem Iskandar No.64, Panyabungan II, Kec. Panyabungan, Kabupaten Mandailing Natal, Sumatera Utara 22976";"Jl. Willem Iskandar No.64, Panyabungan II, Kec. Panyabungan, Kabupaten Mandailing Natal";"SUMATERA UTARA";"22976";"Indonesia";"";"";"";"0.8588128";"99.5627589";"https://maps.google.com/?cid=0x0:0x70f5a4817d2d1ad2";""
"building materials";"Toko Bahan Bangunan";"Jayaboard";"Jl. Willem Iskandar No.225, Pidoli Dolok, Kec. Panyabungan, Kabupaten Mandailing Natal, Sumatera Utara 22977";"Pidoli Dolok, Kec. Panyabungan, Kabupaten Mandailing Natal";"SUMATERA UTARA";"22977";"Indonesia";"";"";"";"0.8514958";"99.562422";"https://maps.google.com/?cid=0x0:0x7abd6810efd3ec4b";""
"building materials";"Toko Bahan Bangunan";"UD. H.Rohmatulloh Rangkuti";"Jl. Trans Sumatera Bukittinggi - Padang Sidempuan, Aek Lapan, Kec. Panyabungan, Kabupaten Mandailing Natal, Sumatera Utara 22977";"Aek Lapan, Kec. Panyabungan, Kabupaten Mandailing Natal";"SUMATERA UTARA";"22977";"Indonesia";" 081260207870";"";"";"0.8486723";"99.562532";"https://maps.google.com/?cid=0x0:0x4373c04c4a112e32";""
"building materials";"Toko Bahan Bangunan";"UD. Harapan Jaya";"VH36+6XQ, Jl. Willem Iskandar, Pidoli Dolok, Kec. Panyabungan, Kabupaten Mandailing Natal, Sumatera Utara 22977";"Jl. Willem Iskandar, Pidoli Dolok, Kec. Panyabungan, Kabupaten Mandailing Natal";"SUMATERA UTARA";"22977";"Indonesia";" 0636321718";"";"";"0.8530944";"99.5624875";"https://maps.google.com/?cid=0x0:0xd4232eeaf1bad654";""
"building materials";"Toko Bahan Bangunan";"UD YUSUF JAYA MANDIRI";"RHRC+VH4, Jl. Raja Junjungan Lubis, Pidoli Dolok, Kec. Panyabungan, Kabupaten Mandailing Natal, Sumatera Utara";"Kabupaten Mandailing Natal, Sumatera Utara";"SUMATERA UTARA";"";"Indonesia";"";"";"";"0.842126";"99.5714599";"https://maps.google.com/?cid=0x0:0x704674228d059b31";""
"building materials";"Toko Bahan Bangunan";"Putra Nasution";"VHH6+5FR, JL Merdeka, Kayu Jati, Madina, Panggorengan, Pengayuban, Kabupaten Mandailing Natal, Sumatera Utara 22976";"JL Merdeka, Kayu Jati, Madina, Panggorengan, Pengayuban, Kabupaten Mandailing Natal";"SUMATERA UTARA";"22976";"Indonesia";" 082360236210";"";"";"0.877979";"99.5611365";"https://maps.google.com/?cid=0x0:0x50283504522d46a6";""
"building materials";"Toko Bahan Bangunan";"CP. Citra Populer";"JL W. Iskandar, No. 82 D, Mandailing Natal, Panyabungan II, Penyabungan, Kabupaten Mandailing Natal, Sumatera Utara 22976";"No. 82 D, Mandailing Natal, Panyabungan II, Penyabungan, Kabupaten Mandailing Natal";"SUMATERA UTARA";"22976";"Indonesia";" 082375547879";"";"";"0.858048";"99.5627559";"https://maps.google.com/?cid=0x0:0xbdf8de21f9bbe6a5";""
"building materials";"Toko";"Ud.batu bara";"Jl. Trans Sumatera Bukittinggi - Padang Sidempuan No.50, Mompang Jae, Kec. Panyabungan Utara, Kabupaten Mandailing Natal, Sumatera Utara 22976";"Mompang Jae, Kec. Panyabungan Utara, Kabupaten Mandailing Natal";"SUMATERA UTARA";"22976";"Indonesia";" 081370643241";"";"";"0.9181221";"99.5246481";"https://maps.google.com/?cid=0x0:0xae893bd80dfb8ce9";""
"building materials";"Toko Bahan Bangunan";"UD.Mandiri Jaya";"VH3C+G42, Jl. Lintas Timur, Darussalam, Kec. Panyabungan, Kabupaten Mandailing Natal, Sumatera Utara 22976";"Jl. Lintas Timur, Darussalam, Kec. Panyabungan, Kabupaten Mandailing Natal";"SUMATERA UTARA";"22976";"Indonesia";" 087838677823";"";"";"0.8537665";"99.5702532";"https://maps.google.com/?cid=0x0:0xc9d842e0419c794d";""
"building materials";"Toko Bahan Bangunan";"UD. Bangun Jaya";"VH54+37, Panyabungan Julu, Kec. Panyabungan, Kabupaten Mandailing Natal, Sumatera Utara 22977";"Panyabungan Julu, Kec. Panyabungan, Kabupaten Mandailing Natal";"SUMATERA UTARA";"22977";"Indonesia";"";"";"";"0.8577143";"99.5557217";"https://maps.google.com/?cid=0x0:0xc2336fd653df3859";""
"building materials";"";"Toko Bangunan Subur Jaya";"VH54+G6X, Jl. Sibaroar, Panyabungan Julu, Kec. Panyabungan, Kabupaten Mandailing Natal, Sumatera Utara 22977";"Jl. Sibaroar, Panyabungan Julu, Kec. Panyabungan, Kabupaten Mandailing Natal";"SUMATERA UTARA";"22977";"Indonesia";"";"";"";"0.8588563";"99.5556092";"https://maps.google.com/?cid=0x0:0xa4365124a42d24fe";""
"building materials";"Toko Bahan Bangunan";"UD SINAR WAJA";"VH67+X82, Jl. Trans Sumatera Bukittinggi - Padang Sidempuan, Panyabungan II, Kec. Panyabungan, Kabupaten Mandailing Natal, Sumatera Utara 22976";"Jl. Trans Sumatera Bukittinggi - Padang Sidempuan, Panyabungan II, Kec. Panyabungan, Kabupaten Mandailing Natal";"SUMATERA UTARA";"22976";"Indonesia";"";"";"";"0.8623868";"99.563257";"https://maps.google.com/?cid=0x0:0x1c17c9de8622ff12";""
"building materials";"Kantor Perusahaan";"Semen Padang";"RHQ7+F32, Pidoli Dolok, Kec. Panyabungan, Kabupaten Mandailing Natal, Sumatera Utara 22977";"Pidoli Dolok, Kec. Panyabungan, Kabupaten Mandailing Natal";"SUMATERA UTARA";"22977";"Indonesia";"";"";"";"0.8386451";"99.5626554";"https://maps.google.com/?cid=0x0:0xba15939a94a70863";""
"building materials";"Toko Sepeda Motor";"Samurai Paint - Ud Arfiyyah Tanjung Panyabungan";"Jl. Willem Iskandar No.16, Panyabungan II, Kec. Panyabungan, Kabupaten Mandailing Natal, Sumatera Utara 22976";"Panyabungan II, Kec. Panyabungan, Kabupaten Mandailing Natal";"SUMATERA UTARA";"22976";"Indonesia";" 085270061116";"";"";"0.8601102";"99.5628893";"https://maps.google.com/?cid=0x0:0xba2653b0f917b658";""
"building materials";"Toko Ikan";"Toko Arwana  Showroom";"Jl. Lintas Timur, Kota Siantar, Kec. Panyabungan, Kabupaten Mandailing Natal, Sumatera Utara 22976";"Kota Siantar, Kec. Panyabungan, Kabupaten Mandailing Natal";"SUMATERA UTARA";"22976";"Indonesia";" 082273176525";"";"";"0.866069";"99.5678769";"https://maps.google.com/?cid=0x0:0x1044070080684017";""
"building materials";"Kontraktor Umum";"RAST";"Hutabargot, Kec. Panyabungan, Sumatera Utara 22978";"Kec. Panyabungan";"SUMATERA UTARA";"22978";"Indonesia";" 082267313298";"";"";"0.887846";"99.51016";"https://maps.google.com/?cid=0x0:0xfbf120f66ee51adf";""
"building materials";"Sekolah Dasar";"SDN 142561 Huta Bangun";"Jl. Syekh Abdul Kadir Mandili No.25, Panyabungan III, Kec. Panyabungan, Kabupaten Mandailing Natal, Sumatera Utara 22976";"Panyabungan III, Kec. Panyabungan, Kabupaten Mandailing Natal";"SUMATERA UTARA";"22976";"Indonesia";" 081377060328";"";"";"0.86171";"99.56719";"https://maps.google.com/?cid=0x0:0xd12216644665895";""
"building materials";"building materials";"Kec. Huta Bargot";"Kabupaten Mandailing Natal, Sumatera Utara";"Kabupaten Mandailing Natal, Sumatera Utara";"SUMATERA UTARA";"";"Indonesia";"";"";"";"0.8738479";"99.5128964";"https://maps.google.com/?cid=0x0:0x2f757406c623131c";""
"building materials";"Toko Bahan Bangunan";"TOKO BANGUNAN/MATERIAL SINAR WAJA MANDIRI";"Jl. Willem Iskandar No.1, Panyabungan III, Kec. Panyabungan, Kabupaten Mandailing Natal, Sumatera Utara 22913";"Panyabungan III, Kec. Panyabungan, Kabupaten Mandailing Natal";"SUMATERA UTARA";"22913";"Indonesia";" 081264044470";"";"";"0.8610671";"99.5631367";"https://maps.google.com/?cid=0x0:0x7c18789978b7c4db";""
"building materials";"Toko Bahan Bangunan";"UD.MUARA INDAH";"Sebelum, Huta lombang lubis, Adian Jior, Kec. Panyabungan, Sumatera Utara 22912";"Huta lombang lubis, Adian Jior, Kec. Panyabungan";"SUMATERA UTARA";"22912";"Indonesia";" 082267244536";"";"";"0.8690084";"99.5431811";"https://maps.google.com/?cid=0x0:0x8d8371644fe8a02a";""
"building materials";"Toko Bahan Bangunan";"UD. MY wan";"WG5Q+26Q, jln. padang, mompang julu, panyabungan, Mompang Julu, Kec. Panyabungan Utara, Kota Medan, Sumatera Utara 22976";"jln. padang, mompang julu, panyabungan, Mompang Julu, Kec. Panyabungan Utara, Kota Medan";"SUMATERA UTARA";"22976";"Indonesia";" 081286497634";"";"";"0.9075771";"99.5381032";"https://maps.google.com/?cid=0x0:0x83dd4a5c660ae048";""
"building materials";"Toko Kaca >>u0026 Cermin";"Hana glass dan alumanium";"Banjar saba ujung, Ps. Hilir, Kec. Panyabungan, Kabupaten Mandailing Natal, Sumatera Utara 22919";"Ps. Hilir, Kec. Panyabungan, Kabupaten Mandailing Natal";"SUMATERA UTARA";"22919";"Indonesia";" 085275794444";"";"";"0.8606191";"99.5594452";"https://maps.google.com/?cid=0x0:0x7a3cb1778e461c2f";""
"building materials";"Toko Bahan Bangunan";"CV. Ilham";"VHR4+7G9 Sin Tua, Madina, Jl. Lintas Medan Padang, Lumban Pasir, Penyabungan, Kabupaten Mandailing Natal, Sumatera Utara 22976";"Madina, Jl. Lintas Medan Padang, Lumban Pasir, Penyabungan, Kabupaten Mandailing Natal";"SUMATERA UTARA";"22976";"Indonesia";" 082370800800";"";"";"0.890662";"99.5563565";"https://maps.google.com/?cid=0x0:0x4a16f60173552e42";""
"building materials";"Toko Bahan Bangunan";"UD. Maragung";"WG8G+GQM, JL Medan Padang, Mompang Jae, Penyabungan, 25173";"JL Medan Padang, Mompang Jae";"SUMATERA UTARA";"25173";"Indonesia";" 087748157563";"";"";"0.9163333";"99.5269139";"https://maps.google.com/?cid=0x0:0x38266ef6e23ee584";""
"building materials";"Toko Bahan Bangunan";"toko bangunan usaha oloan";"Jl. Trans Sumatera Bukittinggi - Padang Sidempuan No.25, Gn. Tua Tonga, Kec. Panyabungan, Kabupaten Mandailing Natal, Sumatera Utara 22976";"Gn. Tua Tonga, Kec. Panyabungan, Kabupaten Mandailing Natal";"SUMATERA UTARA";"22976";"Indonesia";"";"";"";"0.8845168";"99.5605862";"https://maps.google.com/?cid=0x0:0x38dce341a85d1151";""
"building materials";"Toko Bahan Bangunan";"Batu Bata Barret Jambur";"Jambur Padang Matinggi, Kec. Panyabungan Utara, Kabupaten Mandailing Natal, Sumatera Utara 22978";"Kec. Panyabungan Utara, Kabupaten Mandailing Natal";"SUMATERA UTARA";"22978";"Indonesia";" 085270640389";"";"";"0.9420781";"99.5217335";"https://maps.google.com/?cid=0x0:0x31df3f47f8ae00ab";""
"building materials";"Kontraktor Insulasi";"PT Tali Rejeki";"Jl. Taruma Jaya No.11, Setia Asih, Kec. Tarumajaya, Kota Bks, Jawa Barat 17215";"Setia Asih, Kec. Tarumajaya, Kota Bks";"SUMATERA UTARA";"17215";"Indonesia";" 02122889956";"";"";"-6.1652412";"106.9900241";"https://maps.google.com/?cid=0x0:0x15898fadc067eab7";""
"building materials";"building materials";"Sumatera Utara 22994";"Kabupaten Mandailing Natal, Sumatera Utara";"Kabupaten Mandailing Natal, Sumatera Utara";"SUMATERA UTARA";"";"Indonesia";"";"";"";"0.7050948";"99.6786894";"https://maps.google.com/?cid=0x0:0x2cd11691836ab308";""
"building materials";"Toko Bahan Bangunan";"UD. Berkah tani";"MQ27+CQ9, JL Lintas Medan - Padang, Tamiang, Kec. Kotanopan, Kabupaten Mandailing Natal, Sumatera Utara 22994";"JL Lintas Medan - Padang, Tamiang, Kec. Kotanopan, Kabupaten Mandailing Natal";"SUMATERA UTARA";"22994";"Indonesia";" 081370415621";"";"";"0.6510275";"99.7644882";"https://maps.google.com/?cid=0x0:0x3c5b88bb9fc52c42";""
"building materials";"Toko Bahan Bangunan";"TB AZ ZAHIR";"Muara Mais, Kec. Kotanopan, Kabupaten Mandailing Natal, Sumatera Utara 22994";"Kec. Kotanopan, Kabupaten Mandailing Natal";"SUMATERA UTARA";"22994";"Indonesia";" 081262477373";"";"";"0.6836732";"99.6530776";"https://maps.google.com/?cid=0x0:0x6400680df6b5aacd";""
"building materials";"Dealer mobil";"Duta Motor";"MP69+25P, Jl. Lintas Medan, Tombang Bustak, Kec. Kotanopan, Kabupaten Mandailing Natal, Sumatera Utara 22994";"Jl. Lintas Medan, Tombang Bustak, Kec. Kotanopan, Kabupaten Mandailing Natal";"SUMATERA UTARA";"22994";"Indonesia";" 082201824375";"";"";"0.6600977";"99.7179656";"https://maps.google.com/?cid=0x0:0xc5d1237ae2f2c79";""
"building materials";"Toko Bahan Bangunan";"UD.PUTRA BAHRAN TANOBATO";"Jl. Lintas Natal No.Kel, Tano Bato, Kec. Panyabungan Sel., Kabupaten Mandailing Natal, Sumatera Utara 22994";"Tano Bato, Kec. Panyabungan Sel., Kabupaten Mandailing Natal";"SUMATERA UTARA";"22994";"Indonesia";"";"";"";"0.7423196";"99.5544282";"https://maps.google.com/?cid=0x0:0x51d50c685a364eff";""
"building materials";"Toko Bahan Bangunan";"UD. Akbar Bangunan / Akbar Safety panyabungan";"Desa, Hutarimbaru, Kec. Panyabungan Sel., Kabupaten Mandailing Natal, Sumatera Utara 22994";"Hutarimbaru, Kec. Panyabungan Sel., Kabupaten Mandailing Natal";"SUMATERA UTARA";"22994";"Indonesia";" 081362929907";"";"";"0.7442233";"99.5561863";"https://maps.google.com/?cid=0x0:0xf9f9137c9ac13cbb";""
"building materials";"Toko Bahan Bangunan";"TOKO MADINA BAJA";"QHFH+VJC, Purba Baru, Kec. Lembah Sorik Marapi, Kabupaten Mandailing Natal, Sumatera Utara 22952";"Purba Baru, Kec. Lembah Sorik Marapi, Kabupaten Mandailing Natal";"SUMATERA UTARA";"22952";"Indonesia";" 081360095448";"";"";"0.7746936";"99.5790012";"https://maps.google.com/?cid=0x0:0xfa3e945f08a2a73b";""
"building materials";"Toko Bahan Bangunan";"UD. TOR ROBURAN";"Roburan Lombang, Kec. Panyabungan Sel., Kabupaten Mandailing Natal, Sumatera Utara 22952";"Kec. Panyabungan Sel., Kabupaten Mandailing Natal";"SUMATERA UTARA";"22952";"Indonesia";" 081260364823";"";"";"0.7566596";"99.5469786";"https://maps.google.com/?cid=0x0:0x3f8fc4ee76ad6424";""
"building materials";"Toko Bahan Bangunan";"UD. BERKAH";"PHJ8+43J, Unnamed Road, Huta Raja, Kec. Panyabungan Sel., Kabupaten Mandailing Natal, Sumatera Utara 22994";"Unnamed Road, Huta Raja, Kec. Panyabungan Sel., Kabupaten Mandailing Natal";"SUMATERA UTARA";"22994";"Indonesia";" 081218728057";"";"";"0.7303418";"99.5651395";"https://maps.google.com/?cid=0x0:0xcc42f8d81d56e303";""
"building materials";"Toko Bahan Bangunan";"UD tanahulu";"JRFX+C82, Koto Boru, Kec. Muara Sipongi, Kabupaten Mandailing Natal, Sumatera Utara 22998";"Koto Boru, Kec. Muara Sipongi, Kabupaten Mandailing Natal";"SUMATERA UTARA";"22998";"Indonesia";" 081262279787";"";"";"0.6235084";"99.8482501";"https://maps.google.com/?cid=0x0:0x6602e8072c5ac0e3";""
"building materials";"Toko Bahan Bangunan";"Usaha Lubis";"Penyabungan, Jl. Willem Iskandar No.64, Panyabungan II, Kec. Panyabungan, Kabupaten Mandailing Natal, Sumatera Utara 22976";"Jl. Willem Iskandar No.64, Panyabungan II, Kec. Panyabungan, Kabupaten Mandailing Natal";"SUMATERA UTARA";"22976";"Indonesia";"";"";"";"0.8588128";"99.5627589";"https://maps.google.com/?cid=0x0:0x70f5a4817d2d1ad2";""
"building materials";"building materials";"Kec. Kotanopan";"Kabupaten Mandailing Natal, Sumatera Utara";"Kabupaten Mandailing Natal, Sumatera Utara";"SUMATERA UTARA";"";"Indonesia";"";"";"";"0.6681229";"99.7074604";"https://maps.google.com/?cid=0x0:0xc93b63185b4e92c3";""
"building materials";"building materials";"Kec. Lembah Sorik Marapi";"Kabupaten Mandailing Natal, Sumatera Utara";"Kabupaten Mandailing Natal, Sumatera Utara";"SUMATERA UTARA";"";"Indonesia";"";"";"";"0.7477575";"99.5865396";"https://maps.google.com/?cid=0x0:0xf03d8c73f02d25f6";""
"building materials";"Toko Bahan Bangunan";"TOKO MADINA BAJA";"QHFH+VJC, Purba Baru, Kec. Lembah Sorik Marapi, Kabupaten Mandailing Natal, Sumatera Utara 22952";"Purba Baru, Kec. Lembah Sorik Marapi, Kabupaten Mandailing Natal";"SUMATERA UTARA";"22952";"Indonesia";" 081360095448";"";"";"0.7746936";"99.5790012";"https://maps.google.com/?cid=0x0:0xfa3e945f08a2a73b";""
"building materials";"Toko Bahan Bangunan";"CV.AMANAH";"Purba Baru, Kec. Lembah Sorik Marapi, Kabupaten Mandailing Natal, Sumatera Utara 22952";"Kec. Lembah Sorik Marapi, Kabupaten Mandailing Natal";"SUMATERA UTARA";"22952";"Indonesia";" 082273382929";"";"";"0.7722503";"99.5786137";"https://maps.google.com/?cid=0x0:0x1b223bb67f0992ae";""
"building materials";"Toko Bahan Bangunan";"UD. BERKAH";"PHJ8+43J, Unnamed Road, Huta Raja, Kec. Panyabungan Sel., Kabupaten Mandailing Natal, Sumatera Utara 22994";"Unnamed Road, Huta Raja, Kec. Panyabungan Sel., Kabupaten Mandailing Natal";"SUMATERA UTARA";"22994";"Indonesia";" 081218728057";"";"";"0.7303418";"99.5651395";"https://maps.google.com/?cid=0x0:0xcc42f8d81d56e303";""
"building materials";"Toko Bahan Bangunan";"UD.PUTRA BAHRAN TANOBATO";"Jl. Lintas Natal No.Kel, Tano Bato, Kec. Panyabungan Sel., Kabupaten Mandailing Natal, Sumatera Utara 22994";"Tano Bato, Kec. Panyabungan Sel., Kabupaten Mandailing Natal";"SUMATERA UTARA";"22994";"Indonesia";"";"";"";"0.7423196";"99.5544282";"https://maps.google.com/?cid=0x0:0x51d50c685a364eff";""
"building materials";"Toko Bahan Bangunan";"UD. TOR ROBURAN";"Roburan Lombang, Kec. Panyabungan Sel., Kabupaten Mandailing Natal, Sumatera Utara 22952";"Kec. Panyabungan Sel., Kabupaten Mandailing Natal";"SUMATERA UTARA";"22952";"Indonesia";" 081260364823";"";"";"0.7566596";"99.5469786";"https://maps.google.com/?cid=0x0:0x3f8fc4ee76ad6424";""
"building materials";"Toko Bahan Bangunan";"Ud.Bakti Jaya Baru";"QHMJ+R2V, Jl. Trans Sumatera Bukittinggi - Padang Sidempuan, Parbangunan, Kec. Panyabungan, Kabupaten Mandailing Natal, Sumatera Utara 22952";"Jl. Trans Sumatera Bukittinggi - Padang Sidempuan, Parbangunan, Kec. Panyabungan, Kabupaten Mandailing Natal";"SUMATERA UTARA";"22952";"Indonesia";"";"";"";"0.7846286";"99.5801051";"https://maps.google.com/?cid=0x0:0xbe71fb596581db6b";""
"building materials";"Pembangkit Listrik";"PT SMGP Puncak Sorik Merapi Desa Sibanggor Tonga";"PH7G+745, Sibanggor Tonga, Kec. Puncak Sorik Marapi, Kabupaten Mandailing Natal, Sumatera Utara 22994";"Sibanggor Tonga, Kec. Puncak Sorik Marapi, Kabupaten Mandailing Natal";"SUMATERA UTARA";"22994";"Indonesia";" 083191634241";"";"";"0.7131442";"99.5753744";"https://maps.google.com/?cid=0x0:0x62b1401e46f56102";""
"building materials";"Pembangkit Listrik";"Sorik Marapi Geothermal Power (KS Orka)";"PHXG+23C, Purba Lamo, Kec. Lembah Sorik Marapi, Kabupaten Mandailing Natal, Sumatera Utara 22994";"Purba Lamo, Kec. Lembah Sorik Marapi, Kabupaten Mandailing Natal";"SUMATERA UTARA";"22994";"Indonesia";" 02172787336";"";"";"0.7475714";"99.5751419";"https://maps.google.com/?cid=0x0:0x3303a3800aa7aa71";""
"building materials";"Perusahaan Konstruksi";"SMGP - Basecamp";"PHWG+V3J, Purba Lamo, Kec. Lembah Sorik Marapi, Kabupaten Mandailing Natal, Sumatera Utara 22994";"Purba Lamo, Kec. Lembah Sorik Marapi, Kabupaten Mandailing Natal";"SUMATERA UTARA";"22994";"Indonesia";"";"";"";"0.7472187";"99.5751514";"https://maps.google.com/?cid=0x0:0x14c234744fb775ee";""
"building materials";"Pemasok Pipa";"Surya Utama Metalindo PT.";"Jl. Gunung Sahari Raya no.1 Mangga Dua Square lt 2 blok C 61, RT.11/RW.6, Ancol, Kec. Pademangan, Jkt Utara, Daerah Khusus Ibukota Jakarta 14420";"RT.11/RW.6, Ancol, Kec. Pademangan, Jkt Utara";"SUMATERA UTARA";"14420";"Indonesia";" 082310999956";"";"";"-6.1387824";"106.8314329";"https://maps.google.com/?cid=0x0:0x213f9340f3f4865";""
"building materials";"Pemasok Pipa";"PT. DWITAMA SUKSES MANDIRI";"Grand boutique Center, Jl. Mangga Dua Raya No.22 Blok B, RT.11/RW.5, Ancol, Kec. Pademangan, Jkt Utara, Daerah Khusus Ibukota Jakarta 14430";"Jl. Mangga Dua Raya No.22 Blok B, RT.11/RW.5, Ancol, Kec. Pademangan, Jkt Utara";"SUMATERA UTARA";"14430";"Indonesia";" 0216282401";"";"";"-6.1343515";"106.8292505";"https://maps.google.com/?cid=0x0:0x2cbcfa724599c6a7";""
"building materials";"Pusat Perbelanjaan";"Mangga 2 Square";"Jl. Gn. Sahari No.1, Ancol, Kec. Pademangan, Jkt Utara, Daerah Khusus Ibukota Jakarta 14420";"Ancol, Kec. Pademangan, Jkt Utara";"SUMATERA UTARA";"14420";"Indonesia";" 02162313000";"";"";"-6.1387841";"106.8316377";"https://maps.google.com/?cid=0x0:0xcc24e8c546bb46a1";""
"building materials";"Toko Bahan Bangunan";"UD material bangunan";"Kasiak Putih, Kec. Lubuk Alung, Kabupaten Padang Pariaman, Sumatera Barat";"Kabupaten Padang Pariaman, Sumatera Barat";"SUMATERA UTARA";"";"Indonesia";" 081365662386";"";"";"-0.6471207";"100.2874154";"https://maps.google.com/?cid=0x0:0x5625ed53101f2c2a";""
"building materials";"building materials";"Sumatera Utara 22989";"Kec. Muara Batang Gadis, Kabupaten Mandailing Natal, Sumatera Utara";"Kabupaten Mandailing Natal, Sumatera Utara";"SUMATERA UTARA";"";"Indonesia";"";"";"";"1.0832666";"99.0571089";"https://maps.google.com/?cid=0x0:0xd2a7cabafea6de62";""
"building materials";"Pemasok Bahan Bangunan";"UD. Subur Sejahtera (Toko Bangunan)";"3W9V+6X2, Ps. I. Singkuang, Kec. Muara Batang Gadis, Kabupaten Mandailing Natal, Sumatera Utara";"Kabupaten Mandailing Natal, Sumatera Utara";"SUMATERA UTARA";"";"Indonesia";"";"";"";"1.0680085";"98.944876";"https://maps.google.com/?cid=0x0:0x402a06c7924156ab";""
"building materials";"Toko Bahan Bangunan";"Toko Bangunan aliannur";"3W7G+X2G, Ps. I. Singkuang, Kec. Muara Batang Gadis, Kabupaten Mandailing Natal, Sumatera Utara 22989";"Ps. I. Singkuang, Kec. Muara Batang Gadis, Kabupaten Mandailing Natal";"SUMATERA UTARA";"22989";"Indonesia";" 085359444789";"";"";"1.0649359";"98.9250901";"https://maps.google.com/?cid=0x0:0x2c664157fb0df469";""
"building materials";"building materials";"Kec. Muara Batang Gadis";"Kabupaten Mandailing Natal, Sumatera Utara";"Kabupaten Mandailing Natal, Sumatera Utara";"SUMATERA UTARA";"";"Indonesia";"";"";"";"0.969705";"99.1013498";"https://maps.google.com/?cid=0x0:0xa84cc0b96ea8a1d4";""
"building materials";"Pemasok Bahan Bangunan";"TOKO BANGUNAN ABADI JAYA";"Tabuyung, Kec. Muara Batang Gadis, Kabupaten Mandailing Natal, Sumatera Utara 22987";"Kec. Muara Batang Gadis, Kabupaten Mandailing Natal";"SUMATERA UTARA";"22987";"Indonesia";" 081361040106";"";"";"0.849167";"98.9873683";"https://maps.google.com/?cid=0x0:0x67b9bed181c9ccf9";""
"building materials";"Kantor Perusahaan";"UD. Roni Rahmat";"XGW6+CH3, Aek Mual, Kec. Siabu, Kabupaten Mandailing Natal, Sumatera Utara 22976";"Aek Mual, Kec. Siabu, Kabupaten Mandailing Natal";"SUMATERA UTARA";"22976";"Indonesia";" 085359297755";"";"";"0.9960106";"99.511429";"https://maps.google.com/?cid=0x0:0x116973655ce53272";""
"building materials";"Toko";"Ud.batu bara";"Jl. Trans Sumatera Bukittinggi - Padang Sidempuan No.50, Mompang Jae, Kec. Panyabungan Utara, Kabupaten Mandailing Natal, Sumatera Utara 22976";"Mompang Jae, Kec. Panyabungan Utara, Kabupaten Mandailing Natal";"SUMATERA UTARA";"22976";"Indonesia";" 081370643241";"";"";"0.9181221";"99.5246481";"https://maps.google.com/?cid=0x0:0xae893bd80dfb8ce9";""
"building materials";"Toko Bahan Bangunan";"Madina steel";"RHXC+9QC, Jl. Lintas Timur, Sipolu Polu, Kec. Panyabungan, Kabupaten Mandailing Natal, Sumatera Utara";"Kabupaten Mandailing Natal, Sumatera Utara";"SUMATERA UTARA";"";"Indonesia";" 082267313298";"";"";"0.8484321";"99.5719042";"https://maps.google.com/?cid=0x0:0xbb8424ccaa9cfc";""
"building materials";"Toko Bahan Bangunan";"UD. ALON ALON WAE, 02";"Ps. I. Singkuang, 1, Kabupaten Mandailing Natal, Sumatera Utara 22989";"1, Kabupaten Mandailing Natal";"SUMATERA UTARA";"22989";"Indonesia";" 081378356662";"";"";"1.0932043";"98.9228764";"https://maps.google.com/?cid=0x0:0x5cdeeac799e0e6eb";""
"building materials";"Toko Bahan Bangunan";"Toko Bangunan " UD. FAIZ BERKAH " Psr Sinonoan";"XGV7+348, Jl. Trans Sumatera Bukittinggi - Padang Sidempuan, Siabu, Kec. Siabu, Kabupaten Mandailing Natal, Sumatera Utara 22976";"Jl. Trans Sumatera Bukittinggi - Padang Sidempuan, Siabu, Kec. Siabu, Kabupaten Mandailing Natal";"SUMATERA UTARA";"22976";"Indonesia";" 081265152194";"";"";"0.9926662";"99.5128386";"https://maps.google.com/?cid=0x0:0x1a61f8c641512c27";""
"building materials";"Toko Bahan Bangunan";"UD. Adly Parapat";"XFPQ+8J, Tangga Bosi III, Kec. Siabu, Kabupaten Mandailing Natal, Sumatera Utara";"Kabupaten Mandailing Natal, Sumatera Utara";"SUMATERA UTARA";"";"Indonesia";" 081361008787";"";"";"0.9858285";"99.4890703";"https://maps.google.com/?cid=0x0:0xb7e6579a08e02da";""
"building materials";"Toko Bahan Bangunan";"Toko jombur nek";"2G54+Q2C, Huraba I, Kec. Siabu, Kabupaten Mandailing Natal, Sumatera Utara 22976";"Huraba I, Kec. Siabu, Kabupaten Mandailing Natal";"SUMATERA UTARA";"22976";"Indonesia";" 081397758688";"";"";"1.0094333";"99.5050194";"https://maps.google.com/?cid=0x0:0x7a65d65adcf4a13c";""
"building materials";"Toko Bahan Bangunan";"UD IVAN jaya";"2G44+5WM, Huraba II, Kec. Siabu, Kabupaten Mandailing Natal, Sumatera Utara";"Kabupaten Mandailing Natal, Sumatera Utara";"SUMATERA UTARA";"";"Indonesia";" 081362311728";"";"";"1.0054746";"99.5073003";"https://maps.google.com/?cid=0x0:0xcf217fbacb30f3da";""
"building materials";"Toko Bahan Bangunan";"UD.Mail sipahutar";"3F99+4V7, Jl. Huta Puli, Huta Puli, Kec. Siabu, Kabupaten Mandailing Natal, Sumatera Utara 22976";"Jl. Huta Puli, Huta Puli, Kec. Siabu, Kabupaten Mandailing Natal";"SUMATERA UTARA";"22976";"Indonesia";"";"";"";"1.06779";"99.4696875";"https://maps.google.com/?cid=0x0:0x8cc64afc501542a6";""
"building materials";"Toko Bahan Bangunan";"UD. Gembira";"JL Mandailing, Km. 34, Sayur Matinggi, Tapanuli Selatan, Sayur Matinggi I, Panyabungan, Kabupaten Tapanuli Selatan, Sumatera Utara 22774";"Km. 34, Sayur Matinggi, Tapanuli Selatan, Sayur Matinggi I, Panyabungan, Kabupaten Tapanuli Selatan";"SUMATERA UTARA";"22774";"Indonesia";" 081360414132";"";"";"1.1487441";"99.4274404";"https://maps.google.com/?cid=0x0:0x25e432d976b083ab";""
"building materials";"Toko Bahan Bangunan";"Aldo. UD";"2FQH+WXM, JL Lintas Medan Padang, Siabu, Simangambat, Madina, Kabupaten Mandailing Natal, Sumatera Utara 22976";"JL Lintas Medan Padang, Siabu, Simangambat, Madina, Kabupaten Mandailing Natal";"SUMATERA UTARA";"22976";"Indonesia";" 06367324215";"";"";"1.0398324";"99.4799149";"https://maps.google.com/?cid=0x0:0xa612a5c0eebc8405";""
"building materials";"Toko Bahan Bangunan";"UD.MUARA INDAH";"Sebelum, Huta lombang lubis, Adian Jior, Kec. Panyabungan, Sumatera Utara 22912";"Huta lombang lubis, Adian Jior, Kec. Panyabungan";"SUMATERA UTARA";"22912";"Indonesia";" 082267244536";"";"";"0.8690084";"99.5431811";"https://maps.google.com/?cid=0x0:0x8d8371644fe8a02a";""
"building materials";"Toko Bahan Bangunan";"UD Rinal";"Jl. Trans Sumatera Bukittinggi - Padang Sidempuan No.165, Sihepeng, Kec. Siabu, Kabupaten Mandailing Natal, Sumatera Utara 22774";"Sihepeng, Kec. Siabu, Kabupaten Mandailing Natal";"SUMATERA UTARA";"22774";"Indonesia";" 081275447427";"";"";"1.0857636";"99.4567599";"https://maps.google.com/?cid=0x0:0x8ea88882edcc4904";""
"building materials";"Toko Bahan Bangunan";"Saud material";"82MC+FP6, Rianiate, Kec. Angkola Sangkunur, Kabupaten Tapanuli Selatan, Sumatera Utara";"Kabupaten Tapanuli Selatan, Sumatera Utara";"SUMATERA UTARA";"";"Indonesia";"";"";"";"1.3336613";"99.0217669";"https://maps.google.com/?cid=0x0:0xd853faf4deadd03e";""
"building materials";"Toko bahan makanan";"Lisaha Tamala. PA";"4F52+RRJ, JL Lintas Sidempuan Penyabungan, Siabu Sihepeng, Mandailing Natal, Sihepeng, Panyabungan, Kabupaten Mandailing Natal, Sumatera Utara 22774";"JL Lintas Sidempuan Penyabungan, Siabu Sihepeng, Mandailing Natal, Sihepeng, Panyabungan, Kabupaten Mandailing Natal";"SUMATERA UTARA";"22774";"Indonesia";" 082277382567";"";"";"1.1095885";"99.452002";"https://maps.google.com/?cid=0x0:0x922700e1b64e2582";""
"building materials";"Toko Bahan Bangunan";"Sadongan. UD";"2F8V+H37, Jl. Imam Bonjol, Siabu, Kec. Siabu, Kabupaten Mandailing Natal, Sumatera Utara 22976";"Jl. Imam Bonjol, Siabu, Kec. Siabu, Kabupaten Mandailing Natal";"SUMATERA UTARA";"22976";"Indonesia";" 081260802312";"";"";"1.0164";"99.4926806";"https://maps.google.com/?cid=0x0:0xb1439044d417ccfd";""
"building materials";"Toko Bahan Bangunan";"UD tanahulu";"JRFX+C82, Koto Boru, Kec. Muara Sipongi, Kabupaten Mandailing Natal, Sumatera Utara 22998";"Koto Boru, Kec. Muara Sipongi, Kabupaten Mandailing Natal";"SUMATERA UTARA";"22998";"Indonesia";" 081262279787";"";"";"0.6235084";"99.8482501";"https://maps.google.com/?cid=0x0:0x6602e8072c5ac0e3";""
"building materials";"Toko Bahan Bangunan";"UD SINAR KAN";"JRW5+3RP, Muara Botung, Kec. Kotanopan, Kabupaten Mandailing Natal, Sumatera Utara 22994";"Muara Botung, Kec. Kotanopan, Kabupaten Mandailing Natal";"SUMATERA UTARA";"22994";"Indonesia";" 082165325393";"";"";"0.6452016";"99.8095693";"https://maps.google.com/?cid=0x0:0xd603cf8faede2994";""
"building materials";"building materials";"Kec. Naga Juang";"Kabupaten Mandailing Natal, Sumatera Utara";"Kabupaten Mandailing Natal, Sumatera Utara";"SUMATERA UTARA";"";"Indonesia";"";"";"";"0.9280833";"99.4868119";"https://maps.google.com/?cid=0x0:0x8b19bcbcbe3835e1";""
"building materials";"Toko";"Ud.batu bara";"Jl. Trans Sumatera Bukittinggi - Padang Sidempuan No.50, Mompang Jae, Kec. Panyabungan Utara, Kabupaten Mandailing Natal, Sumatera Utara 22976";"Mompang Jae, Kec. Panyabungan Utara, Kabupaten Mandailing Natal";"SUMATERA UTARA";"22976";"Indonesia";" 081370643241";"";"";"0.9181221";"99.5246481";"https://maps.google.com/?cid=0x0:0xae893bd80dfb8ce9";""
"building materials";"Toko Bahan Bangunan";"Batu Bata Barret Jambur";"Jambur Padang Matinggi, Kec. Panyabungan Utara, Kabupaten Mandailing Natal, Sumatera Utara 22978";"Kec. Panyabungan Utara, Kabupaten Mandailing Natal";"SUMATERA UTARA";"22978";"Indonesia";" 085270640389";"";"";"0.9420781";"99.5217335";"https://maps.google.com/?cid=0x0:0x31df3f47f8ae00ab";""
"building materials";"Toko Bahan Bangunan";"Cv.bunda Rosmina Jaya";"WGR9+4GM, Jl. Trans Sumatera Bukittinggi - Padang Sidempuan, Jambur Padang Matinggi, Kec. Panyabungan Utara, Kabupaten Mandailing Natal, Sumatera Utara 22976";"Jl. Trans Sumatera Bukittinggi - Padang Sidempuan, Jambur Padang Matinggi, Kec. Panyabungan Utara, Kabupaten Mandailing Natal";"SUMATERA UTARA";"22976";"Indonesia";" 081909781606";"";"";"0.9403295";"99.5187913";"https://maps.google.com/?cid=0x0:0x1a451443e3a0510c";""
"building materials";"Toko Bahan Bangunan";"UD. MY wan";"WG5Q+26Q, jln. padang, mompang julu, panyabungan, Mompang Julu, Kec. Panyabungan Utara, Kota Medan, Sumatera Utara 22976";"jln. padang, mompang julu, panyabungan, Mompang Julu, Kec. Panyabungan Utara, Kota Medan";"SUMATERA UTARA";"22976";"Indonesia";" 081286497634";"";"";"0.9075771";"99.5381032";"https://maps.google.com/?cid=0x0:0x83dd4a5c660ae048";""
"building materials";"Toko Bahan Bangunan";"UD. Maragung";"WG8G+GQM, JL Medan Padang, Mompang Jae, Penyabungan, 25173";"JL Medan Padang, Mompang Jae";"SUMATERA UTARA";"25173";"Indonesia";" 087748157563";"";"";"0.9163333";"99.5269139";"https://maps.google.com/?cid=0x0:0x38266ef6e23ee584";""
"building materials";"building materials";"Sumatera Utara 22987";"Kabupaten Mandailing Natal, Sumatera Utara";"Kabupaten Mandailing Natal, Sumatera Utara";"SUMATERA UTARA";"";"Indonesia";"";"";"";"0.8564869";"99.1456153";"https://maps.google.com/?cid=0x0:0x4e600c6317de6a17";""
"building materials";"Toko Bahan Bangunan";"Toko Joyo";"J46Q+G6, Sikara Kara I, Kec. Natal, Kabupaten Mandailing Natal, Sumatera Utara 22987";"Sikara Kara I, Kec. Natal, Kabupaten Mandailing Natal";"SUMATERA UTARA";"22987";"Indonesia";" 082274760892";"";"";"0.6113834";"99.1381393";"https://maps.google.com/?cid=0x0:0x205e44de7c6d9172";""
"building materials";"Toko Bahan Bangunan";"UD.WIWIN";"Panggautan, Kec. Natal, Kabupaten Mandailing Natal, Sumatera Utara 22987";"Kec. Natal, Kabupaten Mandailing Natal";"SUMATERA UTARA";"22987";"Indonesia";" 081262582188";"";"";"0.5819258";"99.1089545";"https://maps.google.com/?cid=0x0:0x8b9851740af8d251";""
"building materials";"Jasa Persewaan Peralatan Bangunan";"UD. ARI NATAL BETON SP 2";"J49G+P7, Sikara Kara I, Kec. Natal, Kabupaten Mandailing Natal, Sumatera Utara";"Kabupaten Mandailing Natal, Sumatera Utara";"SUMATERA UTARA";"";"Indonesia";"";"";"";"0.619305";"99.125697";"https://maps.google.com/?cid=0x0:0x1da3d330f0dedc87";""
"building materials";"Toko Bahan Bangunan";"Alisandra";"J3MG+96, Sikara Kara, Kec. Natal, Kabupaten Mandailing Natal, Sumatera Utara";"Kabupaten Mandailing Natal, Sumatera Utara";"SUMATERA UTARA";"";"Indonesia";"";"";"";"0.6333599";"99.0755525";"https://maps.google.com/?cid=0x0:0x6e85f7afdd247e00";""
"building materials";"Toko Bahan Bangunan";"UD. H. Akhyar";"pasar 1, Ps. V Natal, Kec. Natal, Kabupaten Mandailing Natal, Sumatera Utara 22988";"Ps. V Natal, Kec. Natal, Kabupaten Mandailing Natal";"SUMATERA UTARA";"22988";"Indonesia";" 081376483856";"";"";"0.5595704";"99.1121227";"https://maps.google.com/?cid=0x0:0x57138cd0b1bed65c";""
"building materials";"Toko Bahan Bangunan";"Toko Bangunan aliannur";"3W7G+X2G, Ps. I. Singkuang, Kec. Muara Batang Gadis, Kabupaten Mandailing Natal, Sumatera Utara 22989";"Ps. I. Singkuang, Kec. Muara Batang Gadis, Kabupaten Mandailing Natal";"SUMATERA UTARA";"22989";"Indonesia";" 085359444789";"";"";"1.0649359";"98.9250901";"https://maps.google.com/?cid=0x0:0x2c664157fb0df469";""
"building materials";"Pemasok Bahan Bangunan";"UD. Subur Sejahtera (Toko Bangunan)";"3W9V+6X2, Ps. I. Singkuang, Kec. Muara Batang Gadis, Kabupaten Mandailing Natal, Sumatera Utara";"Kabupaten Mandailing Natal, Sumatera Utara";"SUMATERA UTARA";"";"Indonesia";"";"";"";"1.0680085";"98.944876";"https://maps.google.com/?cid=0x0:0x402a06c7924156ab";""
"building materials";"Toko Bahan Bangunan";"UD. ALON ALON WAE, 02";"Ps. I. Singkuang, 1, Kabupaten Mandailing Natal, Sumatera Utara 22989";"1, Kabupaten Mandailing Natal";"SUMATERA UTARA";"22989";"Indonesia";" 081378356662";"";"";"1.0932043";"98.9228764";"https://maps.google.com/?cid=0x0:0x5cdeeac799e0e6eb";""
"building materials";"Toko";"Ud.batu bara";"Jl. Trans Sumatera Bukittinggi - Padang Sidempuan No.50, Mompang Jae, Kec. Panyabungan Utara, Kabupaten Mandailing Natal, Sumatera Utara 22976";"Mompang Jae, Kec. Panyabungan Utara, Kabupaten Mandailing Natal";"SUMATERA UTARA";"22976";"Indonesia";" 081370643241";"";"";"0.9181221";"99.5246481";"https://maps.google.com/?cid=0x0:0xae893bd80dfb8ce9";""
"building materials";"Toko Bahan Bangunan";"UD ALON ALON";"Pasar singkuang 1, Kec. Muara Batang Gadis, Kabupaten Mandailing Natal, Sumatera Utara 22989";"Kec. Muara Batang Gadis, Kabupaten Mandailing Natal";"SUMATERA UTARA";"22989";"Indonesia";" 082388158198";"";"";"1.0671651";"98.9374034";"https://maps.google.com/?cid=0x0:0x9de8f5b9ce53627f";""
"building materials";"Toko Bahan Bangunan";"TOKO BANGUNAN AAD";"85H6+7VX, Jln. K.H. Hasyim Asy'ari, Kuala Batahan, Kec. Batahan";"Kabupaten Mandailing Natal, Sumatera Utara";"SUMATERA UTARA";"";"Indonesia";" 087891105252";"";"";"0.3282437";"99.1622211";"https://maps.google.com/?cid=0x0:0x5ca7852f6dc66438";""
"building materials";"Toko Bahan Bangunan";"Madina steel";"RHXC+9QC, Jl. Lintas Timur, Sipolu Polu, Kec. Panyabungan, Kabupaten Mandailing Natal, Sumatera Utara";"Kabupaten Mandailing Natal, Sumatera Utara";"SUMATERA UTARA";"";"Indonesia";" 082267313298";"";"";"0.8484321";"99.5719042";"https://maps.google.com/?cid=0x0:0xbb8424ccaa9cfc";""
"building materials";"Jasa Konstruksi dan Bangunan";"TOKO MATERIAL MUNAWAR";"C6W8+7VW, Sinunukan IV, Kec. Sinunukan, Kabupaten Mandailing Natal, Sumatera Utara 22988";"Sinunukan IV, Kec. Sinunukan, Kabupaten Mandailing Natal";"SUMATERA UTARA";"22988";"Indonesia";"";"";"";"0.4456624";"99.2165934";"https://maps.google.com/?cid=0x0:0xcd08c2ec22c22736";""
"building materials";"Toko Bahan Bangunan";"Putra jaya batako";"J8G4+GG7, Simpang Gambir, Kec. Lingga Bayu, Kabupaten Mandailing Natal, Sumatera Utara 22983";"Simpang Gambir, Kec. Lingga Bayu, Kabupaten Mandailing Natal";"SUMATERA UTARA";"22983";"Indonesia";"";"";"";"0.6262786";"99.3062823";"https://maps.google.com/?cid=0x0:0x920a3af31953daff";""
"building materials";"Toko Bahan Bangunan";"Kembar nasution group";"Jl. Lintas Barat Sumatera No.94, Sihepeng, Kec. Siabu, Kabupaten Mandailing Natal, Sumatera Utara 22976";"Sihepeng, Kec. Siabu, Kabupaten Mandailing Natal";"SUMATERA UTARA";"22976";"Indonesia";"";"";"";"1.0885847";"99.4560422";"https://maps.google.com/?cid=0x0:0xe8a76c417d2b9220";""
"building materials";"Kontraktor Umum";"RAST";"Hutabargot, Kec. Panyabungan, Sumatera Utara 22978";"Kec. Panyabungan";"SUMATERA UTARA";"22978";"Indonesia";" 082267313298";"";"";"0.887846";"99.51016";"https://maps.google.com/?cid=0x0:0xfbf120f66ee51adf";""
"building materials";"Toko Bahan Bangunan";"Api Toko Bangunan";"MCC8+764, Jl. Lintas Natal, Bangkelang, Kec. Batang Natal, Kabupaten Mandailing Natal, Sumatera Utara 22983";"Jl. Lintas Natal, Bangkelang, Kec. Batang Natal, Kabupaten Mandailing Natal";"SUMATERA UTARA";"22983";"Indonesia";"";"";"";"0.6706446";"99.4155809";"https://maps.google.com/?cid=0x0:0xd6e2cd88eafbac38";""
"building materials";"Toko Perlengkapan Rumah";"UD Usaha Baru";"J76Q+XVM, Simpang Gambir, Kec. Lingga Bayu, Kabupaten Mandailing Natal, Sumatera Utara 22983";"Simpang Gambir, Kec. Lingga Bayu, Kabupaten Mandailing Natal";"SUMATERA UTARA";"22983";"Indonesia";"";"";"";"0.6124719";"99.2896734";"https://maps.google.com/?cid=0x0:0x6c20ff92ad3c3dfb";""
"building materials";"Toko Bahan Bangunan";"UD. BERKAH";"PHJ8+43J, Unnamed Road, Huta Raja, Kec. Panyabungan Sel., Kabupaten Mandailing Natal, Sumatera Utara 22994";"Unnamed Road, Huta Raja, Kec. Panyabungan Sel., Kabupaten Mandailing Natal";"SUMATERA UTARA";"22994";"Indonesia";" 081218728057";"";"";"0.7303418";"99.5651395";"https://maps.google.com/?cid=0x0:0xcc42f8d81d56e303";""
"building materials";"Toko Bahan Bangunan";"Toko bangunan Ivan";"2G44+XGM, Huraba I, Kec. Siabu, Kabupaten Mandailing Natal, Sumatera Utara 22976";"Huraba I, Kec. Siabu, Kabupaten Mandailing Natal";"SUMATERA UTARA";"22976";"Indonesia";"";"";"";"1.007469";"99.506308";"https://maps.google.com/?cid=0x0:0xafc55eb4edf24a32";""
"building materials";"Toko Bahan Bangunan";"MHD Zaky NST";"2F9R+M42, JL Lintas Medan Padang, Siabu, Bonan Dolok, Madina, Kabupaten Mandailing Natal, Sumatera Utara 22976";"JL Lintas Medan Padang, Siabu, Bonan Dolok, Madina, Kabupaten Mandailing Natal";"SUMATERA UTARA";"22976";"Indonesia";" 082168263607";"";"";"1.0191444";"99.4902583";"https://maps.google.com/?cid=0x0:0xef138e495c259e0a";""
"building materials";"Kantor Perusahaan";"Semen Padang";"RHQ7+F32, Pidoli Dolok, Kec. Panyabungan, Kabupaten Mandailing Natal, Sumatera Utara 22977";"Pidoli Dolok, Kec. Panyabungan, Kabupaten Mandailing Natal";"SUMATERA UTARA";"22977";"Indonesia";"";"";"";"0.8386451";"99.5626554";"https://maps.google.com/?cid=0x0:0xba15939a94a70863";""
"building materials";"Toko Bahan Bangunan";"TOKO MADINA BAJA";"QHFH+VJC, Purba Baru, Kec. Lembah Sorik Marapi, Kabupaten Mandailing Natal, Sumatera Utara 22952";"Purba Baru, Kec. Lembah Sorik Marapi, Kabupaten Mandailing Natal";"SUMATERA UTARA";"22952";"Indonesia";" 081360095448";"";"";"0.7746936";"99.5790012";"https://maps.google.com/?cid=0x0:0xfa3e945f08a2a73b";""
"building materials";"Toko Bahan Bangunan";"Madju Utama Supermarket Bahan Bangunan";"Jl. KH. Noer Ali, RT.003/RW.025, Kayuringin Jaya, Kec. Bekasi Sel., Kota Bks, Jawa Barat 17148";"RT.003/RW.025, Kayuringin Jaya, Kec. Bekasi Sel., Kota Bks";"SUMATERA UTARA";"17148";"Indonesia";" 087780164555";"";"";"-6.2475509";"106.9792324";"https://maps.google.com/?cid=0x0:0x3c4fc9f20a3df4f3";""
"building materials";"Toko Bahan Bangunan";"Era Makmur Cab. Boulevar Hijau";"Perumahan Harapan Indah Jalan Boulevar Hijau Blok DIV No.1, RT./RW/RW.002/009, Pejuang, Medan Satria, Bekasi, West Java 17131";"RT./RW/RW.002/009, Pejuang, Medan Satria, Bekasi";"SUMATERA UTARA";"17131";"Indonesia";" 02188879280";"";"";"-6.186876";"106.9853869";"https://maps.google.com/?cid=0x0:0x39bc006929c5c6fb";""
"building materials";"Toko Bahan Bangunan";"Era Makmur Cab. Aralia";"kuda, Perumahan Harapan Indah-Bekasi Ruko Aralia Blok HY.45 no.29-32 Depan Patung, Pusaka Rakyat, Kec. Tarumajaya, Kabupaten Bekasi, Jawa Barat 17214";"Perumahan Harapan Indah-Bekasi Ruko Aralia Blok HY.45 no.29-32 Depan Patung, Pusaka Rakyat, Kec. Tarumajaya, Kabupaten Bekasi";"SUMATERA UTARA";"17214";"Indonesia";" 02129283800";"";"";"-6.1515087";"106.9849342";"https://maps.google.com/?cid=0x0:0x2f88bf77edcfc465";""
"building materials";"building materials";"Kec. Pakantan";"Kabupaten Mandailing Natal, Sumatera Utara";"Kabupaten Mandailing Natal, Sumatera Utara";"SUMATERA UTARA";"";"Indonesia";"";"";"";"0.5479934";"99.8949637";"https://maps.google.com/?cid=0x0:0x945b7a39bf8e7a9a";""
"building materials";"Bangunan Bersejarah";"Sopo Godang Pakantan";"GVWV+HW8, Huta Gambir, Kec. Pakantan, Kabupaten Mandailing Natal, Sumatera Utara 22998";"Huta Gambir, Kec. Pakantan, Kabupaten Mandailing Natal";"SUMATERA UTARA";"22998";"Indonesia";"";"";"";"0.5464157";"99.8948417";"https://maps.google.com/?cid=0x0:0xb59cf201171b9a31";""
"building materials";"Toko Bahan Bangunan";"Usaha Lubis";"Penyabungan, Jl. Willem Iskandar No.64, Panyabungan II, Kec. Panyabungan, Kabupaten Mandailing Natal, Sumatera Utara 22976";"Jl. Willem Iskandar No.64, Panyabungan II, Kec. Panyabungan, Kabupaten Mandailing Natal";"SUMATERA UTARA";"22976";"Indonesia";"";"";"";"0.8588128";"99.5627589";"https://maps.google.com/?cid=0x0:0x70f5a4817d2d1ad2";""
"building materials";"building materials";"Sumatera Utara 22911";"Kabupaten Mandailing Natal, Sumatera Utara";"Kabupaten Mandailing Natal, Sumatera Utara";"SUMATERA UTARA";"";"Indonesia";"";"";"";"0.8318324";"99.6174332";"https://maps.google.com/?cid=0x0:0xe40f6a57316cefa5";""
"building materials";"Toko Bahan Bangunan";"Madina steel";"RHXC+9QC, Jl. Lintas Timur, Sipolu Polu, Kec. Panyabungan, Kabupaten Mandailing Natal, Sumatera Utara";"Kabupaten Mandailing Natal, Sumatera Utara";"SUMATERA UTARA";"";"Indonesia";" 082267313298";"";"";"0.8484321";"99.5719042";"https://maps.google.com/?cid=0x0:0xbb8424ccaa9cfc";""
"building materials";"Toko Bahan Bangunan";"Usaha Lubis";"Penyabungan, Jl. Willem Iskandar No.64, Panyabungan II, Kec. Panyabungan, Kabupaten Mandailing Natal, Sumatera Utara 22976";"Jl. Willem Iskandar No.64, Panyabungan II, Kec. Panyabungan, Kabupaten Mandailing Natal";"SUMATERA UTARA";"22976";"Indonesia";"";"";"";"0.8588128";"99.5627589";"https://maps.google.com/?cid=0x0:0x70f5a4817d2d1ad2";""
"building materials";"Toko Bahan Bangunan";"Ud. Karya indah";"RHC8+CJR, Jl. Trans Sumatera Bukittinggi - Padang Sidempuan, Parbangunan, Kec. Panyabungan, Kabupaten Mandailing Natal, Sumatera Utara 22977";"Jl. Trans Sumatera Bukittinggi - Padang Sidempuan, Parbangunan, Kec. Panyabungan, Kabupaten Mandailing Natal";"SUMATERA UTARA";"22977";"Indonesia";"";"";"";"0.8211128";"99.5665125";"https://maps.google.com/?cid=0x0:0x2d993ab0ef78a104";""
"building materials";"Toko Bahan Bangunan";"UD. H.Rohmatulloh Rangkuti";"Jl. Trans Sumatera Bukittinggi - Padang Sidempuan, Aek Lapan, Kec. Panyabungan, Kabupaten Mandailing Natal, Sumatera Utara 22977";"Aek Lapan, Kec. Panyabungan, Kabupaten Mandailing Natal";"SUMATERA UTARA";"22977";"Indonesia";" 081260207870";"";"";"0.8486723";"99.562532";"https://maps.google.com/?cid=0x0:0x4373c04c4a112e32";""
"building materials";"";"Toko Bangunan Subur Jaya";"VH54+G6X, Jl. Sibaroar, Panyabungan Julu, Kec. Panyabungan, Kabupaten Mandailing Natal, Sumatera Utara 22977";"Jl. Sibaroar, Panyabungan Julu, Kec. Panyabungan, Kabupaten Mandailing Natal";"SUMATERA UTARA";"22977";"Indonesia";"";"";"";"0.8588563";"99.5556092";"https://maps.google.com/?cid=0x0:0xa4365124a42d24fe";""
"building materials";"Toko Bahan Bangunan";"UD. Harapan Jaya";"VH36+6XQ, Jl. Willem Iskandar, Pidoli Dolok, Kec. Panyabungan, Kabupaten Mandailing Natal, Sumatera Utara 22977";"Jl. Willem Iskandar, Pidoli Dolok, Kec. Panyabungan, Kabupaten Mandailing Natal";"SUMATERA UTARA";"22977";"Indonesia";" 0636321718";"";"";"0.8530944";"99.5624875";"https://maps.google.com/?cid=0x0:0xd4232eeaf1bad654";""
"building materials";"Toko Bahan Bangunan";"Jayaboard";"Jl. Willem Iskandar No.225, Pidoli Dolok, Kec. Panyabungan, Kabupaten Mandailing Natal, Sumatera Utara 22977";"Pidoli Dolok, Kec. Panyabungan, Kabupaten Mandailing Natal";"SUMATERA UTARA";"22977";"Indonesia";"";"";"";"0.8514958";"99.562422";"https://maps.google.com/?cid=0x0:0x7abd6810efd3ec4b";""
"building materials";"Toko Bahan Bangunan";"CP. Citra Populer";"JL W. Iskandar, No. 82 D, Mandailing Natal, Panyabungan II, Penyabungan, Kabupaten Mandailing Natal, Sumatera Utara 22976";"No. 82 D, Mandailing Natal, Panyabungan II, Penyabungan, Kabupaten Mandailing Natal";"SUMATERA UTARA";"22976";"Indonesia";" 082375547879";"";"";"0.858048";"99.5627559";"https://maps.google.com/?cid=0x0:0xbdf8de21f9bbe6a5";""
"building materials";"Toko Kaca >>u0026 Cermin";"Hana glass dan alumanium";"Banjar saba ujung, Ps. Hilir, Kec. Panyabungan, Kabupaten Mandailing Natal, Sumatera Utara 22919";"Ps. Hilir, Kec. Panyabungan, Kabupaten Mandailing Natal";"SUMATERA UTARA";"22919";"Indonesia";" 085275794444";"";"";"0.8606191";"99.5594452";"https://maps.google.com/?cid=0x0:0x7a3cb1778e461c2f";""
"building materials";"Toko Bahan Bangunan";"UD SINAR WAJA";"VH67+X82, Jl. Trans Sumatera Bukittinggi - Padang Sidempuan, Panyabungan II, Kec. Panyabungan, Kabupaten Mandailing Natal, Sumatera Utara 22976";"Jl. Trans Sumatera Bukittinggi - Padang Sidempuan, Panyabungan II, Kec. Panyabungan, Kabupaten Mandailing Natal";"SUMATERA UTARA";"22976";"Indonesia";"";"";"";"0.8623868";"99.563257";"https://maps.google.com/?cid=0x0:0x1c17c9de8622ff12";""
"building materials";"Toko Bahan Bangunan";"UD. Akbar Bangunan / Akbar Safety panyabungan";"Desa, Hutarimbaru, Kec. Panyabungan Sel., Kabupaten Mandailing Natal, Sumatera Utara 22994";"Hutarimbaru, Kec. Panyabungan Sel., Kabupaten Mandailing Natal";"SUMATERA UTARA";"22994";"Indonesia";" 081362929907";"";"";"0.7442233";"99.5561863";"https://maps.google.com/?cid=0x0:0xf9f9137c9ac13cbb";""
"building materials";"Kantor Perusahaan";"Semen Padang";"RHQ7+F32, Pidoli Dolok, Kec. Panyabungan, Kabupaten Mandailing Natal, Sumatera Utara 22977";"Pidoli Dolok, Kec. Panyabungan, Kabupaten Mandailing Natal";"SUMATERA UTARA";"22977";"Indonesia";"";"";"";"0.8386451";"99.5626554";"https://maps.google.com/?cid=0x0:0xba15939a94a70863";""
"building materials";"Toko Sepeda Motor";"Samurai Paint - Ud Arfiyyah Tanjung Panyabungan";"Jl. Willem Iskandar No.16, Panyabungan II, Kec. Panyabungan, Kabupaten Mandailing Natal, Sumatera Utara 22976";"Panyabungan II, Kec. Panyabungan, Kabupaten Mandailing Natal";"SUMATERA UTARA";"22976";"Indonesia";" 085270061116";"";"";"0.8601102";"99.5628893";"https://maps.google.com/?cid=0x0:0xba2653b0f917b658";""
"building materials";"Toko Ikan";"Toko Arwana  Showroom";"Jl. Lintas Timur, Kota Siantar, Kec. Panyabungan, Kabupaten Mandailing Natal, Sumatera Utara 22976";"Kota Siantar, Kec. Panyabungan, Kabupaten Mandailing Natal";"SUMATERA UTARA";"22976";"Indonesia";" 082273176525";"";"";"0.866069";"99.5678769";"https://maps.google.com/?cid=0x0:0x1044070080684017";""
"building materials";"Toko Bahan Bangunan";"TOKO BANGUNAN/MATERIAL SINAR WAJA MANDIRI";"Jl. Willem Iskandar No.1, Panyabungan III, Kec. Panyabungan, Kabupaten Mandailing Natal, Sumatera Utara 22913";"Panyabungan III, Kec. Panyabungan, Kabupaten Mandailing Natal";"SUMATERA UTARA";"22913";"Indonesia";" 081264044470";"";"";"0.8610671";"99.5631367";"https://maps.google.com/?cid=0x0:0x7c18789978b7c4db";""
"building materials";"Toko Bahan Bangunan";"UD YUSUF JAYA MANDIRI";"RHRC+VH4, Jl. Raja Junjungan Lubis, Pidoli Dolok, Kec. Panyabungan, Kabupaten Mandailing Natal, Sumatera Utara";"Kabupaten Mandailing Natal, Sumatera Utara";"SUMATERA UTARA";"";"Indonesia";"";"";"";"0.842126";"99.5714599";"https://maps.google.com/?cid=0x0:0x704674228d059b31";""
"building materials";"Toko Bahan Bangunan";"UD. Bangun Jaya";"VH54+37, Panyabungan Julu, Kec. Panyabungan, Kabupaten Mandailing Natal, Sumatera Utara 22977";"Panyabungan Julu, Kec. Panyabungan, Kabupaten Mandailing Natal";"SUMATERA UTARA";"22977";"Indonesia";"";"";"";"0.8577143";"99.5557217";"https://maps.google.com/?cid=0x0:0xc2336fd653df3859";""
"building materials";"Toko Bahan Bangunan";"UD.Mandiri Jaya";"VH3C+G42, Jl. Lintas Timur, Darussalam, Kec. Panyabungan, Kabupaten Mandailing Natal, Sumatera Utara 22976";"Jl. Lintas Timur, Darussalam, Kec. Panyabungan, Kabupaten Mandailing Natal";"SUMATERA UTARA";"22976";"Indonesia";" 087838677823";"";"";"0.8537665";"99.5702532";"https://maps.google.com/?cid=0x0:0xc9d842e0419c794d";""
"building materials";"Toko Bahan Bangunan";"toko bangunan usaha oloan";"Jl. Trans Sumatera Bukittinggi - Padang Sidempuan No.25, Gn. Tua Tonga, Kec. Panyabungan, Kabupaten Mandailing Natal, Sumatera Utara 22976";"Gn. Tua Tonga, Kec. Panyabungan, Kabupaten Mandailing Natal";"SUMATERA UTARA";"22976";"Indonesia";"";"";"";"0.8845168";"99.5605862";"https://maps.google.com/?cid=0x0:0x38dce341a85d1151";""
"building materials";"Toko";"Ud.batu bara";"Jl. Trans Sumatera Bukittinggi - Padang Sidempuan No.50, Mompang Jae, Kec. Panyabungan Utara, Kabupaten Mandailing Natal, Sumatera Utara 22976";"Mompang Jae, Kec. Panyabungan Utara, Kabupaten Mandailing Natal";"SUMATERA UTARA";"22976";"Indonesia";" 081370643241";"";"";"0.9181221";"99.5246481";"https://maps.google.com/?cid=0x0:0xae893bd80dfb8ce9";""
"building materials";"Toko Bahan Bangunan";"Putra Nasution";"VHH6+5FR, JL Merdeka, Kayu Jati, Madina, Panggorengan, Pengayuban, Kabupaten Mandailing Natal, Sumatera Utara 22976";"JL Merdeka, Kayu Jati, Madina, Panggorengan, Pengayuban, Kabupaten Mandailing Natal";"SUMATERA UTARA";"22976";"Indonesia";" 082360236210";"";"";"0.877979";"99.5611365";"https://maps.google.com/?cid=0x0:0x50283504522d46a6";""
"building materials";"Toko Bahan Bangunan";"UD. BERKAH";"PHJ8+43J, Unnamed Road, Huta Raja, Kec. Panyabungan Sel., Kabupaten Mandailing Natal, Sumatera Utara 22994";"Unnamed Road, Huta Raja, Kec. Panyabungan Sel., Kabupaten Mandailing Natal";"SUMATERA UTARA";"22994";"Indonesia";" 081218728057";"";"";"0.7303418";"99.5651395";"https://maps.google.com/?cid=0x0:0xcc42f8d81d56e303";""
"building materials";"Toko Bahan Bangunan";"UD. MY wan";"WG5Q+26Q, jln. padang, mompang julu, panyabungan, Mompang Julu, Kec. Panyabungan Utara, Kota Medan, Sumatera Utara 22976";"jln. padang, mompang julu, panyabungan, Mompang Julu, Kec. Panyabungan Utara, Kota Medan";"SUMATERA UTARA";"22976";"Indonesia";" 081286497634";"";"";"0.9075771";"99.5381032";"https://maps.google.com/?cid=0x0:0x83dd4a5c660ae048";""
"building materials";"Toko Bahan Bangunan";"UD.PUTRA BAHRAN TANOBATO";"Jl. Lintas Natal No.Kel, Tano Bato, Kec. Panyabungan Sel., Kabupaten Mandailing Natal, Sumatera Utara 22994";"Tano Bato, Kec. Panyabungan Sel., Kabupaten Mandailing Natal";"SUMATERA UTARA";"22994";"Indonesia";"";"";"";"0.7423196";"99.5544282";"https://maps.google.com/?cid=0x0:0x51d50c685a364eff";""
"building materials";"Toko Bahan Bangunan";"TOKO MADINA BAJA";"QHFH+VJC, Purba Baru, Kec. Lembah Sorik Marapi, Kabupaten Mandailing Natal, Sumatera Utara 22952";"Purba Baru, Kec. Lembah Sorik Marapi, Kabupaten Mandailing Natal";"SUMATERA UTARA";"22952";"Indonesia";" 081360095448";"";"";"0.7746936";"99.5790012";"https://maps.google.com/?cid=0x0:0xfa3e945f08a2a73b";""
"building materials";"Toko Bahan Bangunan";"UD. TOR ROBURAN";"Roburan Lombang, Kec. Panyabungan Sel., Kabupaten Mandailing Natal, Sumatera Utara 22952";"Kec. Panyabungan Sel., Kabupaten Mandailing Natal";"SUMATERA UTARA";"22952";"Indonesia";" 081260364823";"";"";"0.7566596";"99.5469786";"https://maps.google.com/?cid=0x0:0x3f8fc4ee76ad6424";""
"building materials";"building materials";"Sumatera Utara 22912";"Kabupaten Mandailing Natal, Sumatera Utara";"Kabupaten Mandailing Natal, Sumatera Utara";"SUMATERA UTARA";"";"Indonesia";"";"";"";"0.7986644";"99.745565";"https://maps.google.com/?cid=0x0:0x43541852640e7b98";""
"building materials";"Toko Bahan Bangunan";"Madina steel";"RHXC+9QC, Jl. Lintas Timur, Sipolu Polu, Kec. Panyabungan, Kabupaten Mandailing Natal, Sumatera Utara";"Kabupaten Mandailing Natal, Sumatera Utara";"SUMATERA UTARA";"";"Indonesia";" 082267313298";"";"";"0.8484321";"99.5719042";"https://maps.google.com/?cid=0x0:0xbb8424ccaa9cfc";""
"building materials";"Toko Bahan Bangunan";"Usaha Lubis";"Penyabungan, Jl. Willem Iskandar No.64, Panyabungan II, Kec. Panyabungan, Kabupaten Mandailing Natal, Sumatera Utara 22976";"Jl. Willem Iskandar No.64, Panyabungan II, Kec. Panyabungan, Kabupaten Mandailing Natal";"SUMATERA UTARA";"22976";"Indonesia";"";"";"";"0.8588128";"99.5627589";"https://maps.google.com/?cid=0x0:0x70f5a4817d2d1ad2";""
"building materials";"Toko Bahan Bangunan";"Ud. Karya indah";"RHC8+CJR, Jl. Trans Sumatera Bukittinggi - Padang Sidempuan, Parbangunan, Kec. Panyabungan, Kabupaten Mandailing Natal, Sumatera Utara 22977";"Jl. Trans Sumatera Bukittinggi - Padang Sidempuan, Parbangunan, Kec. Panyabungan, Kabupaten Mandailing Natal";"SUMATERA UTARA";"22977";"Indonesia";"";"";"";"0.8211128";"99.5665125";"https://maps.google.com/?cid=0x0:0x2d993ab0ef78a104";""
"building materials";"Toko Bahan Bangunan";"Jayaboard";"Jl. Willem Iskandar No.225, Pidoli Dolok, Kec. Panyabungan, Kabupaten Mandailing Natal, Sumatera Utara 22977";"Pidoli Dolok, Kec. Panyabungan, Kabupaten Mandailing Natal";"SUMATERA UTARA";"22977";"Indonesia";"";"";"";"0.8514958";"99.562422";"https://maps.google.com/?cid=0x0:0x7abd6810efd3ec4b";""
"building materials";"Toko Bahan Bangunan";"UD. H.Rohmatulloh Rangkuti";"Jl. Trans Sumatera Bukittinggi - Padang Sidempuan, Aek Lapan, Kec. Panyabungan, Kabupaten Mandailing Natal, Sumatera Utara 22977";"Aek Lapan, Kec. Panyabungan, Kabupaten Mandailing Natal";"SUMATERA UTARA";"22977";"Indonesia";" 081260207870";"";"";"0.8486723";"99.562532";"https://maps.google.com/?cid=0x0:0x4373c04c4a112e32";""
"building materials";"Toko Bahan Bangunan";"CP. Citra Populer";"JL W. Iskandar, No. 82 D, Mandailing Natal, Panyabungan II, Penyabungan, Kabupaten Mandailing Natal, Sumatera Utara 22976";"No. 82 D, Mandailing Natal, Panyabungan II, Penyabungan, Kabupaten Mandailing Natal";"SUMATERA UTARA";"22976";"Indonesia";" 082375547879";"";"";"0.858048";"99.5627559";"https://maps.google.com/?cid=0x0:0xbdf8de21f9bbe6a5";""
"building materials";"Toko Bahan Bangunan";"UD SINAR WAJA";"VH67+X82, Jl. Trans Sumatera Bukittinggi - Padang Sidempuan, Panyabungan II, Kec. Panyabungan, Kabupaten Mandailing Natal, Sumatera Utara 22976";"Jl. Trans Sumatera Bukittinggi - Padang Sidempuan, Panyabungan II, Kec. Panyabungan, Kabupaten Mandailing Natal";"SUMATERA UTARA";"22976";"Indonesia";"";"";"";"0.8623868";"99.563257";"https://maps.google.com/?cid=0x0:0x1c17c9de8622ff12";""
"building materials";"Toko Bahan Bangunan";"UD. Akbar Bangunan / Akbar Safety panyabungan";"Desa, Hutarimbaru, Kec. Panyabungan Sel., Kabupaten Mandailing Natal, Sumatera Utara 22994";"Hutarimbaru, Kec. Panyabungan Sel., Kabupaten Mandailing Natal";"SUMATERA UTARA";"22994";"Indonesia";" 081362929907";"";"";"0.7442233";"99.5561863";"https://maps.google.com/?cid=0x0:0xf9f9137c9ac13cbb";""
"building materials";"Toko Ikan";"Toko Arwana  Showroom";"Jl. Lintas Timur, Kota Siantar, Kec. Panyabungan, Kabupaten Mandailing Natal, Sumatera Utara 22976";"Kota Siantar, Kec. Panyabungan, Kabupaten Mandailing Natal";"SUMATERA UTARA";"22976";"Indonesia";" 082273176525";"";"";"0.866069";"99.5678769";"https://maps.google.com/?cid=0x0:0x1044070080684017";""
"building materials";"Kantor Perusahaan";"Semen Padang";"RHQ7+F32, Pidoli Dolok, Kec. Panyabungan, Kabupaten Mandailing Natal, Sumatera Utara 22977";"Pidoli Dolok, Kec. Panyabungan, Kabupaten Mandailing Natal";"SUMATERA UTARA";"22977";"Indonesia";"";"";"";"0.8386451";"99.5626554";"https://maps.google.com/?cid=0x0:0xba15939a94a70863";""
"building materials";"";"Toko Bangunan Subur Jaya";"VH54+G6X, Jl. Sibaroar, Panyabungan Julu, Kec. Panyabungan, Kabupaten Mandailing Natal, Sumatera Utara 22977";"Jl. Sibaroar, Panyabungan Julu, Kec. Panyabungan, Kabupaten Mandailing Natal";"SUMATERA UTARA";"22977";"Indonesia";"";"";"";"0.8588563";"99.5556092";"https://maps.google.com/?cid=0x0:0xa4365124a42d24fe";""
"building materials";"Toko Bahan Bangunan";"UD. Harapan Jaya";"VH36+6XQ, Jl. Willem Iskandar, Pidoli Dolok, Kec. Panyabungan, Kabupaten Mandailing Natal, Sumatera Utara 22977";"Jl. Willem Iskandar, Pidoli Dolok, Kec. Panyabungan, Kabupaten Mandailing Natal";"SUMATERA UTARA";"22977";"Indonesia";" 0636321718";"";"";"0.8530944";"99.5624875";"https://maps.google.com/?cid=0x0:0xd4232eeaf1bad654";""
"building materials";"Kantor Perusahaan";"UD. Roni Rahmat";"XGW6+CH3, Aek Mual, Kec. Siabu, Kabupaten Mandailing Natal, Sumatera Utara 22976";"Aek Mual, Kec. Siabu, Kabupaten Mandailing Natal";"SUMATERA UTARA";"22976";"Indonesia";" 085359297755";"";"";"0.9960106";"99.511429";"https://maps.google.com/?cid=0x0:0x116973655ce53272";""
"building materials";"Toko Kaca >>u0026 Cermin";"Hana glass dan alumanium";"Banjar saba ujung, Ps. Hilir, Kec. Panyabungan, Kabupaten Mandailing Natal, Sumatera Utara 22919";"Ps. Hilir, Kec. Panyabungan, Kabupaten Mandailing Natal";"SUMATERA UTARA";"22919";"Indonesia";" 085275794444";"";"";"0.8606191";"99.5594452";"https://maps.google.com/?cid=0x0:0x7a3cb1778e461c2f";""
"building materials";"Toko Bahan Bangunan";"TOKO BANGUNAN/MATERIAL SINAR WAJA MANDIRI";"Jl. Willem Iskandar No.1, Panyabungan III, Kec. Panyabungan, Kabupaten Mandailing Natal, Sumatera Utara 22913";"Panyabungan III, Kec. Panyabungan, Kabupaten Mandailing Natal";"SUMATERA UTARA";"22913";"Indonesia";" 081264044470";"";"";"0.8610671";"99.5631367";"https://maps.google.com/?cid=0x0:0x7c18789978b7c4db";""
"building materials";"Toko Bahan Bangunan";"UD. Berkah tani";"MQ27+CQ9, JL Lintas Medan - Padang, Tamiang, Kec. Kotanopan, Kabupaten Mandailing Natal, Sumatera Utara 22994";"JL Lintas Medan - Padang, Tamiang, Kec. Kotanopan, Kabupaten Mandailing Natal";"SUMATERA UTARA";"22994";"Indonesia";" 081370415621";"";"";"0.6510275";"99.7644882";"https://maps.google.com/?cid=0x0:0x3c5b88bb9fc52c42";""
"building materials";"Toko Bahan Bangunan";"UD YUSUF JAYA MANDIRI";"RHRC+VH4, Jl. Raja Junjungan Lubis, Pidoli Dolok, Kec. Panyabungan, Kabupaten Mandailing Natal, Sumatera Utara";"Kabupaten Mandailing Natal, Sumatera Utara";"SUMATERA UTARA";"";"Indonesia";"";"";"";"0.842126";"99.5714599";"https://maps.google.com/?cid=0x0:0x704674228d059b31";""
"building materials";"Toko Bahan Bangunan";"UD. BERKAH";"PHJ8+43J, Unnamed Road, Huta Raja, Kec. Panyabungan Sel., Kabupaten Mandailing Natal, Sumatera Utara 22994";"Unnamed Road, Huta Raja, Kec. Panyabungan Sel., Kabupaten Mandailing Natal";"SUMATERA UTARA";"22994";"Indonesia";" 081218728057";"";"";"0.7303418";"99.5651395";"https://maps.google.com/?cid=0x0:0xcc42f8d81d56e303";""
"building materials";"Toko";"Ud.batu bara";"Jl. Trans Sumatera Bukittinggi - Padang Sidempuan No.50, Mompang Jae, Kec. Panyabungan Utara, Kabupaten Mandailing Natal, Sumatera Utara 22976";"Mompang Jae, Kec. Panyabungan Utara, Kabupaten Mandailing Natal";"SUMATERA UTARA";"22976";"Indonesia";" 081370643241";"";"";"0.9181221";"99.5246481";"https://maps.google.com/?cid=0x0:0xae893bd80dfb8ce9";""
"building materials";"Toko Bahan Bangunan";"UD. MY wan";"WG5Q+26Q, jln. padang, mompang julu, panyabungan, Mompang Julu, Kec. Panyabungan Utara, Kota Medan, Sumatera Utara 22976";"jln. padang, mompang julu, panyabungan, Mompang Julu, Kec. Panyabungan Utara, Kota Medan";"SUMATERA UTARA";"22976";"Indonesia";" 081286497634";"";"";"0.9075771";"99.5381032";"https://maps.google.com/?cid=0x0:0x83dd4a5c660ae048";""
"building materials";"Toko Bahan Bangunan";"UD.MUARA INDAH";"Sebelum, Huta lombang lubis, Adian Jior, Kec. Panyabungan, Sumatera Utara 22912";"Huta lombang lubis, Adian Jior, Kec. Panyabungan";"SUMATERA UTARA";"22912";"Indonesia";" 082267244536";"";"";"0.8690084";"99.5431811";"https://maps.google.com/?cid=0x0:0x8d8371644fe8a02a";""
"building materials";"Produsen";"CV. Mitra Utama";"Jl. Willem Iskandar No.153-A, Parbangunan, Kec. Panyabungan, Kabupaten Mandailing Natal, Sumatera Utara 22911";"Parbangunan, Kec. Panyabungan, Kabupaten Mandailing Natal";"SUMATERA UTARA";"22911";"Indonesia";" 08116223101";"";"";"0.8101537";"99.5705884";"https://maps.google.com/?cid=0x0:0xcc36a3a3326b8f3d";""
"building materials";"Toko Bahan Bangunan";"UD.PUTRA BAHRAN TANOBATO";"Jl. Lintas Natal No.Kel, Tano Bato, Kec. Panyabungan Sel., Kabupaten Mandailing Natal, Sumatera Utara 22994";"Tano Bato, Kec. Panyabungan Sel., Kabupaten Mandailing Natal";"SUMATERA UTARA";"22994";"Indonesia";"";"";"";"0.7423196";"99.5544282";"https://maps.google.com/?cid=0x0:0x51d50c685a364eff";""
"building materials";"Toko Bahan Bangunan";"Putra Nasution";"VHH6+5FR, JL Merdeka, Kayu Jati, Madina, Panggorengan, Pengayuban, Kabupaten Mandailing Natal, Sumatera Utara 22976";"JL Merdeka, Kayu Jati, Madina, Panggorengan, Pengayuban, Kabupaten Mandailing Natal";"SUMATERA UTARA";"22976";"Indonesia";" 082360236210";"";"";"0.877979";"99.5611365";"https://maps.google.com/?cid=0x0:0x50283504522d46a6";""
"building materials";"Toko Bahan Bangunan";"toko bangunan usaha oloan";"Jl. Trans Sumatera Bukittinggi - Padang Sidempuan No.25, Gn. Tua Tonga, Kec. Panyabungan, Kabupaten Mandailing Natal, Sumatera Utara 22976";"Gn. Tua Tonga, Kec. Panyabungan, Kabupaten Mandailing Natal";"SUMATERA UTARA";"22976";"Indonesia";"";"";"";"0.8845168";"99.5605862";"https://maps.google.com/?cid=0x0:0x38dce341a85d1151";""
"building materials";"building materials";"Sumatera Utara 22913";"Kabupaten Mandailing Natal, Sumatera Utara";"Kabupaten Mandailing Natal, Sumatera Utara";"SUMATERA UTARA";"";"Indonesia";"";"";"";"0.8446562";"99.6550169";"https://maps.google.com/?cid=0x0:0x9cb16ec5f8bead7b";""
"building materials";"Toko Bahan Bangunan";"Madina steel";"RHXC+9QC, Jl. Lintas Timur, Sipolu Polu, Kec. Panyabungan, Kabupaten Mandailing Natal, Sumatera Utara";"Kabupaten Mandailing Natal, Sumatera Utara";"SUMATERA UTARA";"";"Indonesia";" 082267313298";"";"";"0.8484321";"99.5719042";"https://maps.google.com/?cid=0x0:0xbb8424ccaa9cfc";""
"building materials";"Toko Bahan Bangunan";"Ammil Lubis";"Sipolu Polu, Kec. Panyabungan, Kabupaten Mandailing Natal, Sumatera Utara 22976";"Kec. Panyabungan, Kabupaten Mandailing Natal";"SUMATERA UTARA";"22976";"Indonesia";"";"";"";"0.8569796";"99.5662755";"https://maps.google.com/?cid=0x0:0xe83c1ac147f348f3";""
"building materials";"Toko";"Ud.batu bara";"Jl. Trans Sumatera Bukittinggi - Padang Sidempuan No.50, Mompang Jae, Kec. Panyabungan Utara, Kabupaten Mandailing Natal, Sumatera Utara 22976";"Mompang Jae, Kec. Panyabungan Utara, Kabupaten Mandailing Natal";"SUMATERA UTARA";"22976";"Indonesia";" 081370643241";"";"";"0.9181221";"99.5246481";"https://maps.google.com/?cid=0x0:0xae893bd80dfb8ce9";""
"building materials";"Kantor Perusahaan";"Semen Padang";"RHQ7+F32, Pidoli Dolok, Kec. Panyabungan, Kabupaten Mandailing Natal, Sumatera Utara 22977";"Pidoli Dolok, Kec. Panyabungan, Kabupaten Mandailing Natal";"SUMATERA UTARA";"22977";"Indonesia";"";"";"";"0.8386451";"99.5626554";"https://maps.google.com/?cid=0x0:0xba15939a94a70863";""
"building materials";"Toko Bahan Bangunan";"toko bangunan usaha oloan";"Jl. Trans Sumatera Bukittinggi - Padang Sidempuan No.25, Gn. Tua Tonga, Kec. Panyabungan, Kabupaten Mandailing Natal, Sumatera Utara 22976";"Gn. Tua Tonga, Kec. Panyabungan, Kabupaten Mandailing Natal";"SUMATERA UTARA";"22976";"Indonesia";"";"";"";"0.8845168";"99.5605862";"https://maps.google.com/?cid=0x0:0x38dce341a85d1151";""
"building materials";"Toko Bahan Bangunan";"Usaha Lubis";"Penyabungan, Jl. Willem Iskandar No.64, Panyabungan II, Kec. Panyabungan, Kabupaten Mandailing Natal, Sumatera Utara 22976";"Jl. Willem Iskandar No.64, Panyabungan II, Kec. Panyabungan, Kabupaten Mandailing Natal";"SUMATERA UTARA";"22976";"Indonesia";"";"";"";"0.8588128";"99.5627589";"https://maps.google.com/?cid=0x0:0x70f5a4817d2d1ad2";""
"building materials";"Toko Bahan Bangunan";"Jayaboard";"Jl. Willem Iskandar No.225, Pidoli Dolok, Kec. Panyabungan, Kabupaten Mandailing Natal, Sumatera Utara 22977";"Pidoli Dolok, Kec. Panyabungan, Kabupaten Mandailing Natal";"SUMATERA UTARA";"22977";"Indonesia";"";"";"";"0.8514958";"99.562422";"https://maps.google.com/?cid=0x0:0x7abd6810efd3ec4b";""
"building materials";"Toko Bahan Bangunan";"UD. Akbar Bangunan / Akbar Safety panyabungan";"Desa, Hutarimbaru, Kec. Panyabungan Sel., Kabupaten Mandailing Natal, Sumatera Utara 22994";"Hutarimbaru, Kec. Panyabungan Sel., Kabupaten Mandailing Natal";"SUMATERA UTARA";"22994";"Indonesia";" 081362929907";"";"";"0.7442233";"99.5561863";"https://maps.google.com/?cid=0x0:0xf9f9137c9ac13cbb";""
"building materials";"";"Toko Bangunan Subur Jaya";"VH54+G6X, Jl. Sibaroar, Panyabungan Julu, Kec. Panyabungan, Kabupaten Mandailing Natal, Sumatera Utara 22977";"Jl. Sibaroar, Panyabungan Julu, Kec. Panyabungan, Kabupaten Mandailing Natal";"SUMATERA UTARA";"22977";"Indonesia";"";"";"";"0.8588563";"99.5556092";"https://maps.google.com/?cid=0x0:0xa4365124a42d24fe";""
"building materials";"Toko Bahan Bangunan";"UD YUSUF JAYA MANDIRI";"RHRC+VH4, Jl. Raja Junjungan Lubis, Pidoli Dolok, Kec. Panyabungan, Kabupaten Mandailing Natal, Sumatera Utara";"Kabupaten Mandailing Natal, Sumatera Utara";"SUMATERA UTARA";"";"Indonesia";"";"";"";"0.842126";"99.5714599";"https://maps.google.com/?cid=0x0:0x704674228d059b31";""
"building materials";"Toko Bahan Bangunan";"Ud.Bakti Jaya Baru";"QHMJ+R2V, Jl. Trans Sumatera Bukittinggi - Padang Sidempuan, Parbangunan, Kec. Panyabungan, Kabupaten Mandailing Natal, Sumatera Utara 22952";"Jl. Trans Sumatera Bukittinggi - Padang Sidempuan, Parbangunan, Kec. Panyabungan, Kabupaten Mandailing Natal";"SUMATERA UTARA";"22952";"Indonesia";"";"";"";"0.7846286";"99.5801051";"https://maps.google.com/?cid=0x0:0xbe71fb596581db6b";""
"building materials";"Toko Bahan Bangunan";"UD.Mandiri Jaya";"VH3C+G42, Jl. Lintas Timur, Darussalam, Kec. Panyabungan, Kabupaten Mandailing Natal, Sumatera Utara 22976";"Jl. Lintas Timur, Darussalam, Kec. Panyabungan, Kabupaten Mandailing Natal";"SUMATERA UTARA";"22976";"Indonesia";" 087838677823";"";"";"0.8537665";"99.5702532";"https://maps.google.com/?cid=0x0:0xc9d842e0419c794d";""
"building materials";"Kontraktor Umum";"RAST";"Hutabargot, Kec. Panyabungan, Sumatera Utara 22978";"Kec. Panyabungan";"SUMATERA UTARA";"22978";"Indonesia";" 082267313298";"";"";"0.887846";"99.51016";"https://maps.google.com/?cid=0x0:0xfbf120f66ee51adf";""
"building materials";"Toko Bahan Bangunan";"Toko bangunan Ivan";"2G44+XGM, Huraba I, Kec. Siabu, Kabupaten Mandailing Natal, Sumatera Utara 22976";"Huraba I, Kec. Siabu, Kabupaten Mandailing Natal";"SUMATERA UTARA";"22976";"Indonesia";"";"";"";"1.007469";"99.506308";"https://maps.google.com/?cid=0x0:0xafc55eb4edf24a32";""
"building materials";"Toko Bahan Bangunan";"CV. Ilham";"VHR4+7G9 Sin Tua, Madina, Jl. Lintas Medan Padang, Lumban Pasir, Penyabungan, Kabupaten Mandailing Natal, Sumatera Utara 22976";"Madina, Jl. Lintas Medan Padang, Lumban Pasir, Penyabungan, Kabupaten Mandailing Natal";"SUMATERA UTARA";"22976";"Indonesia";" 082370800800";"";"";"0.890662";"99.5563565";"https://maps.google.com/?cid=0x0:0x4a16f60173552e42";""
"building materials";"building materials";"Sumatera Utara 22915";"Hutarimbaru Gb, Kec. Panyabungan Tim., Kabupaten Mandailing Natal, Sumatera Utara";"Kabupaten Mandailing Natal, Sumatera Utara";"SUMATERA UTARA";"";"Indonesia";"";"";"";"0.8340913";"99.6536246";"https://maps.google.com/?cid=0x0:0x410eea700203b842";""
"building materials";"Toko Bahan Bangunan";"Madina steel";"RHXC+9QC, Jl. Lintas Timur, Sipolu Polu, Kec. Panyabungan, Kabupaten Mandailing Natal, Sumatera Utara";"Kabupaten Mandailing Natal, Sumatera Utara";"SUMATERA UTARA";"";"Indonesia";" 082267313298";"";"";"0.8484321";"99.5719042";"https://maps.google.com/?cid=0x0:0xbb8424ccaa9cfc";""
"building materials";"Toko Bahan Bangunan";"Usaha Lubis";"Penyabungan, Jl. Willem Iskandar No.64, Panyabungan II, Kec. Panyabungan, Kabupaten Mandailing Natal, Sumatera Utara 22976";"Jl. Willem Iskandar No.64, Panyabungan II, Kec. Panyabungan, Kabupaten Mandailing Natal";"SUMATERA UTARA";"22976";"Indonesia";"";"";"";"0.8588128";"99.5627589";"https://maps.google.com/?cid=0x0:0x70f5a4817d2d1ad2";""
"building materials";"Toko Bahan Bangunan";"UD. Akbar Bangunan / Akbar Safety panyabungan";"Desa, Hutarimbaru, Kec. Panyabungan Sel., Kabupaten Mandailing Natal, Sumatera Utara 22994";"Hutarimbaru, Kec. Panyabungan Sel., Kabupaten Mandailing Natal";"SUMATERA UTARA";"22994";"Indonesia";" 081362929907";"";"";"0.7442233";"99.5561863";"https://maps.google.com/?cid=0x0:0xf9f9137c9ac13cbb";""
"building materials";"Toko Bahan Bangunan";"UD. H.Rohmatulloh Rangkuti";"Jl. Trans Sumatera Bukittinggi - Padang Sidempuan, Aek Lapan, Kec. Panyabungan, Kabupaten Mandailing Natal, Sumatera Utara 22977";"Aek Lapan, Kec. Panyabungan, Kabupaten Mandailing Natal";"SUMATERA UTARA";"22977";"Indonesia";" 081260207870";"";"";"0.8486723";"99.562532";"https://maps.google.com/?cid=0x0:0x4373c04c4a112e32";""
"building materials";"";"Toko Bangunan Subur Jaya";"VH54+G6X, Jl. Sibaroar, Panyabungan Julu, Kec. Panyabungan, Kabupaten Mandailing Natal, Sumatera Utara 22977";"Jl. Sibaroar, Panyabungan Julu, Kec. Panyabungan, Kabupaten Mandailing Natal";"SUMATERA UTARA";"22977";"Indonesia";"";"";"";"0.8588563";"99.5556092";"https://maps.google.com/?cid=0x0:0xa4365124a42d24fe";""
"building materials";"Toko";"Ud.batu bara";"Jl. Trans Sumatera Bukittinggi - Padang Sidempuan No.50, Mompang Jae, Kec. Panyabungan Utara, Kabupaten Mandailing Natal, Sumatera Utara 22976";"Mompang Jae, Kec. Panyabungan Utara, Kabupaten Mandailing Natal";"SUMATERA UTARA";"22976";"Indonesia";" 081370643241";"";"";"0.9181221";"99.5246481";"https://maps.google.com/?cid=0x0:0xae893bd80dfb8ce9";""
"building materials";"Kantor Perusahaan";"Semen Padang";"RHQ7+F32, Pidoli Dolok, Kec. Panyabungan, Kabupaten Mandailing Natal, Sumatera Utara 22977";"Pidoli Dolok, Kec. Panyabungan, Kabupaten Mandailing Natal";"SUMATERA UTARA";"22977";"Indonesia";"";"";"";"0.8386451";"99.5626554";"https://maps.google.com/?cid=0x0:0xba15939a94a70863";""
"building materials";"Toko Bahan Bangunan";"Ud.Bakti Jaya Baru";"QHMJ+R2V, Jl. Trans Sumatera Bukittinggi - Padang Sidempuan, Parbangunan, Kec. Panyabungan, Kabupaten Mandailing Natal, Sumatera Utara 22952";"Jl. Trans Sumatera Bukittinggi - Padang Sidempuan, Parbangunan, Kec. Panyabungan, Kabupaten Mandailing Natal";"SUMATERA UTARA";"22952";"Indonesia";"";"";"";"0.7846286";"99.5801051";"https://maps.google.com/?cid=0x0:0xbe71fb596581db6b";""
"building materials";"building materials";"Kec. Panyabungan";"Kabupaten Mandailing Natal, Sumatera Utara";"Kabupaten Mandailing Natal, Sumatera Utara";"SUMATERA UTARA";"";"Indonesia";"";"";"";"0.8637964";"99.5631609";"https://maps.google.com/?cid=0x0:0xdc65624e51420dbd";""
"building materials";"Toko Bahan Bangunan";"Jayaboard";"Jl. Willem Iskandar No.225, Pidoli Dolok, Kec. Panyabungan, Kabupaten Mandailing Natal, Sumatera Utara 22977";"Pidoli Dolok, Kec. Panyabungan, Kabupaten Mandailing Natal";"SUMATERA UTARA";"22977";"Indonesia";"";"";"";"0.8514958";"99.562422";"https://maps.google.com/?cid=0x0:0x7abd6810efd3ec4b";""
"building materials";"Toko Bahan Bangunan";"Ud. Karya indah";"RHC8+CJR, Jl. Trans Sumatera Bukittinggi - Padang Sidempuan, Parbangunan, Kec. Panyabungan, Kabupaten Mandailing Natal, Sumatera Utara 22977";"Jl. Trans Sumatera Bukittinggi - Padang Sidempuan, Parbangunan, Kec. Panyabungan, Kabupaten Mandailing Natal";"SUMATERA UTARA";"22977";"Indonesia";"";"";"";"0.8211128";"99.5665125";"https://maps.google.com/?cid=0x0:0x2d993ab0ef78a104";""
"building materials";"Toko Bahan Bangunan";"UD. Harapan Jaya";"VH36+6XQ, Jl. Willem Iskandar, Pidoli Dolok, Kec. Panyabungan, Kabupaten Mandailing Natal, Sumatera Utara 22977";"Jl. Willem Iskandar, Pidoli Dolok, Kec. Panyabungan, Kabupaten Mandailing Natal";"SUMATERA UTARA";"22977";"Indonesia";" 0636321718";"";"";"0.8530944";"99.5624875";"https://maps.google.com/?cid=0x0:0xd4232eeaf1bad654";""
"building materials";"Toko Bahan Bangunan";"CP. Citra Populer";"JL W. Iskandar, No. 82 D, Mandailing Natal, Panyabungan II, Penyabungan, Kabupaten Mandailing Natal, Sumatera Utara 22976";"No. 82 D, Mandailing Natal, Panyabungan II, Penyabungan, Kabupaten Mandailing Natal";"SUMATERA UTARA";"22976";"Indonesia";" 082375547879";"";"";"0.858048";"99.5627559";"https://maps.google.com/?cid=0x0:0xbdf8de21f9bbe6a5";""
"building materials";"Toko Bahan Bangunan";"UD SINAR WAJA";"VH67+X82, Jl. Trans Sumatera Bukittinggi - Padang Sidempuan, Panyabungan II, Kec. Panyabungan, Kabupaten Mandailing Natal, Sumatera Utara 22976";"Jl. Trans Sumatera Bukittinggi - Padang Sidempuan, Panyabungan II, Kec. Panyabungan, Kabupaten Mandailing Natal";"SUMATERA UTARA";"22976";"Indonesia";"";"";"";"0.8623868";"99.563257";"https://maps.google.com/?cid=0x0:0x1c17c9de8622ff12";""
"building materials";"Toko Bahan Bangunan";"UD. MY wan";"WG5Q+26Q, jln. padang, mompang julu, panyabungan, Mompang Julu, Kec. Panyabungan Utara, Kota Medan, Sumatera Utara 22976";"jln. padang, mompang julu, panyabungan, Mompang Julu, Kec. Panyabungan Utara, Kota Medan";"SUMATERA UTARA";"22976";"Indonesia";" 081286497634";"";"";"0.9075771";"99.5381032";"https://maps.google.com/?cid=0x0:0x83dd4a5c660ae048";""
"building materials";"Toko Bahan Bangunan";"UD YUSUF JAYA MANDIRI";"RHRC+VH4, Jl. Raja Junjungan Lubis, Pidoli Dolok, Kec. Panyabungan, Kabupaten Mandailing Natal, Sumatera Utara";"Kabupaten Mandailing Natal, Sumatera Utara";"SUMATERA UTARA";"";"Indonesia";"";"";"";"0.842126";"99.5714599";"https://maps.google.com/?cid=0x0:0x704674228d059b31";""
"building materials";"Produsen";"CV. Mitra Utama";"Jl. Willem Iskandar No.153-A, Parbangunan, Kec. Panyabungan, Kabupaten Mandailing Natal, Sumatera Utara 22911";"Parbangunan, Kec. Panyabungan, Kabupaten Mandailing Natal";"SUMATERA UTARA";"22911";"Indonesia";" 08116223101";"";"";"0.8101537";"99.5705884";"https://maps.google.com/?cid=0x0:0xcc36a3a3326b8f3d";""
"building materials";"Toko Bahan Bangunan";"TOKO BANGUNAN/MATERIAL SINAR WAJA MANDIRI";"Jl. Willem Iskandar No.1, Panyabungan III, Kec. Panyabungan, Kabupaten Mandailing Natal, Sumatera Utara 22913";"Panyabungan III, Kec. Panyabungan, Kabupaten Mandailing Natal";"SUMATERA UTARA";"22913";"Indonesia";" 081264044470";"";"";"0.8610671";"99.5631367";"https://maps.google.com/?cid=0x0:0x7c18789978b7c4db";""
"building materials";"Toko Bahan Bangunan";"toko bangunan usaha oloan";"Jl. Trans Sumatera Bukittinggi - Padang Sidempuan No.25, Gn. Tua Tonga, Kec. Panyabungan, Kabupaten Mandailing Natal, Sumatera Utara 22976";"Gn. Tua Tonga, Kec. Panyabungan, Kabupaten Mandailing Natal";"SUMATERA UTARA";"22976";"Indonesia";"";"";"";"0.8845168";"99.5605862";"https://maps.google.com/?cid=0x0:0x38dce341a85d1151";""
"building materials";"Toko Kaca >>u0026 Cermin";"Hana glass dan alumanium";"Banjar saba ujung, Ps. Hilir, Kec. Panyabungan, Kabupaten Mandailing Natal, Sumatera Utara 22919";"Ps. Hilir, Kec. Panyabungan, Kabupaten Mandailing Natal";"SUMATERA UTARA";"22919";"Indonesia";" 085275794444";"";"";"0.8606191";"99.5594452";"https://maps.google.com/?cid=0x0:0x7a3cb1778e461c2f";""
"building materials";"Toko Bahan Bangunan";"UD.PUTRA BAHRAN TANOBATO";"Jl. Lintas Natal No.Kel, Tano Bato, Kec. Panyabungan Sel., Kabupaten Mandailing Natal, Sumatera Utara 22994";"Tano Bato, Kec. Panyabungan Sel., Kabupaten Mandailing Natal";"SUMATERA UTARA";"22994";"Indonesia";"";"";"";"0.7423196";"99.5544282";"https://maps.google.com/?cid=0x0:0x51d50c685a364eff";""
"building materials";"Toko Bahan Bangunan";"UD. BERKAH";"PHJ8+43J, Unnamed Road, Huta Raja, Kec. Panyabungan Sel., Kabupaten Mandailing Natal, Sumatera Utara 22994";"Unnamed Road, Huta Raja, Kec. Panyabungan Sel., Kabupaten Mandailing Natal";"SUMATERA UTARA";"22994";"Indonesia";" 081218728057";"";"";"0.7303418";"99.5651395";"https://maps.google.com/?cid=0x0:0xcc42f8d81d56e303";""
"building materials";"Toko Bahan Bangunan";"UD. TOR ROBURAN";"Roburan Lombang, Kec. Panyabungan Sel., Kabupaten Mandailing Natal, Sumatera Utara 22952";"Kec. Panyabungan Sel., Kabupaten Mandailing Natal";"SUMATERA UTARA";"22952";"Indonesia";" 081260364823";"";"";"0.7566596";"99.5469786";"https://maps.google.com/?cid=0x0:0x3f8fc4ee76ad6424";""
"building materials";"Toko Bahan Bangunan";"Putra Nasution";"VHH6+5FR, JL Merdeka, Kayu Jati, Madina, Panggorengan, Pengayuban, Kabupaten Mandailing Natal, Sumatera Utara 22976";"JL Merdeka, Kayu Jati, Madina, Panggorengan, Pengayuban, Kabupaten Mandailing Natal";"SUMATERA UTARA";"22976";"Indonesia";" 082360236210";"";"";"0.877979";"99.5611365";"https://maps.google.com/?cid=0x0:0x50283504522d46a6";""
"building materials";"Kontraktor Umum";"RAST";"Hutabargot, Kec. Panyabungan, Sumatera Utara 22978";"Kec. Panyabungan";"SUMATERA UTARA";"22978";"Indonesia";" 082267313298";"";"";"0.887846";"99.51016";"https://maps.google.com/?cid=0x0:0xfbf120f66ee51adf";""
"building materials";"building materials";"Sumatera Utara 22916";"Kec. Panyabungan, Kabupaten Mandailing Natal, Sumatera Utara";"Kabupaten Mandailing Natal, Sumatera Utara";"SUMATERA UTARA";"";"Indonesia";"";"";"";"0.8482391";"99.6313512";"https://maps.google.com/?cid=0x0:0x981a807b3fccf9fa";""
"building materials";"Toko Bahan Bangunan";"Madina steel";"RHXC+9QC, Jl. Lintas Timur, Sipolu Polu, Kec. Panyabungan, Kabupaten Mandailing Natal, Sumatera Utara";"Kabupaten Mandailing Natal, Sumatera Utara";"SUMATERA UTARA";"";"Indonesia";" 082267313298";"";"";"0.8484321";"99.5719042";"https://maps.google.com/?cid=0x0:0xbb8424ccaa9cfc";""
"building materials";"Toko Bahan Bangunan";"Usaha Lubis";"Penyabungan, Jl. Willem Iskandar No.64, Panyabungan II, Kec. Panyabungan, Kabupaten Mandailing Natal, Sumatera Utara 22976";"Jl. Willem Iskandar No.64, Panyabungan II, Kec. Panyabungan, Kabupaten Mandailing Natal";"SUMATERA UTARA";"22976";"Indonesia";"";"";"";"0.8588128";"99.5627589";"https://maps.google.com/?cid=0x0:0x70f5a4817d2d1ad2";""
"building materials";"Toko Bahan Bangunan";"UD. Akbar Bangunan / Akbar Safety panyabungan";"Desa, Hutarimbaru, Kec. Panyabungan Sel., Kabupaten Mandailing Natal, Sumatera Utara 22994";"Hutarimbaru, Kec. Panyabungan Sel., Kabupaten Mandailing Natal";"SUMATERA UTARA";"22994";"Indonesia";" 081362929907";"";"";"0.7442233";"99.5561863";"https://maps.google.com/?cid=0x0:0xf9f9137c9ac13cbb";""
"building materials";"Toko Bahan Bangunan";"UD. H.Rohmatulloh Rangkuti";"Jl. Trans Sumatera Bukittinggi - Padang Sidempuan, Aek Lapan, Kec. Panyabungan, Kabupaten Mandailing Natal, Sumatera Utara 22977";"Aek Lapan, Kec. Panyabungan, Kabupaten Mandailing Natal";"SUMATERA UTARA";"22977";"Indonesia";" 081260207870";"";"";"0.8486723";"99.562532";"https://maps.google.com/?cid=0x0:0x4373c04c4a112e32";""
"building materials";"";"Toko Bangunan Subur Jaya";"VH54+G6X, Jl. Sibaroar, Panyabungan Julu, Kec. Panyabungan, Kabupaten Mandailing Natal, Sumatera Utara 22977";"Jl. Sibaroar, Panyabungan Julu, Kec. Panyabungan, Kabupaten Mandailing Natal";"SUMATERA UTARA";"22977";"Indonesia";"";"";"";"0.8588563";"99.5556092";"https://maps.google.com/?cid=0x0:0xa4365124a42d24fe";""
"building materials";"Produsen";"CV. Mitra Utama";"Jl. Willem Iskandar No.153-A, Parbangunan, Kec. Panyabungan, Kabupaten Mandailing Natal, Sumatera Utara 22911";"Parbangunan, Kec. Panyabungan, Kabupaten Mandailing Natal";"SUMATERA UTARA";"22911";"Indonesia";" 08116223101";"";"";"0.8101537";"99.5705884";"https://maps.google.com/?cid=0x0:0xcc36a3a3326b8f3d";""
"building materials";"Toko";"Ud.batu bara";"Jl. Trans Sumatera Bukittinggi - Padang Sidempuan No.50, Mompang Jae, Kec. Panyabungan Utara, Kabupaten Mandailing Natal, Sumatera Utara 22976";"Mompang Jae, Kec. Panyabungan Utara, Kabupaten Mandailing Natal";"SUMATERA UTARA";"22976";"Indonesia";" 081370643241";"";"";"0.9181221";"99.5246481";"https://maps.google.com/?cid=0x0:0xae893bd80dfb8ce9";""
"building materials";"Kantor Perusahaan";"Semen Padang";"RHQ7+F32, Pidoli Dolok, Kec. Panyabungan, Kabupaten Mandailing Natal, Sumatera Utara 22977";"Pidoli Dolok, Kec. Panyabungan, Kabupaten Mandailing Natal";"SUMATERA UTARA";"22977";"Indonesia";"";"";"";"0.8386451";"99.5626554";"https://maps.google.com/?cid=0x0:0xba15939a94a70863";""
"building materials";"Toko Bahan Bangunan";"Ud.Bakti Jaya Baru";"QHMJ+R2V, Jl. Trans Sumatera Bukittinggi - Padang Sidempuan, Parbangunan, Kec. Panyabungan, Kabupaten Mandailing Natal, Sumatera Utara 22952";"Jl. Trans Sumatera Bukittinggi - Padang Sidempuan, Parbangunan, Kec. Panyabungan, Kabupaten Mandailing Natal";"SUMATERA UTARA";"22952";"Indonesia";"";"";"";"0.7846286";"99.5801051";"https://maps.google.com/?cid=0x0:0xbe71fb596581db6b";""
"building materials";"Toko Bahan Bangunan";"Jayaboard";"Jl. Willem Iskandar No.225, Pidoli Dolok, Kec. Panyabungan, Kabupaten Mandailing Natal, Sumatera Utara 22977";"Pidoli Dolok, Kec. Panyabungan, Kabupaten Mandailing Natal";"SUMATERA UTARA";"22977";"Indonesia";"";"";"";"0.8514958";"99.562422";"https://maps.google.com/?cid=0x0:0x7abd6810efd3ec4b";""
"building materials";"Toko Bahan Bangunan";"UD YUSUF JAYA MANDIRI";"RHRC+VH4, Jl. Raja Junjungan Lubis, Pidoli Dolok, Kec. Panyabungan, Kabupaten Mandailing Natal, Sumatera Utara";"Kabupaten Mandailing Natal, Sumatera Utara";"SUMATERA UTARA";"";"Indonesia";"";"";"";"0.842126";"99.5714599";"https://maps.google.com/?cid=0x0:0x704674228d059b31";""
"building materials";"Toko Bahan Bangunan";"TOKO MADINA BAJA";"QHFH+VJC, Purba Baru, Kec. Lembah Sorik Marapi, Kabupaten Mandailing Natal, Sumatera Utara 22952";"Purba Baru, Kec. Lembah Sorik Marapi, Kabupaten Mandailing Natal";"SUMATERA UTARA";"22952";"Indonesia";" 081360095448";"";"";"0.7746936";"99.5790012";"https://maps.google.com/?cid=0x0:0xfa3e945f08a2a73b";""
"building materials";"Toko Bahan Bangunan";"toko bangunan usaha oloan";"Jl. Trans Sumatera Bukittinggi - Padang Sidempuan No.25, Gn. Tua Tonga, Kec. Panyabungan, Kabupaten Mandailing Natal, Sumatera Utara 22976";"Gn. Tua Tonga, Kec. Panyabungan, Kabupaten Mandailing Natal";"SUMATERA UTARA";"22976";"Indonesia";"";"";"";"0.8845168";"99.5605862";"https://maps.google.com/?cid=0x0:0x38dce341a85d1151";""
"building materials";"Toko Bahan Bangunan";"Putra Nasution";"VHH6+5FR, JL Merdeka, Kayu Jati, Madina, Panggorengan, Pengayuban, Kabupaten Mandailing Natal, Sumatera Utara 22976";"JL Merdeka, Kayu Jati, Madina, Panggorengan, Pengayuban, Kabupaten Mandailing Natal";"SUMATERA UTARA";"22976";"Indonesia";" 082360236210";"";"";"0.877979";"99.5611365";"https://maps.google.com/?cid=0x0:0x50283504522d46a6";""
"building materials";"Toko Bahan Bangunan";"UD.Mandiri Jaya";"VH3C+G42, Jl. Lintas Timur, Darussalam, Kec. Panyabungan, Kabupaten Mandailing Natal, Sumatera Utara 22976";"Jl. Lintas Timur, Darussalam, Kec. Panyabungan, Kabupaten Mandailing Natal";"SUMATERA UTARA";"22976";"Indonesia";" 087838677823";"";"";"0.8537665";"99.5702532";"https://maps.google.com/?cid=0x0:0xc9d842e0419c794d";""
"building materials";"Toko Bahan Bangunan";"UD. BERKAH";"PHJ8+43J, Unnamed Road, Huta Raja, Kec. Panyabungan Sel., Kabupaten Mandailing Natal, Sumatera Utara 22994";"Unnamed Road, Huta Raja, Kec. Panyabungan Sel., Kabupaten Mandailing Natal";"SUMATERA UTARA";"22994";"Indonesia";" 081218728057";"";"";"0.7303418";"99.5651395";"https://maps.google.com/?cid=0x0:0xcc42f8d81d56e303";""
"building materials";"Kontraktor Umum";"RAST";"Hutabargot, Kec. Panyabungan, Sumatera Utara 22978";"Kec. Panyabungan";"SUMATERA UTARA";"22978";"Indonesia";" 082267313298";"";"";"0.887846";"99.51016";"https://maps.google.com/?cid=0x0:0xfbf120f66ee51adf";""
"building materials";"Toko Bahan Bangunan";"Toko bangunan Ivan";"2G44+XGM, Huraba I, Kec. Siabu, Kabupaten Mandailing Natal, Sumatera Utara 22976";"Huraba I, Kec. Siabu, Kabupaten Mandailing Natal";"SUMATERA UTARA";"22976";"Indonesia";"";"";"";"1.007469";"99.506308";"https://maps.google.com/?cid=0x0:0xafc55eb4edf24a32";""
"building materials";"Toko Bahan Bangunan";"CV. Ilham";"VHR4+7G9 Sin Tua, Madina, Jl. Lintas Medan Padang, Lumban Pasir, Penyabungan, Kabupaten Mandailing Natal, Sumatera Utara 22976";"Madina, Jl. Lintas Medan Padang, Lumban Pasir, Penyabungan, Kabupaten Mandailing Natal";"SUMATERA UTARA";"22976";"Indonesia";" 082370800800";"";"";"0.890662";"99.5563565";"https://maps.google.com/?cid=0x0:0x4a16f60173552e42";""
"building materials";"Toko Bahan Bangunan";"UD.PUTRA BAHRAN TANOBATO";"Jl. Lintas Natal No.Kel, Tano Bato, Kec. Panyabungan Sel., Kabupaten Mandailing Natal, Sumatera Utara 22994";"Tano Bato, Kec. Panyabungan Sel., Kabupaten Mandailing Natal";"SUMATERA UTARA";"22994";"Indonesia";"";"";"";"0.7423196";"99.5544282";"https://maps.google.com/?cid=0x0:0x51d50c685a364eff";""
"building materials";"Toko Bahan Bangunan";"UD. MY wan";"WG5Q+26Q, jln. padang, mompang julu, panyabungan, Mompang Julu, Kec. Panyabungan Utara, Kota Medan, Sumatera Utara 22976";"jln. padang, mompang julu, panyabungan, Mompang Julu, Kec. Panyabungan Utara, Kota Medan";"SUMATERA UTARA";"22976";"Indonesia";" 081286497634";"";"";"0.9075771";"99.5381032";"https://maps.google.com/?cid=0x0:0x83dd4a5c660ae048";""
"building materials";"Toko Bahan Bangunan";"CP. Citra Populer";"JL W. Iskandar, No. 82 D, Mandailing Natal, Panyabungan II, Penyabungan, Kabupaten Mandailing Natal, Sumatera Utara 22976";"No. 82 D, Mandailing Natal, Panyabungan II, Penyabungan, Kabupaten Mandailing Natal";"SUMATERA UTARA";"22976";"Indonesia";" 082375547879";"";"";"0.858048";"99.5627559";"https://maps.google.com/?cid=0x0:0xbdf8de21f9bbe6a5";""
"building materials";"Toko Bahan Bangunan";"Ud. Karya indah";"RHC8+CJR, Jl. Trans Sumatera Bukittinggi - Padang Sidempuan, Parbangunan, Kec. Panyabungan, Kabupaten Mandailing Natal, Sumatera Utara 22977";"Jl. Trans Sumatera Bukittinggi - Padang Sidempuan, Parbangunan, Kec. Panyabungan, Kabupaten Mandailing Natal";"SUMATERA UTARA";"22977";"Indonesia";"";"";"";"0.8211128";"99.5665125";"https://maps.google.com/?cid=0x0:0x2d993ab0ef78a104";""
"building materials";"Toko Bahan Bangunan";"UD. Harapan Jaya";"VH36+6XQ, Jl. Willem Iskandar, Pidoli Dolok, Kec. Panyabungan, Kabupaten Mandailing Natal, Sumatera Utara 22977";"Jl. Willem Iskandar, Pidoli Dolok, Kec. Panyabungan, Kabupaten Mandailing Natal";"SUMATERA UTARA";"22977";"Indonesia";" 0636321718";"";"";"0.8530944";"99.5624875";"https://maps.google.com/?cid=0x0:0xd4232eeaf1bad654";""
"building materials";"Toko Bahan Bangunan";"UD. TOR ROBURAN";"Roburan Lombang, Kec. Panyabungan Sel., Kabupaten Mandailing Natal, Sumatera Utara 22952";"Kec. Panyabungan Sel., Kabupaten Mandailing Natal";"SUMATERA UTARA";"22952";"Indonesia";" 081260364823";"";"";"0.7566596";"99.5469786";"https://maps.google.com/?cid=0x0:0x3f8fc4ee76ad6424";""
"building materials";"Toko Bahan Bangunan";"UD SINAR WAJA";"VH67+X82, Jl. Trans Sumatera Bukittinggi - Padang Sidempuan, Panyabungan II, Kec. Panyabungan, Kabupaten Mandailing Natal, Sumatera Utara 22976";"Jl. Trans Sumatera Bukittinggi - Padang Sidempuan, Panyabungan II, Kec. Panyabungan, Kabupaten Mandailing Natal";"SUMATERA UTARA";"22976";"Indonesia";"";"";"";"0.8623868";"99.563257";"https://maps.google.com/?cid=0x0:0x1c17c9de8622ff12";""
"building materials";"building materials";"Sumatera Utara 22917";"Aek Mata, Kec. Panyabungan, Kabupaten Mandailing Natal, Sumatera Utara";"Kabupaten Mandailing Natal, Sumatera Utara";"SUMATERA UTARA";"";"Indonesia";"";"";"";"0.8541302";"99.6243919";"https://maps.google.com/?cid=0x0:0x1aae0425df42867b";""
"building materials";"Toko Bahan Bangunan";"Madina steel";"RHXC+9QC, Jl. Lintas Timur, Sipolu Polu, Kec. Panyabungan, Kabupaten Mandailing Natal, Sumatera Utara";"Kabupaten Mandailing Natal, Sumatera Utara";"SUMATERA UTARA";"";"Indonesia";" 082267313298";"";"";"0.8484321";"99.5719042";"https://maps.google.com/?cid=0x0:0xbb8424ccaa9cfc";""
"building materials";"Toko Bahan Bangunan";"Usaha Lubis";"Penyabungan, Jl. Willem Iskandar No.64, Panyabungan II, Kec. Panyabungan, Kabupaten Mandailing Natal, Sumatera Utara 22976";"Jl. Willem Iskandar No.64, Panyabungan II, Kec. Panyabungan, Kabupaten Mandailing Natal";"SUMATERA UTARA";"22976";"Indonesia";"";"";"";"0.8588128";"99.5627589";"https://maps.google.com/?cid=0x0:0x70f5a4817d2d1ad2";""
