Category;Real Category;Business Name;Address;City;State;Postal Code;Country;Phone;Latitude;Longitude;Map Link
"mall";"Toko";"Kios Cahaya Mamori";"7R87+325, Ansus, Yapen Bar., Kabupaten Kepulauan Yapen, Papua";"Kabupaten Kepulauan Yapen, Papua";"PAPUA";"";"Indonesia";"";"-1.734862";"135.8126108";"https://maps.google.com/?cid=0x0:0x905276bd07ff2cda"
"mall";"Kios";"Kios anugrah";"469H+44V, Banawa, Kec. Yapen Sel., Kabupaten Kepulauan Yapen, Papua 98215";"Banawa, Kec. Yapen Sel., Kabupaten Kepulauan Yapen";"PAPUA";"98215";"Indonesia";"";"-1.8821162";"136.2280095";"https://maps.google.com/?cid=0x0:0x631e2f7de5d1f6a4"
"mall";"mall";"Papua 98253";"Kabupaten Kepulauan Yapen, Papua";"Kabupaten Kepulauan Yapen, Papua";"PAPUA";"";"Indonesia";"";"-1.692705";"135.7710559";"https://maps.google.com/?cid=0x0:0xe712ef09824c8ae8"
"mall";"Pusat Perbelanjaan";"Mall Of Indonesia";"Jl. Boulevard Bar. Raya No.12, RT.18/RW.19, Klp. Gading Bar., Kec. Klp. Gading, Jkt Utara, Daerah Khusus Ibukota Jakarta 14240";"RT.18/RW.19, Klp. Gading Bar., Kec. Klp. Gading, Jkt Utara";"PAPUA";"14240";"Indonesia";" 02145867888";"-6.1514549";"106.8918949";"https://maps.google.com/?cid=0x0:0x3431c7aaadd1f1b6"
"mall";"Pusat Perbelanjaan";"Vision City Mega Mall";"Lot 7, 8  9, Section 429, 131 National Capital District, Waigani Dr, Port Moresby, Papua Nugini";"Port Moresby, Papua Nugini";"PAPUA";"";"Indonesia";" +6753028555";"-9.4384023";"147.1810598";"https://maps.google.com/?cid=0x0:0x6b6056559e073ba7"
"mall";"Pusat Perbelanjaan";"Moi";"Klp. Gading Trade Centre, Jl. Pulau Putri No.2 2, RT.2/RW.9, Klp. Gading Bar., Kec. Klp. Gading, Jkt Utara, Daerah Khusus Ibukota Jakarta 14240";"Jl. Pulau Putri No.2 2, RT.2/RW.9, Klp. Gading Bar., Kec. Klp. Gading, Jkt Utara";"PAPUA";"14240";"Indonesia";"";"-6.1508529";"106.8921366";"https://maps.google.com/?cid=0x0:0xbfa0759132a66681"
"mall";"Mi";"BAKMI AYAM HONEY";"RVXR+WFH, Jl. Boulevard Bar. Raya, RT.18/RW.8, Klp. Gading Bar., Kec. Klp. Gading, Jkt Utara, Daerah Khusus Ibukota Jakarta 14240";"Jl. Boulevard Bar. Raya, RT.18/RW.8, Klp. Gading Bar., Kec. Klp. Gading, Jkt Utara";"PAPUA";"14240";"Indonesia";" 02124521987";"-6.1501981";"106.8912349";"https://maps.google.com/?cid=0x0:0x408854199cbd835b"
"mall";"Toko Ponsel";"Samsung Service Center MOI";"Mall Of Indonesia, HATI HATI PENIPUAN MENGATASNAMAKAN SAMSUNG SERVICE CENTER, TIDAK MENERIMA PEMBAYARAN DP MELALUI TRANSFER, Jl. Boulevard Bar. Raya Lt. 2 No. A1, RT.18/RW.8, Jkt Utara, Daerah Khusus Ibukota Jakarta 14240";"HATI HATI PENIPUAN MENGATASNAMAKAN SAMSUNG SERVICE CENTER, TIDAK MENERIMA PEMBAYARAN DP MELALUI TRANSFER, Jl. Boulevard Bar. Raya Lt. 2 No. A1, RT.18/RW.8, Jkt Utara";"PAPUA";"14240";"Indonesia";" 08001128888";"-6.1506741";"106.8908571";"https://maps.google.com/?cid=0x0:0xf9ffd563ffc48382"
"mall";"China";"Din Tai Fung";"Mall Of Indonesia, Jl. Boulevard Bar. Raya ground floor, West Kelapa Gading, Square, North Jakarta City, Jakarta 14240";"Jl. Boulevard Bar. Raya ground floor, West Kelapa Gading, Square, North Jakarta City";"PAPUA";"14240";"Indonesia";" 02145868001";"-6.1506741";"106.8908571";"https://maps.google.com/?cid=0x0:0x3fe132ac0363f566"
"mall";"Pusat Perbelanjaan";"MOI Kelapa Gading";"Mall Of Indonesia, Jl. Boulevard Bar. Raya Lt. 2, RT.18/RW.8, Klp. Gading Bar., Kec. Klp. Gading, Jkt Utara, Daerah Khusus Ibukota Jakarta 14240";"Jl. Boulevard Bar. Raya Lt. 2, RT.18/RW.8, Klp. Gading Bar., Kec. Klp. Gading, Jkt Utara";"PAPUA";"14240";"Indonesia";" 081217393609";"-6.1506741";"106.8908571";"https://maps.google.com/?cid=0x0:0x11e13e124ce7f530"
"mall";"mall";"Papua 98254";"Kabupaten Kepulauan Yapen, Papua";"Kabupaten Kepulauan Yapen, Papua";"PAPUA";"";"Indonesia";"";"-1.668696";"135.9229866";"https://maps.google.com/?cid=0x0:0x786984f83d38aaec"
"mall";"Pusat Perbelanjaan";"Wamena Mall";"WW4W+JH7, Wamena Kota, Distrik Wamena, Kabupaten Jayawijaya, Papua 99511";"Wamena Kota, Distrik Wamena, Kabupaten Jayawijaya";"PAPUA";"99511";"Indonesia";" 081356954606";"-4.0934521";"138.9464176";"https://maps.google.com/?cid=0x0:0x99f90a37cc207474"
"mall";"Pusat Perbelanjaan";"Mall Jayapura";"APO, Jl. Samratulangi, Bayangkara, Kec. Jayapura Utara, Kota Jayapura, Papua 99112";"Jl. Samratulangi, Bayangkara, Kec. Jayapura Utara, Kota Jayapura";"PAPUA";"99112";"Indonesia";" 09675150000";"-2.5351775";"140.7061874";"https://maps.google.com/?cid=0x0:0x54294cb27964023"
"mall";"Pusat Perbelanjaan";"Mall Of Indonesia";"Jl. Boulevard Bar. Raya No.12, RT.18/RW.19, Klp. Gading Bar., Kec. Klp. Gading, Jkt Utara, Daerah Khusus Ibukota Jakarta 14240";"RT.18/RW.19, Klp. Gading Bar., Kec. Klp. Gading, Jkt Utara";"PAPUA";"14240";"Indonesia";" 02145867888";"-6.1514549";"106.8918949";"https://maps.google.com/?cid=0x0:0x3431c7aaadd1f1b6"
"mall";"Pusat Perbelanjaan";"Mall Senayan City";"Jl. Asia Afrika No.Lot 19, Gelora, Kecamatan Tanah Abang, Kota Jakarta Pusat, Daerah Khusus Ibukota Jakarta 10270";"Gelora, Kecamatan Tanah Abang, Kota Jakarta Pusat";"PAPUA";"10270";"Indonesia";" 02172781000";"-6.2271953";"106.7970117";"https://maps.google.com/?cid=0x0:0x300c043104acc004"
"mall";"Pusat Perbelanjaan";"MOI Kelapa Gading";"Mall Of Indonesia, Jl. Boulevard Bar. Raya Lt. 2, RT.18/RW.8, Klp. Gading Bar., Kec. Klp. Gading, Jkt Utara, Daerah Khusus Ibukota Jakarta 14240";"Jl. Boulevard Bar. Raya Lt. 2, RT.18/RW.8, Klp. Gading Bar., Kec. Klp. Gading, Jkt Utara";"PAPUA";"14240";"Indonesia";" 081217393609";"-6.1506741";"106.8908571";"https://maps.google.com/?cid=0x0:0x11e13e124ce7f530"
"mall";"Pusat Perbelanjaan";"Grand Indonesia Shopping Town";"Jl. M.H. Thamrin No.1, Menteng, Kec. Menteng, Kota Jakarta Pusat, Daerah Khusus Ibukota Jakarta 10310";"Menteng, Kec. Menteng, Kota Jakarta Pusat";"PAPUA";"10310";"Indonesia";" 02123580001";"-6.1965848";"106.8224882";"https://maps.google.com/?cid=0x0:0xccfcc89b95aaf1ae"
"mall";"Pusat Perbelanjaan";"Grand Galaxy Park";"Jl. Boulevard Raya No.1, RT.003/RW.017, Jaka Setia, Kec. Bekasi Sel., Kota Bks, Jawa Barat 17147";"RT.003/RW.017, Jaka Setia, Kec. Bekasi Sel., Kota Bks";"PAPUA";"17147";"Indonesia";" 02129613300";"-6.2706285";"106.9722969";"https://maps.google.com/?cid=0x0:0x4718498e43c68e02"
"mall";"Toko";"Kios Cahaya Mamori";"7R87+325, Ansus, Yapen Bar., Kabupaten Kepulauan Yapen, Papua";"Kabupaten Kepulauan Yapen, Papua";"PAPUA";"";"Indonesia";"";"-1.734862";"135.8126108";"https://maps.google.com/?cid=0x0:0x905276bd07ff2cda"
"mall";"Pusat Perbelanjaan";"Vision City Mega Mall";"Lot 7, 8  9, Section 429, 131 National Capital District, Waigani Dr, Port Moresby, Papua Nugini";"Port Moresby, Papua Nugini";"PAPUA";"";"Indonesia";" +6753028555";"-9.4384023";"147.1810598";"https://maps.google.com/?cid=0x0:0x6b6056559e073ba7"
"mall";"Toko Pakaian";"kios sakinah";"6GR6+X6F, Maniwak, Distrik Wasior, Kabupaten Teluk Wondama, Papua Bar. 98362";"Maniwak, Distrik Wasior, Kabupaten Teluk Wondama";"PAPUA";"98362";"Indonesia";" 081248929981";"-2.7575732";"134.5105395";"https://maps.google.com/?cid=0x0:0xf53bdae468235c23"
"mall";"Toko";"Kios Putra Mamisi";"M5Q5+4QH, Jln Poros, Mamisi, Nikiwar, Teluk Wondama Regency, West Papua 98361";"Jln Poros, Mamisi, Nikiwar, Teluk Wondama Regency";"PAPUA";"98361";"Indonesia";" 081248626743";"-2.3121971";"134.1594701";"https://maps.google.com/?cid=0x0:0x70244aee4ee4814b"
"mall";"Kios";"Kios Mas Kuwat";"WPJC+983, Jl.Poros, Korano Jaya, Distrik Manimeri, Kabupaten Teluk Bintuni, Papua Bar. 98364";"Jl.Poros, Korano Jaya, Distrik Manimeri, Kabupaten Teluk Bintuni";"PAPUA";"98364";"Indonesia";" 082213231041";"-2.0691057";"133.7208052";"https://maps.google.com/?cid=0x0:0x195cce6cfee42a75"
"mall";"mall";"Distrik Windesi";"Kabupaten Kepulauan Yapen, Papua";"Kabupaten Kepulauan Yapen, Papua";"PAPUA";"";"Indonesia";"";"-1.6367572";"135.9138585";"https://maps.google.com/?cid=0x0:0x8754a512ec1018e7"
"mall";"Pusat Perbelanjaan";"Vision City Mega Mall";"Lot 7, 8  9, Section 429, 131 National Capital District, Waigani Dr, Port Moresby, Papua Nugini";"Port Moresby, Papua Nugini";"PAPUA";"";"Indonesia";" +6753028555";"-9.4384023";"147.1810598";"https://maps.google.com/?cid=0x0:0x6b6056559e073ba7"
"mall";"Toko bahan makanan";"Diana Supermarket";"Jl. Budi Utomo No.8, Kwamki, Kec. Mimika Baru, Kabupaten Mimika, Papua 99971";"Kwamki, Kec. Mimika Baru, Kabupaten Mimika";"PAPUA";"99971";"Indonesia";" 0901322829";"-4.5427693";"136.8837435";"https://maps.google.com/?cid=0x0:0x4cea28f7389f57e8"
"mall";"Pusat Perbelanjaan";"Timika Mall";"57522, Jl. Hasanuddin No.9, Nawaripi, Mimika Baru, Mimika Regency, Papua 99971";"Jl. Hasanuddin No.9, Nawaripi, Mimika Baru, Mimika Regency";"PAPUA";"99971";"Indonesia";"";"-4.5673682";"136.8869612";"https://maps.google.com/?cid=0x0:0x146edd1a60cab3dd"
"mall";"Pusat Perbelanjaan";"Mall Jayapura";"APO, Jl. Samratulangi, Bayangkara, Kec. Jayapura Utara, Kota Jayapura, Papua 99112";"Jl. Samratulangi, Bayangkara, Kec. Jayapura Utara, Kota Jayapura";"PAPUA";"99112";"Indonesia";" 09675150000";"-2.5351775";"140.7061874";"https://maps.google.com/?cid=0x0:0x54294cb27964023"
"mall";"Toko";"Kios Cahaya Mamori";"7R87+325, Ansus, Yapen Bar., Kabupaten Kepulauan Yapen, Papua";"Kabupaten Kepulauan Yapen, Papua";"PAPUA";"";"Indonesia";"";"-1.734862";"135.8126108";"https://maps.google.com/?cid=0x0:0x905276bd07ff2cda"
"mall";"Pusat Perbelanjaan";"Mall Of Indonesia";"Jl. Boulevard Bar. Raya No.12, RT.18/RW.19, Klp. Gading Bar., Kec. Klp. Gading, Jkt Utara, Daerah Khusus Ibukota Jakarta 14240";"RT.18/RW.19, Klp. Gading Bar., Kec. Klp. Gading, Jkt Utara";"PAPUA";"14240";"Indonesia";" 02145867888";"-6.1514549";"106.8918949";"https://maps.google.com/?cid=0x0:0x3431c7aaadd1f1b6"
"mall";"Pusat Perbelanjaan";"Moi";"Klp. Gading Trade Centre, Jl. Pulau Putri No.2 2, RT.2/RW.9, Klp. Gading Bar., Kec. Klp. Gading, Jkt Utara, Daerah Khusus Ibukota Jakarta 14240";"Jl. Pulau Putri No.2 2, RT.2/RW.9, Klp. Gading Bar., Kec. Klp. Gading, Jkt Utara";"PAPUA";"14240";"Indonesia";"";"-6.1508529";"106.8921366";"https://maps.google.com/?cid=0x0:0xbfa0759132a66681"
"mall";"Mi";"BAKMI AYAM HONEY";"RVXR+WFH, Jl. Boulevard Bar. Raya, RT.18/RW.8, Klp. Gading Bar., Kec. Klp. Gading, Jkt Utara, Daerah Khusus Ibukota Jakarta 14240";"Jl. Boulevard Bar. Raya, RT.18/RW.8, Klp. Gading Bar., Kec. Klp. Gading, Jkt Utara";"PAPUA";"14240";"Indonesia";" 02124521987";"-6.1501981";"106.8912349";"https://maps.google.com/?cid=0x0:0x408854199cbd835b"
"mall";"Toko Ponsel";"Samsung Service Center MOI";"Mall Of Indonesia, HATI HATI PENIPUAN MENGATASNAMAKAN SAMSUNG SERVICE CENTER, TIDAK MENERIMA PEMBAYARAN DP MELALUI TRANSFER, Jl. Boulevard Bar. Raya Lt. 2 No. A1, RT.18/RW.8, Jkt Utara, Daerah Khusus Ibukota Jakarta 14240";"HATI HATI PENIPUAN MENGATASNAMAKAN SAMSUNG SERVICE CENTER, TIDAK MENERIMA PEMBAYARAN DP MELALUI TRANSFER, Jl. Boulevard Bar. Raya Lt. 2 No. A1, RT.18/RW.8, Jkt Utara";"PAPUA";"14240";"Indonesia";" 08001128888";"-6.1506741";"106.8908571";"https://maps.google.com/?cid=0x0:0xf9ffd563ffc48382"
"mall";"China";"Din Tai Fung";"Mall Of Indonesia, Jl. Boulevard Bar. Raya ground floor, West Kelapa Gading, Square, North Jakarta City, Jakarta 14240";"Jl. Boulevard Bar. Raya ground floor, West Kelapa Gading, Square, North Jakarta City";"PAPUA";"14240";"Indonesia";" 02145868001";"-6.1506741";"106.8908571";"https://maps.google.com/?cid=0x0:0x3fe132ac0363f566"
"mall";"Pusat Perbelanjaan";"MOI Kelapa Gading";"Mall Of Indonesia, Jl. Boulevard Bar. Raya Lt. 2, RT.18/RW.8, Klp. Gading Bar., Kec. Klp. Gading, Jkt Utara, Daerah Khusus Ibukota Jakarta 14240";"Jl. Boulevard Bar. Raya Lt. 2, RT.18/RW.8, Klp. Gading Bar., Kec. Klp. Gading, Jkt Utara";"PAPUA";"14240";"Indonesia";" 081217393609";"-6.1506741";"106.8908571";"https://maps.google.com/?cid=0x0:0x11e13e124ce7f530"
"mall";"mall";"Distrik Pulau Kurudu";"Kabupaten Kepulauan Yapen, Papua";"Kabupaten Kepulauan Yapen, Papua";"PAPUA";"";"Indonesia";"";"-1.8369897";"137.0324636";"https://maps.google.com/?cid=0x0:0xa7a245ed4349075"
"mall";"mall";"Pulau Kurudu";"Distrik Pulau Kurudu, Kabupaten Kepulauan Yapen, Papua";"Kabupaten Kepulauan Yapen, Papua";"PAPUA";"";"Indonesia";"";"-1.8474739";"137.0145295";"https://maps.google.com/?cid=0x0:0xd793096ee0c6521c"
"mall";"Sekolah";"Miobo Kurudu";"5X3Q+GM5, Kaipuri, Distrik Pulau Kurudu, Kabupaten Kepulauan Yapen, Papua";"Kabupaten Kepulauan Yapen, Papua";"PAPUA";"";"Indonesia";"";"-1.8462274";"136.9892429";"https://maps.google.com/?cid=0x0:0x257ba1f4eeb02df3"
"mall";"mall";"Kec. Pulau Yerui";"Miosnum, Kabupaten Kepulauan Yapen, Papua";"Kabupaten Kepulauan Yapen, Papua";"PAPUA";"";"Indonesia";"";"-1.4878278";"135.3337148";"https://maps.google.com/?cid=0x0:0xf1f496c1e419df1f"
"supermarket";"supermarket";"Papua 98253";"Kabupaten Kepulauan Yapen, Papua";"Kabupaten Kepulauan Yapen, Papua";"PAPUA";"";"Indonesia";"";"-1.692705";"135.7710559";"https://maps.google.com/?cid=0x0:0xe712ef09824c8ae8"
"supermarket";"Toko Swalayan";"Hadi Supermarket";"Jl. Frans Kaisepo No.5, RT. 003/01, Warari, Kec. Yapen Sel., Kabupaten Kepulauan Yapen, Papua 98212";"RT. 003/01, Warari, Kec. Yapen Sel., Kabupaten Kepulauan Yapen";"PAPUA";"98212";"Indonesia";" 098334276";"-1.8751153";"136.2490809";"https://maps.google.com/?cid=0x0:0xf67310d4ed062031"
"supermarket";"Kios";"Kios badin ifin ansus";"Ansus, Yapen Bar., Kabupaten Kepulauan Yapen, Papua";"Kabupaten Kepulauan Yapen, Papua";"PAPUA";"";"Indonesia";" 082111119993";"-1.7350468";"135.8124378";"https://maps.google.com/?cid=0x0:0xfa40f79b754d1cc9"
"supermarket";"Minimarket";"Toko Kita";"46FQ+6F8, Serui Kota, Kec. Yapen Sel., Kabupaten Kepulauan Yapen, Papua 98213";"Serui Kota, Kec. Yapen Sel., Kabupaten Kepulauan Yapen";"PAPUA";"98213";"Indonesia";" 081216233268";"-1.8769662";"136.2386957";"https://maps.google.com/?cid=0x0:0x6dadbe6c18278b00"
"supermarket";"Toko Swalayan";"Kios Bayutra";"46HV+QC2, Jl. Nipah, Famboaman, Kec. Yapen Sel., Kabupaten Kepulauan Yapen, Papua 98213";"Jl. Nipah, Famboaman, Kec. Yapen Sel., Kabupaten Kepulauan Yapen";"PAPUA";"98213";"Indonesia";"";"-1.8706197";"136.2435076";"https://maps.google.com/?cid=0x0:0x7f73d770b8e46fe3"
"supermarket";"Minimarket";"Kios Reivank Serui Papua";"46CH+J9J, Mariaderi, Kec. Yapen Sel., Kabupaten Kepulauan Yapen, Papua 98215";"Mariaderi, Kec. Yapen Sel., Kabupaten Kepulauan Yapen";"PAPUA";"98215";"Indonesia";" 085399774433";"-1.8784184";"136.2284041";"https://maps.google.com/?cid=0x0:0xac2f3f2285f0aa72"
"supermarket";"Toko Swalayan";"Kios misbah";"47G2+2WW, Warari, Kec. Yapen Sel., Kabupaten Kepulauan Yapen, Papua 98212";"Warari, Kec. Yapen Sel., Kabupaten Kepulauan Yapen";"PAPUA";"98212";"Indonesia";" 081236974318";"-1.8748841";"136.2523177";"https://maps.google.com/?cid=0x0:0x76d55831a7e822b3"
"supermarket";"supermarket";"Itlay Mart";"5483+238, Ariepi, Distrik Kosiwo, Kabupaten Kepulauan Yapen, Papua";"Kabupaten Kepulauan Yapen, Papua";"PAPUA";"";"Indonesia";"";"-1.8349562";"136.102692";"https://maps.google.com/?cid=0x0:0x65d20003b6ac1214"
"supermarket";"Toko Roti";"Market Organic Yapan";"46XP+24R, Jalan Kawara Gang. Warmetan, Mantembu, Kec. Yapen Sel., Kabupaten Kepulauan Yapen, Papua 98631";"Jalan Kawara Gang. Warmetan, Mantembu, Kec. Yapen Sel., Kabupaten Kepulauan Yapen";"PAPUA";"98631";"Indonesia";"";"-1.852382";"136.2352585";"https://maps.google.com/?cid=0x0:0x881fdd5057a416e7"
"supermarket";"Kios";"Kios JM";"52MC+4HR, Mariarotu, Distrik Kosiwo, Kabupaten Kepulauan Yapen, Papua 98215";"Mariarotu, Distrik Kosiwo, Kabupaten Kepulauan Yapen";"PAPUA";"98215";"Indonesia";"";"-1.817137";"136.0213875";"https://maps.google.com/?cid=0x0:0x3649f86886b22872"
"supermarket";"Pasar";"Pasar lama";"5QG2+PWR, Dawai, Distrik Yapen Timur, Kabupaten Kepulauan Yapen, Papua 98252";"Dawai, Distrik Yapen Timur, Kabupaten Kepulauan Yapen";"PAPUA";"98252";"Indonesia";"";"-1.8231438";"136.752268";"https://maps.google.com/?cid=0x0:0x8d04c652f165d118"
"supermarket";"Pusat Perbelanjaan";"Papua Supermarket  Dept. Store";"4869+F77 Bar, Sawagumu, Kec. Sorong Utara, Kota Sorong, Papua Bar. 98416";"Sawagumu, Kec. Sorong Utara, Kota Sorong";"PAPUA";"98416";"Indonesia";" 09513160123";"-0.888831";"131.3181847";"https://maps.google.com/?cid=0x0:0x7b5f0926a74ad213"
"supermarket";"Pusat Perbelanjaan";"Kios Chivia";"9P7H+G3M, Rarisi, Distrik Poom, Kabupaten Kepulauan Yapen, Papua";"Kabupaten Kepulauan Yapen, Papua";"PAPUA";"";"Indonesia";"";"-1.6353186";"135.7269201";"https://maps.google.com/?cid=0x0:0xbc9ae246b1863f61"
"supermarket";"Toko Swalayan";"Warung Bengawan";"46FV+P8R, Famboaman, Kec. Yapen Sel., Kabupaten Kepulauan Yapen, Papua 98213";"Famboaman, Kec. Yapen Sel., Kabupaten Kepulauan Yapen";"PAPUA";"98213";"Indonesia";"";"-1.8756299";"136.2432738";"https://maps.google.com/?cid=0x0:0xb97e1ae151aefc8b"
"supermarket";"supermarket";"Papua 98211";"Kec. Yapen Sel., Kabupaten Kepulauan Yapen, Papua";"Kabupaten Kepulauan Yapen, Papua";"PAPUA";"";"Indonesia";"";"-1.7995067";"136.2570137";"https://maps.google.com/?cid=0x0:0xb2b850cfde1935fd"
"supermarket";"Toko Swalayan";"Hadi Supermarket";"Jl. Frans Kaisepo No.5, RT. 003/01, Warari, Kec. Yapen Sel., Kabupaten Kepulauan Yapen, Papua 98212";"RT. 003/01, Warari, Kec. Yapen Sel., Kabupaten Kepulauan Yapen";"PAPUA";"98212";"Indonesia";" 098334276";"-1.8751153";"136.2490809";"https://maps.google.com/?cid=0x0:0xf67310d4ed062031"
"supermarket";"supermarket";"Syafiq Mart";"Jl. Sudirman, Serui Kota, Kec. Yapen Sel., Kabupaten Kepulauan Yapen, Papua 98213";"Serui Kota, Kec. Yapen Sel., Kabupaten Kepulauan Yapen";"PAPUA";"98213";"Indonesia";" 085240966684";"-1.8725559";"136.2402621";"https://maps.google.com/?cid=0x0:0x7ca15fd1eb458c21"
"supermarket";"Toko umum";"Toko Asei";"46FJ+6HQ, Serui Kota, Kec. Yapen Sel., Kabupaten Kepulauan Yapen, Papua 98213";"Serui Kota, Kec. Yapen Sel., Kabupaten Kepulauan Yapen";"PAPUA";"98213";"Indonesia";" 098331468";"-1.8769217";"136.2314953";"https://maps.google.com/?cid=0x0:0x23f1218b85ff4904"
"supermarket";"Toko Buku";"Indah Pasaraya Serui Indah";"Jl. Moh. Yamin, Serui Kota, Kec. Yapen Sel., Kabupaten Kepulauan Yapen, Papua 98215";"Serui Kota, Kec. Yapen Sel., Kabupaten Kepulauan Yapen";"PAPUA";"98215";"Indonesia";"";"-1.8836014";"136.2384964";"https://maps.google.com/?cid=0x0:0x7d9f1453d5882191"
"supermarket";"Toko";"Toko Karya Kurnia";"46FV+HC3, Jl. Frans Kaisepo, Famboaman, Kec. Yapen Sel., Kabupaten Kepulauan Yapen, Papua 98213";"Jl. Frans Kaisepo, Famboaman, Kec. Yapen Sel., Kabupaten Kepulauan Yapen";"PAPUA";"98213";"Indonesia";"";"-1.8761003";"136.2435369";"https://maps.google.com/?cid=0x0:0x15eeffbb0bc54406"
"supermarket";"Kantor Perusahaan";"Pelni Mart Cabang Serui";"Serui Kota, Kec. Yapen Sel., Kabupaten Kepulauan Yapen, Papua 98213";"Kec. Yapen Sel., Kabupaten Kepulauan Yapen";"PAPUA";"98213";"Indonesia";" 081318882144";"-1.8792675";"136.2398941";"https://maps.google.com/?cid=0x0:0xae4233eff62aaa62"
"supermarket";"Toko";"Toko Merpati";"467Q+WFV, Jl. Moh. Yamin, Pasir Hitam, Kec. Yapen Sel., Kabupaten Kepulauan Yapen, Papua 98215";"Jl. Moh. Yamin, Pasir Hitam, Kec. Yapen Sel., Kabupaten Kepulauan Yapen";"PAPUA";"98215";"Indonesia";"";"-1.8851497";"136.238664";"https://maps.google.com/?cid=0x0:0xe5cb342ce69ffec0"
"supermarket";"Minimarket";"Toko Kita";"46FQ+6F8, Serui Kota, Kec. Yapen Sel., Kabupaten Kepulauan Yapen, Papua 98213";"Serui Kota, Kec. Yapen Sel., Kabupaten Kepulauan Yapen";"PAPUA";"98213";"Indonesia";" 081216233268";"-1.8769662";"136.2386957";"https://maps.google.com/?cid=0x0:0x6dadbe6c18278b00"
"supermarket";"Toko bahan makanan";"Kios begadang 24 jam";"46JQ+5JM, Anatorei, Kec. Yapen Sel., Kabupaten Kepulauan Yapen, Papua 98213";"Anatorei, Kec. Yapen Sel., Kabupaten Kepulauan Yapen";"PAPUA";"98213";"Indonesia";" 082311989580";"-1.8694763";"136.2390277";"https://maps.google.com/?cid=0x0:0x42b22336b76fc1fc"
"supermarket";"Toko Swalayan";"Kios misbah";"47G2+2WW, Warari, Kec. Yapen Sel., Kabupaten Kepulauan Yapen, Papua 98212";"Warari, Kec. Yapen Sel., Kabupaten Kepulauan Yapen";"PAPUA";"98212";"Indonesia";" 081236974318";"-1.8748841";"136.2523177";"https://maps.google.com/?cid=0x0:0x76d55831a7e822b3"
"supermarket";"Toko Swalayan";"Kios Bayutra";"46HV+QC2, Jl. Nipah, Famboaman, Kec. Yapen Sel., Kabupaten Kepulauan Yapen, Papua 98213";"Jl. Nipah, Famboaman, Kec. Yapen Sel., Kabupaten Kepulauan Yapen";"PAPUA";"98213";"Indonesia";"";"-1.8706197";"136.2435076";"https://maps.google.com/?cid=0x0:0x7f73d770b8e46fe3"
"supermarket";"Minimarket";"Kios Reivank Serui Papua";"46CH+J9J, Mariaderi, Kec. Yapen Sel., Kabupaten Kepulauan Yapen, Papua 98215";"Mariaderi, Kec. Yapen Sel., Kabupaten Kepulauan Yapen";"PAPUA";"98215";"Indonesia";" 085399774433";"-1.8784184";"136.2284041";"https://maps.google.com/?cid=0x0:0xac2f3f2285f0aa72"
"supermarket";"Toko";"Kios Ewani Indah";"47F2+XRV, Jl. Ke Menawi, Warari, Kec. Yapen Sel., Kabupaten Kepulauan Yapen, Papua 98212";"Jl. Ke Menawi, Warari, Kec. Yapen Sel., Kabupaten Kepulauan Yapen";"PAPUA";"98212";"Indonesia";"";"-1.8750247";"136.2520517";"https://maps.google.com/?cid=0x0:0x42500bb7b23ff428"
"supermarket";"supermarket";"Papua 98212";"Warari, Kec. Yapen Sel., Kabupaten Kepulauan Yapen, Papua";"Kabupaten Kepulauan Yapen, Papua";"PAPUA";"";"Indonesia";"";"-1.8764518";"136.2546196";"https://maps.google.com/?cid=0x0:0x297f020ff7113bd"
"supermarket";"supermarket";"Syafiq Mart";"Jl. Sudirman, Serui Kota, Kec. Yapen Sel., Kabupaten Kepulauan Yapen, Papua 98213";"Serui Kota, Kec. Yapen Sel., Kabupaten Kepulauan Yapen";"PAPUA";"98213";"Indonesia";" 085240966684";"-1.8725559";"136.2402621";"https://maps.google.com/?cid=0x0:0x7ca15fd1eb458c21"
"supermarket";"Toko Swalayan";"Hadi Supermarket";"Jl. Frans Kaisepo No.5, RT. 003/01, Warari, Kec. Yapen Sel., Kabupaten Kepulauan Yapen, Papua 98212";"RT. 003/01, Warari, Kec. Yapen Sel., Kabupaten Kepulauan Yapen";"PAPUA";"98212";"Indonesia";" 098334276";"-1.8751153";"136.2490809";"https://maps.google.com/?cid=0x0:0xf67310d4ed062031"
"supermarket";"Toko Swalayan";"Kios misbah";"47G2+2WW, Warari, Kec. Yapen Sel., Kabupaten Kepulauan Yapen, Papua 98212";"Warari, Kec. Yapen Sel., Kabupaten Kepulauan Yapen";"PAPUA";"98212";"Indonesia";" 081236974318";"-1.8748841";"136.2523177";"https://maps.google.com/?cid=0x0:0x76d55831a7e822b3"
"supermarket";"Toko";"Kios Ewani Indah";"47F2+XRV, Jl. Ke Menawi, Warari, Kec. Yapen Sel., Kabupaten Kepulauan Yapen, Papua 98212";"Jl. Ke Menawi, Warari, Kec. Yapen Sel., Kabupaten Kepulauan Yapen";"PAPUA";"98212";"Indonesia";"";"-1.8750247";"136.2520517";"https://maps.google.com/?cid=0x0:0x42500bb7b23ff428"
"supermarket";"Toko Buku";"Indah Pasaraya Serui Indah";"Jl. Moh. Yamin, Serui Kota, Kec. Yapen Sel., Kabupaten Kepulauan Yapen, Papua 98215";"Serui Kota, Kec. Yapen Sel., Kabupaten Kepulauan Yapen";"PAPUA";"98215";"Indonesia";"";"-1.8836014";"136.2384964";"https://maps.google.com/?cid=0x0:0x7d9f1453d5882191"
"supermarket";"Toko";"Toko Karya Kurnia";"46FV+HC3, Jl. Frans Kaisepo, Famboaman, Kec. Yapen Sel., Kabupaten Kepulauan Yapen, Papua 98213";"Jl. Frans Kaisepo, Famboaman, Kec. Yapen Sel., Kabupaten Kepulauan Yapen";"PAPUA";"98213";"Indonesia";"";"-1.8761003";"136.2435369";"https://maps.google.com/?cid=0x0:0x15eeffbb0bc54406"
"supermarket";"Toko Swalayan";"Kios Bayutra";"46HV+QC2, Jl. Nipah, Famboaman, Kec. Yapen Sel., Kabupaten Kepulauan Yapen, Papua 98213";"Jl. Nipah, Famboaman, Kec. Yapen Sel., Kabupaten Kepulauan Yapen";"PAPUA";"98213";"Indonesia";"";"-1.8706197";"136.2435076";"https://maps.google.com/?cid=0x0:0x7f73d770b8e46fe3"
"supermarket";"Toko bahan makanan";"Kios begadang 24 jam";"46JQ+5JM, Anatorei, Kec. Yapen Sel., Kabupaten Kepulauan Yapen, Papua 98213";"Anatorei, Kec. Yapen Sel., Kabupaten Kepulauan Yapen";"PAPUA";"98213";"Indonesia";" 082311989580";"-1.8694763";"136.2390277";"https://maps.google.com/?cid=0x0:0x42b22336b76fc1fc"
"supermarket";"Kantor Perusahaan";"Pelni Mart Cabang Serui";"Serui Kota, Kec. Yapen Sel., Kabupaten Kepulauan Yapen, Papua 98213";"Kec. Yapen Sel., Kabupaten Kepulauan Yapen";"PAPUA";"98213";"Indonesia";" 081318882144";"-1.8792675";"136.2398941";"https://maps.google.com/?cid=0x0:0xae4233eff62aaa62"
"supermarket";"Minimarket";"Toko Kita";"46FQ+6F8, Serui Kota, Kec. Yapen Sel., Kabupaten Kepulauan Yapen, Papua 98213";"Serui Kota, Kec. Yapen Sel., Kabupaten Kepulauan Yapen";"PAPUA";"98213";"Indonesia";" 081216233268";"-1.8769662";"136.2386957";"https://maps.google.com/?cid=0x0:0x6dadbe6c18278b00"
"supermarket";"Toko bahan makanan";"Toko Cinta Damai";"46CR+2VG, Serui Jaya, Kec. Yapen Sel., Kabupaten Kepulauan Yapen, Papua 98215";"Serui Jaya, Kec. Yapen Sel., Kabupaten Kepulauan Yapen";"PAPUA";"98215";"Indonesia";"";"-1.879931";"136.2422105";"https://maps.google.com/?cid=0x0:0x8f9de08afe11b15d"
"supermarket";"Toko Swalayan";"FEPUZAMARKET";"EX Rumah makan Makassar, Jl. Imam Bonjol, Serui Kota, Kec. Yapen Sel., Kabupaten Kepulauan Yapen, Papua 98215";"Jl. Imam Bonjol, Serui Kota, Kec. Yapen Sel., Kabupaten Kepulauan Yapen";"PAPUA";"98215";"Indonesia";" 082312533539";"-1.8842457";"136.2433659";"https://maps.google.com/?cid=0x0:0xab888c2dca481018"
"supermarket";"Toko bahan makanan";"Kios Ani Mulia";"Jl. Frans Kaisepo, Famboaman, Kec. Yapen Sel., Kabupaten Kepulauan Yapen, Papua 98213";"Famboaman, Kec. Yapen Sel., Kabupaten Kepulauan Yapen";"PAPUA";"98213";"Indonesia";" 082397515710";"-1.8756347";"136.2428996";"https://maps.google.com/?cid=0x0:0xafb4aac83856061c"
"supermarket";"supermarket";"Papua 98213";"Kec. Yapen Sel., Kabupaten Kepulauan Yapen, Papua";"Kabupaten Kepulauan Yapen, Papua";"PAPUA";"";"Indonesia";"";"-1.8722668";"136.2354713";"https://maps.google.com/?cid=0x0:0xf81978a1f9fcf655"
"supermarket";"Toko Swalayan";"Hadi Supermarket";"Jl. Frans Kaisepo No.5, RT. 003/01, Warari, Kec. Yapen Sel., Kabupaten Kepulauan Yapen, Papua 98212";"RT. 003/01, Warari, Kec. Yapen Sel., Kabupaten Kepulauan Yapen";"PAPUA";"98212";"Indonesia";" 098334276";"-1.8751153";"136.2490809";"https://maps.google.com/?cid=0x0:0xf67310d4ed062031"
"supermarket";"supermarket";"Syafiq Mart";"Jl. Sudirman, Serui Kota, Kec. Yapen Sel., Kabupaten Kepulauan Yapen, Papua 98213";"Serui Kota, Kec. Yapen Sel., Kabupaten Kepulauan Yapen";"PAPUA";"98213";"Indonesia";" 085240966684";"-1.8725559";"136.2402621";"https://maps.google.com/?cid=0x0:0x7ca15fd1eb458c21"
"supermarket";"Toko umum";"Toko Asei";"46FJ+6HQ, Serui Kota, Kec. Yapen Sel., Kabupaten Kepulauan Yapen, Papua 98213";"Serui Kota, Kec. Yapen Sel., Kabupaten Kepulauan Yapen";"PAPUA";"98213";"Indonesia";" 098331468";"-1.8769217";"136.2314953";"https://maps.google.com/?cid=0x0:0x23f1218b85ff4904"
"supermarket";"Kantor Perusahaan";"Pelni Mart Cabang Serui";"Serui Kota, Kec. Yapen Sel., Kabupaten Kepulauan Yapen, Papua 98213";"Kec. Yapen Sel., Kabupaten Kepulauan Yapen";"PAPUA";"98213";"Indonesia";" 081318882144";"-1.8792675";"136.2398941";"https://maps.google.com/?cid=0x0:0xae4233eff62aaa62"
"supermarket";"Toko Buku";"Indah Pasaraya Serui Indah";"Jl. Moh. Yamin, Serui Kota, Kec. Yapen Sel., Kabupaten Kepulauan Yapen, Papua 98215";"Serui Kota, Kec. Yapen Sel., Kabupaten Kepulauan Yapen";"PAPUA";"98215";"Indonesia";"";"-1.8836014";"136.2384964";"https://maps.google.com/?cid=0x0:0x7d9f1453d5882191"
"supermarket";"Toko";"Toko Karya Kurnia";"46FV+HC3, Jl. Frans Kaisepo, Famboaman, Kec. Yapen Sel., Kabupaten Kepulauan Yapen, Papua 98213";"Jl. Frans Kaisepo, Famboaman, Kec. Yapen Sel., Kabupaten Kepulauan Yapen";"PAPUA";"98213";"Indonesia";"";"-1.8761003";"136.2435369";"https://maps.google.com/?cid=0x0:0x15eeffbb0bc54406"
"supermarket";"Toko bahan makanan";"Kios begadang 24 jam";"46JQ+5JM, Anatorei, Kec. Yapen Sel., Kabupaten Kepulauan Yapen, Papua 98213";"Anatorei, Kec. Yapen Sel., Kabupaten Kepulauan Yapen";"PAPUA";"98213";"Indonesia";" 082311989580";"-1.8694763";"136.2390277";"https://maps.google.com/?cid=0x0:0x42b22336b76fc1fc"
"supermarket";"Minimarket";"Toko Kita";"46FQ+6F8, Serui Kota, Kec. Yapen Sel., Kabupaten Kepulauan Yapen, Papua 98213";"Serui Kota, Kec. Yapen Sel., Kabupaten Kepulauan Yapen";"PAPUA";"98213";"Indonesia";" 081216233268";"-1.8769662";"136.2386957";"https://maps.google.com/?cid=0x0:0x6dadbe6c18278b00"
"supermarket";"Toko Swalayan";"Kios Bayutra";"46HV+QC2, Jl. Nipah, Famboaman, Kec. Yapen Sel., Kabupaten Kepulauan Yapen, Papua 98213";"Jl. Nipah, Famboaman, Kec. Yapen Sel., Kabupaten Kepulauan Yapen";"PAPUA";"98213";"Indonesia";"";"-1.8706197";"136.2435076";"https://maps.google.com/?cid=0x0:0x7f73d770b8e46fe3"
"supermarket";"Grosir";"TOKO BARMAS";"Serui Kota, Kec. Yapen Sel., Kabupaten Kepulauan Yapen, Papua 98213";"Kec. Yapen Sel., Kabupaten Kepulauan Yapen";"PAPUA";"98213";"Indonesia";" 081336226156";"-1.8767598";"136.2321492";"https://maps.google.com/?cid=0x0:0xc0cf3257e516625e"
"supermarket";"Toko Swalayan";"Indah mart";"Jl. Kapitan Pattimura, Serui Kota, Kec. Yapen Sel., Kabupaten Kepulauan Yapen, Papua 98215";"Serui Kota, Kec. Yapen Sel., Kabupaten Kepulauan Yapen";"PAPUA";"98215";"Indonesia";"";"-1.8810091";"136.2353503";"https://maps.google.com/?cid=0x0:0x82846dfdcfec3202"
"supermarket";"Toko Swalayan";"Kios misbah";"47G2+2WW, Warari, Kec. Yapen Sel., Kabupaten Kepulauan Yapen, Papua 98212";"Warari, Kec. Yapen Sel., Kabupaten Kepulauan Yapen";"PAPUA";"98212";"Indonesia";" 081236974318";"-1.8748841";"136.2523177";"https://maps.google.com/?cid=0x0:0x76d55831a7e822b3"
"supermarket";"Toko bahan makanan";"Kios Ani Mulia";"Jl. Frans Kaisepo, Famboaman, Kec. Yapen Sel., Kabupaten Kepulauan Yapen, Papua 98213";"Famboaman, Kec. Yapen Sel., Kabupaten Kepulauan Yapen";"PAPUA";"98213";"Indonesia";" 082397515710";"-1.8756347";"136.2428996";"https://maps.google.com/?cid=0x0:0xafb4aac83856061c"
"supermarket";"supermarket";"Papua 98214";"Yapan, Kec. Yapen Sel., Kabupaten Kepulauan Yapen, Papua";"Kabupaten Kepulauan Yapen, Papua";"PAPUA";"";"Indonesia";"";"-1.8312862";"136.2426511";"https://maps.google.com/?cid=0x0:0x80248e4590702d10"
"supermarket";"Toko Swalayan";"Hadi Supermarket";"Jl. Frans Kaisepo No.5, RT. 003/01, Warari, Kec. Yapen Sel., Kabupaten Kepulauan Yapen, Papua 98212";"RT. 003/01, Warari, Kec. Yapen Sel., Kabupaten Kepulauan Yapen";"PAPUA";"98212";"Indonesia";" 098334276";"-1.8751153";"136.2490809";"https://maps.google.com/?cid=0x0:0xf67310d4ed062031"
"supermarket";"Toko bahan makanan";"Kios begadang 24 jam";"46JQ+5JM, Anatorei, Kec. Yapen Sel., Kabupaten Kepulauan Yapen, Papua 98213";"Anatorei, Kec. Yapen Sel., Kabupaten Kepulauan Yapen";"PAPUA";"98213";"Indonesia";" 082311989580";"-1.8694763";"136.2390277";"https://maps.google.com/?cid=0x0:0x42b22336b76fc1fc"
"supermarket";"Toko Swalayan";"Kios Bayutra";"46HV+QC2, Jl. Nipah, Famboaman, Kec. Yapen Sel., Kabupaten Kepulauan Yapen, Papua 98213";"Jl. Nipah, Famboaman, Kec. Yapen Sel., Kabupaten Kepulauan Yapen";"PAPUA";"98213";"Indonesia";"";"-1.8706197";"136.2435076";"https://maps.google.com/?cid=0x0:0x7f73d770b8e46fe3"
"supermarket";"Toko Roti";"Market Organic Yapan";"46XP+24R, Jalan Kawara Gang. Warmetan, Mantembu, Kec. Yapen Sel., Kabupaten Kepulauan Yapen, Papua 98631";"Jalan Kawara Gang. Warmetan, Mantembu, Kec. Yapen Sel., Kabupaten Kepulauan Yapen";"PAPUA";"98631";"Indonesia";"";"-1.852382";"136.2352585";"https://maps.google.com/?cid=0x0:0x881fdd5057a416e7"
"supermarket";"Minimarket";"Toko Kita";"46FQ+6F8, Serui Kota, Kec. Yapen Sel., Kabupaten Kepulauan Yapen, Papua 98213";"Serui Kota, Kec. Yapen Sel., Kabupaten Kepulauan Yapen";"PAPUA";"98213";"Indonesia";" 081216233268";"-1.8769662";"136.2386957";"https://maps.google.com/?cid=0x0:0x6dadbe6c18278b00"
"supermarket";"Toko Swalayan";"Kios misbah";"47G2+2WW, Warari, Kec. Yapen Sel., Kabupaten Kepulauan Yapen, Papua 98212";"Warari, Kec. Yapen Sel., Kabupaten Kepulauan Yapen";"PAPUA";"98212";"Indonesia";" 081236974318";"-1.8748841";"136.2523177";"https://maps.google.com/?cid=0x0:0x76d55831a7e822b3"
"supermarket";"Minimarket";"Kios Reivank Serui Papua";"46CH+J9J, Mariaderi, Kec. Yapen Sel., Kabupaten Kepulauan Yapen, Papua 98215";"Mariaderi, Kec. Yapen Sel., Kabupaten Kepulauan Yapen";"PAPUA";"98215";"Indonesia";" 085399774433";"-1.8784184";"136.2284041";"https://maps.google.com/?cid=0x0:0xac2f3f2285f0aa72"
"supermarket";"Toko bahan makanan";"Toko Cinta Damai";"46CR+2VG, Serui Jaya, Kec. Yapen Sel., Kabupaten Kepulauan Yapen, Papua 98215";"Serui Jaya, Kec. Yapen Sel., Kabupaten Kepulauan Yapen";"PAPUA";"98215";"Indonesia";"";"-1.879931";"136.2422105";"https://maps.google.com/?cid=0x0:0x8f9de08afe11b15d"
"supermarket";"Toko bahan makanan";"Toko Duta Indah";"46JR+F4R, Jl. Sudirman, Anatorei, Kec. Yapen Sel., Kabupaten Kepulauan Yapen, Papua 98213";"Jl. Sudirman, Anatorei, Kec. Yapen Sel., Kabupaten Kepulauan Yapen";"PAPUA";"98213";"Indonesia";"";"-1.8687625";"136.2402817";"https://maps.google.com/?cid=0x0:0xe9135a014464bb6f"
"supermarket";"Toko umum";"Kompleks bontotiro";"46MQ+WM4, Jalan pertanian, waenakawini, Kec. Yapen Sel., Kabupaten Kepulauan Yapen, Papua 98213";"Jalan pertanian, waenakawini, Kec. Yapen Sel., Kabupaten Kepulauan Yapen";"PAPUA";"98213";"Indonesia";" 082198691683";"-1.865244";"136.239196";"https://maps.google.com/?cid=0x0:0x8d587b85d117c840"
"supermarket";"Pusat Pendidikan";"Serui Beauty";"46VP+7XR, Unnamed Road, Mantembu, Kec. Yapen Sel., Kabupaten Kepulauan Yapen, Papua 98211";"Unnamed Road, Mantembu, Kec. Yapen Sel., Kabupaten Kepulauan Yapen";"PAPUA";"98211";"Indonesia";" 081343422626";"-1.8567748";"136.2373776";"https://maps.google.com/?cid=0x0:0xf3754f333084da78"
"supermarket";"Toko Swalayan";"Warung Bengawan";"46FV+P8R, Famboaman, Kec. Yapen Sel., Kabupaten Kepulauan Yapen, Papua 98213";"Famboaman, Kec. Yapen Sel., Kabupaten Kepulauan Yapen";"PAPUA";"98213";"Indonesia";"";"-1.8756299";"136.2432738";"https://maps.google.com/?cid=0x0:0xb97e1ae151aefc8b"
"supermarket";"Toko Swalayan";"kios CHAKEN";"46RQ+254, jalan m. toha anotaurei, Mantembu, Kec. Yapen Sel., Kabupaten Kepulauan Yapen, Papua 98211";"jalan m. toha anotaurei, Mantembu, Kec. Yapen Sel., Kabupaten Kepulauan Yapen";"PAPUA";"98211";"Indonesia";"";"-1.8601505";"136.2375662";"https://maps.google.com/?cid=0x0:0x492b45aa23c103eb"
"supermarket";"supermarket";"Kec. Yapen Sel.";"Kabupaten Kepulauan Yapen, Papua";"Kabupaten Kepulauan Yapen, Papua";"PAPUA";"";"Indonesia";"";"-1.884104";"136.2418748";"https://maps.google.com/?cid=0x0:0x3f81bf02f4d4d5c7"
"supermarket";"Toko Swalayan";"Hadi Supermarket";"Jl. Frans Kaisepo No.5, RT. 003/01, Warari, Kec. Yapen Sel., Kabupaten Kepulauan Yapen, Papua 98212";"RT. 003/01, Warari, Kec. Yapen Sel., Kabupaten Kepulauan Yapen";"PAPUA";"98212";"Indonesia";" 098334276";"-1.8751153";"136.2490809";"https://maps.google.com/?cid=0x0:0xf67310d4ed062031"
"supermarket";"Toko Buku";"Indah Pasaraya Serui Indah";"Jl. Moh. Yamin, Serui Kota, Kec. Yapen Sel., Kabupaten Kepulauan Yapen, Papua 98215";"Serui Kota, Kec. Yapen Sel., Kabupaten Kepulauan Yapen";"PAPUA";"98215";"Indonesia";"";"-1.8836014";"136.2384964";"https://maps.google.com/?cid=0x0:0x7d9f1453d5882191"
"supermarket";"Toko";"Toko Limas";"46FV+8WJ, Jl. KPR, Warari, Kec. Yapen Sel., Kabupaten Kepulauan Yapen, Papua 98213";"Jl. KPR, Warari, Kec. Yapen Sel., Kabupaten Kepulauan Yapen";"PAPUA";"98213";"Indonesia";" 081354034087";"-1.8766524";"136.2447558";"https://maps.google.com/?cid=0x0:0xf22d6f17118f67b3"
"supermarket";"Toko umum";"Toko Asei";"46FJ+6HQ, Serui Kota, Kec. Yapen Sel., Kabupaten Kepulauan Yapen, Papua 98213";"Serui Kota, Kec. Yapen Sel., Kabupaten Kepulauan Yapen";"PAPUA";"98213";"Indonesia";" 098331468";"-1.8769217";"136.2314953";"https://maps.google.com/?cid=0x0:0x23f1218b85ff4904"
"supermarket";"Kantor Perusahaan";"Pelni Mart Cabang Serui";"Serui Kota, Kec. Yapen Sel., Kabupaten Kepulauan Yapen, Papua 98213";"Kec. Yapen Sel., Kabupaten Kepulauan Yapen";"PAPUA";"98213";"Indonesia";" 081318882144";"-1.8792675";"136.2398941";"https://maps.google.com/?cid=0x0:0xae4233eff62aaa62"
"supermarket";"Toko bahan makanan";"Duta Mart";"467R+C9X, Pasir Hitam, Kec. Yapen Sel., Kabupaten Kepulauan Yapen, Papua 98215";"Pasir Hitam, Kec. Yapen Sel., Kabupaten Kepulauan Yapen";"PAPUA";"98215";"Indonesia";"";"-1.8863984";"136.2409702";"https://maps.google.com/?cid=0x0:0x7922a738e5e8f248"
"supermarket";"Toko Swalayan";"Indah mart";"Jl. Kapitan Pattimura, Serui Kota, Kec. Yapen Sel., Kabupaten Kepulauan Yapen, Papua 98215";"Serui Kota, Kec. Yapen Sel., Kabupaten Kepulauan Yapen";"PAPUA";"98215";"Indonesia";"";"-1.8810091";"136.2353503";"https://maps.google.com/?cid=0x0:0x82846dfdcfec3202"
"supermarket";"Minimarket";"Kios Reivank Serui Papua";"46CH+J9J, Mariaderi, Kec. Yapen Sel., Kabupaten Kepulauan Yapen, Papua 98215";"Mariaderi, Kec. Yapen Sel., Kabupaten Kepulauan Yapen";"PAPUA";"98215";"Indonesia";" 085399774433";"-1.8784184";"136.2284041";"https://maps.google.com/?cid=0x0:0xac2f3f2285f0aa72"
"supermarket";"Toko";"Toko Karya Kurnia";"46FV+HC3, Jl. Frans Kaisepo, Famboaman, Kec. Yapen Sel., Kabupaten Kepulauan Yapen, Papua 98213";"Jl. Frans Kaisepo, Famboaman, Kec. Yapen Sel., Kabupaten Kepulauan Yapen";"PAPUA";"98213";"Indonesia";"";"-1.8761003";"136.2435369";"https://maps.google.com/?cid=0x0:0x15eeffbb0bc54406"
"supermarket";"Toko";"KURNIA ILAHI Group";"467R+848, Jl. Diponegoro, Pasir Hitam, Kec. Yapen Sel., Kabupaten Kepulauan Yapen, Papua 98215";"Jl. Diponegoro, Pasir Hitam, Kec. Yapen Sel., Kabupaten Kepulauan Yapen";"PAPUA";"98215";"Indonesia";" 081230897771";"-1.8867126";"136.2403194";"https://maps.google.com/?cid=0x0:0x5911d99c279fdae"
"supermarket";"Toko bahan makanan";"Toko Cinta Damai";"46CR+2VG, Serui Jaya, Kec. Yapen Sel., Kabupaten Kepulauan Yapen, Papua 98215";"Serui Jaya, Kec. Yapen Sel., Kabupaten Kepulauan Yapen";"PAPUA";"98215";"Indonesia";"";"-1.879931";"136.2422105";"https://maps.google.com/?cid=0x0:0x8f9de08afe11b15d"
"supermarket";"Minimarket";"Toko Kita";"46FQ+6F8, Serui Kota, Kec. Yapen Sel., Kabupaten Kepulauan Yapen, Papua 98213";"Serui Kota, Kec. Yapen Sel., Kabupaten Kepulauan Yapen";"PAPUA";"98213";"Indonesia";" 081216233268";"-1.8769662";"136.2386957";"https://maps.google.com/?cid=0x0:0x6dadbe6c18278b00"
"supermarket";"Toko Swalayan";"FEPUZAMARKET";"EX Rumah makan Makassar, Jl. Imam Bonjol, Serui Kota, Kec. Yapen Sel., Kabupaten Kepulauan Yapen, Papua 98215";"Jl. Imam Bonjol, Serui Kota, Kec. Yapen Sel., Kabupaten Kepulauan Yapen";"PAPUA";"98215";"Indonesia";" 082312533539";"-1.8842457";"136.2433659";"https://maps.google.com/?cid=0x0:0xab888c2dca481018"
"supermarket";"supermarket";"Distrik Yapen Timur";"Kabupaten Kepulauan Yapen, Papua";"Kabupaten Kepulauan Yapen, Papua";"PAPUA";"";"Indonesia";"";"-1.8231626";"136.7603579";"https://maps.google.com/?cid=0x0:0x8aa6062a086a2ccd"
"supermarket";"Toko bahan makanan";"Toserba 03";"5QJ7+56H, Tim, Awunawai, Distrik Yapen Timur, Kabupaten Kepulauan Yapen, Papua 98252";"Tim, Awunawai, Distrik Yapen Timur, Kabupaten Kepulauan Yapen";"PAPUA";"98252";"Indonesia";"";"-1.8186178";"136.7624303";"https://maps.google.com/?cid=0x0:0xad16e13f8406bc2a"
"supermarket";"Toko umum";"Toserba 01";"5QG2+XP, Dawai, Distrik Yapen Timur, Kabupaten Kepulauan Yapen, Papua 98252";"Dawai, Distrik Yapen Timur, Kabupaten Kepulauan Yapen";"PAPUA";"98252";"Indonesia";"";"-1.8224818";"136.7518233";"https://maps.google.com/?cid=0x0:0x2b5c3ace750d51c3"
"supermarket";"Toko Swalayan";"Hadi Supermarket";"Jl. Frans Kaisepo No.5, RT. 003/01, Warari, Kec. Yapen Sel., Kabupaten Kepulauan Yapen, Papua 98212";"RT. 003/01, Warari, Kec. Yapen Sel., Kabupaten Kepulauan Yapen";"PAPUA";"98212";"Indonesia";" 098334276";"-1.8751153";"136.2490809";"https://maps.google.com/?cid=0x0:0xf67310d4ed062031"
"supermarket";"Minimarket";"Toko Kevin 03";"5QJ7+6CV, Awunawai, Distrik Yapen Timur, Kabupaten Kepulauan Yapen, Papua 98252";"Awunawai, Distrik Yapen Timur, Kabupaten Kepulauan Yapen";"PAPUA";"98252";"Indonesia";"";"-1.8193962";"136.7635486";"https://maps.google.com/?cid=0x0:0x3fbe92bb67bf7b0f"
"supermarket";"supermarket";"Kios citra";"Awunawai, Distrik Yapen Timur, Kabupaten Kepulauan Yapen, Papua 98252";"Distrik Yapen Timur, Kabupaten Kepulauan Yapen";"PAPUA";"98252";"Indonesia";" 081240501046";"-1.803794";"136.7623591";"https://maps.google.com/?cid=0x0:0x3166b1162fe4e4b4"
"supermarket";"Minimarket";"Toko Kita";"46FQ+6F8, Serui Kota, Kec. Yapen Sel., Kabupaten Kepulauan Yapen, Papua 98213";"Serui Kota, Kec. Yapen Sel., Kabupaten Kepulauan Yapen";"PAPUA";"98213";"Indonesia";" 081216233268";"-1.8769662";"136.2386957";"https://maps.google.com/?cid=0x0:0x6dadbe6c18278b00"
"supermarket";"Toko umum";"Kios Alifa Berkah";"5PJV+8C, Dawai, Distrik Yapen Timur, Kabupaten Kepulauan Yapen, Papua 98252";"Dawai, Distrik Yapen Timur, Kabupaten Kepulauan Yapen";"PAPUA";"98252";"Indonesia";" 082293038417";"-1.81943";"136.7437957";"https://maps.google.com/?cid=0x0:0x7f6e3a52591ed119"
"supermarket";"Perias";"Aqila Hijab  Kosmetik";"5QH7+XVM, Unnamed Road, Awunawai, Distrik Yapen Timur, Kabupaten Kepulauan Yapen, Papua 98252";"Unnamed Road, Awunawai, Distrik Yapen Timur, Kabupaten Kepulauan Yapen";"PAPUA";"98252";"Indonesia";" 082188341845";"-1.8200344";"136.7646643";"https://maps.google.com/?cid=0x0:0x851e879c893e7b34"
"supermarket";"Minimarket";"TOKO A  A";"5PJV+8C, Dawai, Distrik Yapen Timur, Kabupaten Kepulauan Yapen, Papua 98252";"Dawai, Distrik Yapen Timur, Kabupaten Kepulauan Yapen";"PAPUA";"98252";"Indonesia";"";"-1.8195057";"136.7437319";"https://maps.google.com/?cid=0x0:0xb61f4868ca34b7b8"
"supermarket";"";"Willy kios dan pakaian Toraja";"5PJR+9CH, Dawai, Distrik Yapen Timur, Kabupaten Kepulauan Yapen, Papua 98252";"Dawai, Distrik Yapen Timur, Kabupaten Kepulauan Yapen";"PAPUA";"98252";"Indonesia";" 081343231367";"-1.8190696";"136.7411141";"https://maps.google.com/?cid=0x0:0x7f934b449834a0ea"
"supermarket";"Toko Fotokopi";"Foto Copi Badak Group";"5QJ8+GHR, Unnamed Road, Awunawai, Distrik Yapen Timur, Kabupaten Kepulauan Yapen, Papua 98252";"Unnamed Road, Awunawai, Distrik Yapen Timur, Kabupaten Kepulauan Yapen";"PAPUA";"98252";"Indonesia";" 081355073100";"-1.8186369";"136.7664006";"https://maps.google.com/?cid=0x0:0x6f5c5b8429b924bb"
"supermarket";"Toko Swalayan";"Kios Bayutra";"46HV+QC2, Jl. Nipah, Famboaman, Kec. Yapen Sel., Kabupaten Kepulauan Yapen, Papua 98213";"Jl. Nipah, Famboaman, Kec. Yapen Sel., Kabupaten Kepulauan Yapen";"PAPUA";"98213";"Indonesia";"";"-1.8706197";"136.2435076";"https://maps.google.com/?cid=0x0:0x7f73d770b8e46fe3"
"supermarket";"Apotek";"TokoObat Blessing Farma";"Jl. Kelapa tiga Kep, Dawai, Distrik Yapen Timur, Kabupaten Kepulauan Yapen, Papua 98644";"Dawai, Distrik Yapen Timur, Kabupaten Kepulauan Yapen";"PAPUA";"98644";"Indonesia";" 082195010029";"-1.8189833";"136.740401";"https://maps.google.com/?cid=0x0:0xfb43133ad5042bdd"
"supermarket";"supermarket";"Papua 98255";"Kabupaten Kepulauan Yapen, Papua";"Kabupaten Kepulauan Yapen, Papua";"PAPUA";"";"Indonesia";"";"-1.8086855";"136.3240951";"https://maps.google.com/?cid=0x0:0x438de2bf5d4cd8af"
"supermarket";"Toko Swalayan";"Hadi Supermarket";"Jl. Frans Kaisepo No.5, RT. 003/01, Warari, Kec. Yapen Sel., Kabupaten Kepulauan Yapen, Papua 98212";"RT. 003/01, Warari, Kec. Yapen Sel., Kabupaten Kepulauan Yapen";"PAPUA";"98212";"Indonesia";" 098334276";"-1.8751153";"136.2490809";"https://maps.google.com/?cid=0x0:0xf67310d4ed062031"
"supermarket";"Toko";"Toko Limas";"46FV+8WJ, Jl. KPR, Warari, Kec. Yapen Sel., Kabupaten Kepulauan Yapen, Papua 98213";"Jl. KPR, Warari, Kec. Yapen Sel., Kabupaten Kepulauan Yapen";"PAPUA";"98213";"Indonesia";" 081354034087";"-1.8766524";"136.2447558";"https://maps.google.com/?cid=0x0:0xf22d6f17118f67b3"
"supermarket";"Toko Buku";"Indah Pasaraya Serui Indah";"Jl. Moh. Yamin, Serui Kota, Kec. Yapen Sel., Kabupaten Kepulauan Yapen, Papua 98215";"Serui Kota, Kec. Yapen Sel., Kabupaten Kepulauan Yapen";"PAPUA";"98215";"Indonesia";"";"-1.8836014";"136.2384964";"https://maps.google.com/?cid=0x0:0x7d9f1453d5882191"
"supermarket";"Toko";"Toko Merpati";"467Q+WFV, Jl. Moh. Yamin, Pasir Hitam, Kec. Yapen Sel., Kabupaten Kepulauan Yapen, Papua 98215";"Jl. Moh. Yamin, Pasir Hitam, Kec. Yapen Sel., Kabupaten Kepulauan Yapen";"PAPUA";"98215";"Indonesia";"";"-1.8851497";"136.238664";"https://maps.google.com/?cid=0x0:0xe5cb342ce69ffec0"
"supermarket";"Toko Swalayan";"Kios misbah";"47G2+2WW, Warari, Kec. Yapen Sel., Kabupaten Kepulauan Yapen, Papua 98212";"Warari, Kec. Yapen Sel., Kabupaten Kepulauan Yapen";"PAPUA";"98212";"Indonesia";" 081236974318";"-1.8748841";"136.2523177";"https://maps.google.com/?cid=0x0:0x76d55831a7e822b3"
"supermarket";"Toko";"Kios Ewani Indah";"47F2+XRV, Jl. Ke Menawi, Warari, Kec. Yapen Sel., Kabupaten Kepulauan Yapen, Papua 98212";"Jl. Ke Menawi, Warari, Kec. Yapen Sel., Kabupaten Kepulauan Yapen";"PAPUA";"98212";"Indonesia";"";"-1.8750247";"136.2520517";"https://maps.google.com/?cid=0x0:0x42500bb7b23ff428"
"supermarket";"Toko";"Toko Karya Kurnia";"46FV+HC3, Jl. Frans Kaisepo, Famboaman, Kec. Yapen Sel., Kabupaten Kepulauan Yapen, Papua 98213";"Jl. Frans Kaisepo, Famboaman, Kec. Yapen Sel., Kabupaten Kepulauan Yapen";"PAPUA";"98213";"Indonesia";"";"-1.8761003";"136.2435369";"https://maps.google.com/?cid=0x0:0x15eeffbb0bc54406"
"supermarket";"Kantor Perusahaan";"Pelni Mart Cabang Serui";"Serui Kota, Kec. Yapen Sel., Kabupaten Kepulauan Yapen, Papua 98213";"Kec. Yapen Sel., Kabupaten Kepulauan Yapen";"PAPUA";"98213";"Indonesia";" 081318882144";"-1.8792675";"136.2398941";"https://maps.google.com/?cid=0x0:0xae4233eff62aaa62"
"supermarket";"Toko bahan makanan";"Toko Cinta Damai";"46CR+2VG, Serui Jaya, Kec. Yapen Sel., Kabupaten Kepulauan Yapen, Papua 98215";"Serui Jaya, Kec. Yapen Sel., Kabupaten Kepulauan Yapen";"PAPUA";"98215";"Indonesia";"";"-1.879931";"136.2422105";"https://maps.google.com/?cid=0x0:0x8f9de08afe11b15d"
"supermarket";"Toko Swalayan";"Kios Bayutra";"46HV+QC2, Jl. Nipah, Famboaman, Kec. Yapen Sel., Kabupaten Kepulauan Yapen, Papua 98213";"Jl. Nipah, Famboaman, Kec. Yapen Sel., Kabupaten Kepulauan Yapen";"PAPUA";"98213";"Indonesia";"";"-1.8706197";"136.2435076";"https://maps.google.com/?cid=0x0:0x7f73d770b8e46fe3"
"supermarket";"Toko umum";"Toko Asei";"46FJ+6HQ, Serui Kota, Kec. Yapen Sel., Kabupaten Kepulauan Yapen, Papua 98213";"Serui Kota, Kec. Yapen Sel., Kabupaten Kepulauan Yapen";"PAPUA";"98213";"Indonesia";" 098331468";"-1.8769217";"136.2314953";"https://maps.google.com/?cid=0x0:0x23f1218b85ff4904"
"supermarket";"Toko";"KURNIA ILAHI Group";"467R+848, Jl. Diponegoro, Pasir Hitam, Kec. Yapen Sel., Kabupaten Kepulauan Yapen, Papua 98215";"Jl. Diponegoro, Pasir Hitam, Kec. Yapen Sel., Kabupaten Kepulauan Yapen";"PAPUA";"98215";"Indonesia";" 081230897771";"-1.8867126";"136.2403194";"https://maps.google.com/?cid=0x0:0x5911d99c279fdae"
"supermarket";"Toko bahan makanan";"Kios Ani Mulia";"Jl. Frans Kaisepo, Famboaman, Kec. Yapen Sel., Kabupaten Kepulauan Yapen, Papua 98213";"Famboaman, Kec. Yapen Sel., Kabupaten Kepulauan Yapen";"PAPUA";"98213";"Indonesia";" 082397515710";"-1.8756347";"136.2428996";"https://maps.google.com/?cid=0x0:0xafb4aac83856061c"
"supermarket";"Pusat Perbelanjaan";"Kios Chivia";"9P7H+G3M, Rarisi, Distrik Poom, Kabupaten Kepulauan Yapen, Papua";"Kabupaten Kepulauan Yapen, Papua";"PAPUA";"";"Indonesia";"";"-1.6353186";"135.7269201";"https://maps.google.com/?cid=0x0:0xbc9ae246b1863f61"
"supermarket";"supermarket";"Papua 98254";"Kabupaten Kepulauan Yapen, Papua";"Kabupaten Kepulauan Yapen, Papua";"PAPUA";"";"Indonesia";"";"-1.668696";"135.9229866";"https://maps.google.com/?cid=0x0:0x786984f83d38aaec"
"supermarket";"Pusat Perbelanjaan";"Papua Supermarket  Dept. Store";"4869+F77 Bar, Sawagumu, Kec. Sorong Utara, Kota Sorong, Papua Bar. 98416";"Sawagumu, Kec. Sorong Utara, Kota Sorong";"PAPUA";"98416";"Indonesia";" 09513160123";"-0.888831";"131.3181847";"https://maps.google.com/?cid=0x0:0x7b5f0926a74ad213"
"supermarket";"Toko bahan makanan";"KERAMBA PANPER";"Unnamed Road, Doyo Lama, Distrik Waibu, Kabupaten Jayapura, Papua 99352";"Doyo Lama, Distrik Waibu, Kabupaten Jayapura";"PAPUA";"99352";"Indonesia";" 082397758140";"-2.5723817";"140.4535468";"https://maps.google.com/?cid=0x0:0x99681cfd0f029c29"
"supermarket";"Toko bahan makanan";"Papua Mart";"7XVG+F83, Pruleme, Distrik Mulia, Kabupaten Puncak Jaya, Papua";"Kabupaten Puncak Jaya, Papua";"PAPUA";"";"Indonesia";"";"-3.7063653";"137.9757822";"https://maps.google.com/?cid=0x0:0xf49ab6ab8e5d1b97"
"supermarket";"Toko Pakaian";"Hang Tua (Sebelum jembatan 3 Ton)";"84H9+6J, Rosbori, Distrik Windesi, Kabupaten Kepulauan Yapen, Papua";"Kabupaten Kepulauan Yapen, Papua";"PAPUA";"";"Indonesia";"";"-1.6719751";"136.119079";"https://maps.google.com/?cid=0x0:0x3637246e593ec93e"
"supermarket";"Toko Swalayan";"Mu Gung Hwa Supermarket - Dharmawangsa";"Jl. Darmawangsa Raya No.2 Lantai 2, RT.2/RW.1, Pulo, Kec. Kby. Baru, Kota Jakarta Selatan, Daerah Khusus Ibukota Jakarta 12160";"RT.2/RW.1, Pulo, Kec. Kby. Baru, Kota Jakarta Selatan";"PAPUA";"12160";"Indonesia";" 0217233214";"-6.2549914";"106.7977871";"https://maps.google.com/?cid=0x0:0xc3d58b4e04a5f570"
"supermarket";"Toko bahan makanan";"Kios Sumber Padi";"Jalan Trans Papua No.Km 2, Persatuan, Kec. Mandobo, Kabupaten Boven Digoel, Papua 99663";"Persatuan, Kec. Mandobo, Kabupaten Boven Digoel";"PAPUA";"99663";"Indonesia";"";"-6.1016308";"140.3188932";"https://maps.google.com/?cid=0x0:0x7c2279c9f772da7e"
"supermarket";"Toko Kelontong Korea";"Mu Gung Hwa Supermarket - Senopati";"Jl. Senayan No.43, RT.8/RW.5, Rw. Bar., Kec. Kby. Baru, Kota Jakarta Selatan, Daerah Khusus Ibukota Jakarta 12180";"RT.8/RW.5, Rw. Bar., Kec. Kby. Baru, Kota Jakarta Selatan";"PAPUA";"12180";"Indonesia";" 0217222214";"-6.2353938";"106.8158782";"https://maps.google.com/?cid=0x0:0x9ffba79e59c537d5"
"supermarket";"Pusat Perbelanjaan";"LuLu Hypermarket - Mega Bekasi Hypermall";"Jl. Ahmad Yani No.1, RT.004/RW.001, Marga Jaya, Kec. Bekasi Sel., Kota Bks, Jawa Barat 17141";"RT.004/RW.001, Marga Jaya, Kec. Bekasi Sel., Kota Bks";"PAPUA";"17141";"Indonesia";" 081284056853";"-6.2497755";"106.9925032";"https://maps.google.com/?cid=0x0:0x4d491ebf7115f0d0"
"supermarket";"Toko Swalayan";"Gs supermarket";"Jl. KH. Hasyim Ashari No.93, RT.002/RW.003, Poris Plawad Utara, Kec. Cipondoh, Kota Tangerang, Banten 15148";"RT.002/RW.003, Poris Plawad Utara, Kec. Cipondoh, Kota Tangerang";"PAPUA";"15148";"Indonesia";" 02155712070";"-6.1879187";"106.661738";"https://maps.google.com/?cid=0x0:0x86a83e6d17a220b2"
"supermarket";"Pusat Perbelanjaan";"Lulu Hypermarket  Department Store - Plaza Taman";"Plaza Taman Modern, Jl. Raya Bekasi No.24, Ujung Menteng, Kec. Cakung, Kota Jakarta Timur, Daerah Khusus Ibukota Jakarta 13960";"Jl. Raya Bekasi No.24, Ujung Menteng, Kec. Cakung, Kota Jakarta Timur";"PAPUA";"13960";"Indonesia";" 02129844000";"-6.1866528";"106.949145";"https://maps.google.com/?cid=0x0:0x417a62ca795ee0b8"
"supermarket";"Toko Roti";"BBS Bungeoppang";"Plaza Bl. M, Jl. Bulungan No.76, RT.6/RW.6, Kramat Pela, Kec. Kby. Baru, Kota Jakarta Selatan, Daerah Khusus Ibukota Jakarta 12130";"Jl. Bulungan No.76, RT.6/RW.6, Kramat Pela, Kec. Kby. Baru, Kota Jakarta Selatan";"PAPUA";"12130";"Indonesia";"";"-6.2441311";"106.7975724";"https://maps.google.com/?cid=0x0:0x255f5f7e49f149a0"
"supermarket";"supermarket";"Papua 98215";"Kabupaten Kepulauan Yapen, Papua";"Kabupaten Kepulauan Yapen, Papua";"PAPUA";"";"Indonesia";"";"-1.8017548";"136.0944845";"https://maps.google.com/?cid=0x0:0xd235688620f2534d"
"supermarket";"Toko Swalayan";"Hadi Supermarket";"Jl. Frans Kaisepo No.5, RT. 003/01, Warari, Kec. Yapen Sel., Kabupaten Kepulauan Yapen, Papua 98212";"RT. 003/01, Warari, Kec. Yapen Sel., Kabupaten Kepulauan Yapen";"PAPUA";"98212";"Indonesia";" 098334276";"-1.8751153";"136.2490809";"https://maps.google.com/?cid=0x0:0xf67310d4ed062031"
"supermarket";"Toko Buku";"Indah Pasaraya Serui Indah";"Jl. Moh. Yamin, Serui Kota, Kec. Yapen Sel., Kabupaten Kepulauan Yapen, Papua 98215";"Serui Kota, Kec. Yapen Sel., Kabupaten Kepulauan Yapen";"PAPUA";"98215";"Indonesia";"";"-1.8836014";"136.2384964";"https://maps.google.com/?cid=0x0:0x7d9f1453d5882191"
"supermarket";"supermarket";"Syafiq Mart";"Jl. Sudirman, Serui Kota, Kec. Yapen Sel., Kabupaten Kepulauan Yapen, Papua 98213";"Serui Kota, Kec. Yapen Sel., Kabupaten Kepulauan Yapen";"PAPUA";"98213";"Indonesia";" 085240966684";"-1.8725559";"136.2402621";"https://maps.google.com/?cid=0x0:0x7ca15fd1eb458c21"
"supermarket";"Toko";"Toko Limas";"46FV+8WJ, Jl. KPR, Warari, Kec. Yapen Sel., Kabupaten Kepulauan Yapen, Papua 98213";"Jl. KPR, Warari, Kec. Yapen Sel., Kabupaten Kepulauan Yapen";"PAPUA";"98213";"Indonesia";" 081354034087";"-1.8766524";"136.2447558";"https://maps.google.com/?cid=0x0:0xf22d6f17118f67b3"
"supermarket";"Kantor Perusahaan";"Pelni Mart Cabang Serui";"Serui Kota, Kec. Yapen Sel., Kabupaten Kepulauan Yapen, Papua 98213";"Kec. Yapen Sel., Kabupaten Kepulauan Yapen";"PAPUA";"98213";"Indonesia";" 081318882144";"-1.8792675";"136.2398941";"https://maps.google.com/?cid=0x0:0xae4233eff62aaa62"
"supermarket";"Toko";"Toko Karya Kurnia";"46FV+HC3, Jl. Frans Kaisepo, Famboaman, Kec. Yapen Sel., Kabupaten Kepulauan Yapen, Papua 98213";"Jl. Frans Kaisepo, Famboaman, Kec. Yapen Sel., Kabupaten Kepulauan Yapen";"PAPUA";"98213";"Indonesia";"";"-1.8761003";"136.2435369";"https://maps.google.com/?cid=0x0:0x15eeffbb0bc54406"
"supermarket";"Toko umum";"Toko Asei";"46FJ+6HQ, Serui Kota, Kec. Yapen Sel., Kabupaten Kepulauan Yapen, Papua 98213";"Serui Kota, Kec. Yapen Sel., Kabupaten Kepulauan Yapen";"PAPUA";"98213";"Indonesia";" 098331468";"-1.8769217";"136.2314953";"https://maps.google.com/?cid=0x0:0x23f1218b85ff4904"
"supermarket";"Toko";"KURNIA ILAHI Group";"467R+848, Jl. Diponegoro, Pasir Hitam, Kec. Yapen Sel., Kabupaten Kepulauan Yapen, Papua 98215";"Jl. Diponegoro, Pasir Hitam, Kec. Yapen Sel., Kabupaten Kepulauan Yapen";"PAPUA";"98215";"Indonesia";" 081230897771";"-1.8867126";"136.2403194";"https://maps.google.com/?cid=0x0:0x5911d99c279fdae"
"supermarket";"Toko bahan makanan";"Toko Cinta Damai";"46CR+2VG, Serui Jaya, Kec. Yapen Sel., Kabupaten Kepulauan Yapen, Papua 98215";"Serui Jaya, Kec. Yapen Sel., Kabupaten Kepulauan Yapen";"PAPUA";"98215";"Indonesia";"";"-1.879931";"136.2422105";"https://maps.google.com/?cid=0x0:0x8f9de08afe11b15d"
"supermarket";"Minimarket";"Kios Reivank Serui Papua";"46CH+J9J, Mariaderi, Kec. Yapen Sel., Kabupaten Kepulauan Yapen, Papua 98215";"Mariaderi, Kec. Yapen Sel., Kabupaten Kepulauan Yapen";"PAPUA";"98215";"Indonesia";" 085399774433";"-1.8784184";"136.2284041";"https://maps.google.com/?cid=0x0:0xac2f3f2285f0aa72"
"supermarket";"Toko";"Kios Ewani Indah";"47F2+XRV, Jl. Ke Menawi, Warari, Kec. Yapen Sel., Kabupaten Kepulauan Yapen, Papua 98212";"Jl. Ke Menawi, Warari, Kec. Yapen Sel., Kabupaten Kepulauan Yapen";"PAPUA";"98212";"Indonesia";"";"-1.8750247";"136.2520517";"https://maps.google.com/?cid=0x0:0x42500bb7b23ff428"
"supermarket";"Minimarket";"Toko Kita";"46FQ+6F8, Serui Kota, Kec. Yapen Sel., Kabupaten Kepulauan Yapen, Papua 98213";"Serui Kota, Kec. Yapen Sel., Kabupaten Kepulauan Yapen";"PAPUA";"98213";"Indonesia";" 081216233268";"-1.8769662";"136.2386957";"https://maps.google.com/?cid=0x0:0x6dadbe6c18278b00"
"supermarket";"Toko Swalayan";"Kios misbah";"47G2+2WW, Warari, Kec. Yapen Sel., Kabupaten Kepulauan Yapen, Papua 98212";"Warari, Kec. Yapen Sel., Kabupaten Kepulauan Yapen";"PAPUA";"98212";"Indonesia";" 081236974318";"-1.8748841";"136.2523177";"https://maps.google.com/?cid=0x0:0x76d55831a7e822b3"
"supermarket";"supermarket";"Papua 98252";"Kabupaten Kepulauan Yapen, Papua";"Kabupaten Kepulauan Yapen, Papua";"PAPUA";"";"Indonesia";"";"-1.7581253";"136.5547852";"https://maps.google.com/?cid=0x0:0xe52dde0e102e427c"
"supermarket";"Toko bahan makanan";"Toserba 03";"5QJ7+56H, Tim, Awunawai, Distrik Yapen Timur, Kabupaten Kepulauan Yapen, Papua 98252";"Tim, Awunawai, Distrik Yapen Timur, Kabupaten Kepulauan Yapen";"PAPUA";"98252";"Indonesia";"";"-1.8186178";"136.7624303";"https://maps.google.com/?cid=0x0:0xad16e13f8406bc2a"
"supermarket";"Toko umum";"Toserba 01";"5QG2+XP, Dawai, Distrik Yapen Timur, Kabupaten Kepulauan Yapen, Papua 98252";"Dawai, Distrik Yapen Timur, Kabupaten Kepulauan Yapen";"PAPUA";"98252";"Indonesia";"";"-1.8224818";"136.7518233";"https://maps.google.com/?cid=0x0:0x2b5c3ace750d51c3"
"supermarket";"supermarket";"Kios citra";"Awunawai, Distrik Yapen Timur, Kabupaten Kepulauan Yapen, Papua 98252";"Distrik Yapen Timur, Kabupaten Kepulauan Yapen";"PAPUA";"98252";"Indonesia";" 081240501046";"-1.803794";"136.7623591";"https://maps.google.com/?cid=0x0:0x3166b1162fe4e4b4"
"supermarket";"Minimarket";"Toko Kevin 03";"5QJ7+6CV, Awunawai, Distrik Yapen Timur, Kabupaten Kepulauan Yapen, Papua 98252";"Awunawai, Distrik Yapen Timur, Kabupaten Kepulauan Yapen";"PAPUA";"98252";"Indonesia";"";"-1.8193962";"136.7635486";"https://maps.google.com/?cid=0x0:0x3fbe92bb67bf7b0f"
"supermarket";"Toko Swalayan";"Hadi Supermarket";"Jl. Frans Kaisepo No.5, RT. 003/01, Warari, Kec. Yapen Sel., Kabupaten Kepulauan Yapen, Papua 98212";"RT. 003/01, Warari, Kec. Yapen Sel., Kabupaten Kepulauan Yapen";"PAPUA";"98212";"Indonesia";" 098334276";"-1.8751153";"136.2490809";"https://maps.google.com/?cid=0x0:0xf67310d4ed062031"
"supermarket";"supermarket";"Syafiq Mart";"Jl. Sudirman, Serui Kota, Kec. Yapen Sel., Kabupaten Kepulauan Yapen, Papua 98213";"Serui Kota, Kec. Yapen Sel., Kabupaten Kepulauan Yapen";"PAPUA";"98213";"Indonesia";" 085240966684";"-1.8725559";"136.2402621";"https://maps.google.com/?cid=0x0:0x7ca15fd1eb458c21"
"supermarket";"Toko";"Toko Limas";"46FV+8WJ, Jl. KPR, Warari, Kec. Yapen Sel., Kabupaten Kepulauan Yapen, Papua 98213";"Jl. KPR, Warari, Kec. Yapen Sel., Kabupaten Kepulauan Yapen";"PAPUA";"98213";"Indonesia";" 081354034087";"-1.8766524";"136.2447558";"https://maps.google.com/?cid=0x0:0xf22d6f17118f67b3"
"supermarket";"Toko umum";"Toko Asei";"46FJ+6HQ, Serui Kota, Kec. Yapen Sel., Kabupaten Kepulauan Yapen, Papua 98213";"Serui Kota, Kec. Yapen Sel., Kabupaten Kepulauan Yapen";"PAPUA";"98213";"Indonesia";" 098331468";"-1.8769217";"136.2314953";"https://maps.google.com/?cid=0x0:0x23f1218b85ff4904"
"supermarket";"Toko Buku";"Indah Pasaraya Serui Indah";"Jl. Moh. Yamin, Serui Kota, Kec. Yapen Sel., Kabupaten Kepulauan Yapen, Papua 98215";"Serui Kota, Kec. Yapen Sel., Kabupaten Kepulauan Yapen";"PAPUA";"98215";"Indonesia";"";"-1.8836014";"136.2384964";"https://maps.google.com/?cid=0x0:0x7d9f1453d5882191"
"supermarket";"Toko";"Toko Merpati";"467Q+WFV, Jl. Moh. Yamin, Pasir Hitam, Kec. Yapen Sel., Kabupaten Kepulauan Yapen, Papua 98215";"Jl. Moh. Yamin, Pasir Hitam, Kec. Yapen Sel., Kabupaten Kepulauan Yapen";"PAPUA";"98215";"Indonesia";"";"-1.8851497";"136.238664";"https://maps.google.com/?cid=0x0:0xe5cb342ce69ffec0"
"supermarket";"Minimarket";"Toko Kita";"46FQ+6F8, Serui Kota, Kec. Yapen Sel., Kabupaten Kepulauan Yapen, Papua 98213";"Serui Kota, Kec. Yapen Sel., Kabupaten Kepulauan Yapen";"PAPUA";"98213";"Indonesia";" 081216233268";"-1.8769662";"136.2386957";"https://maps.google.com/?cid=0x0:0x6dadbe6c18278b00"
"supermarket";"Toko Swalayan";"Kios Bayutra";"46HV+QC2, Jl. Nipah, Famboaman, Kec. Yapen Sel., Kabupaten Kepulauan Yapen, Papua 98213";"Jl. Nipah, Famboaman, Kec. Yapen Sel., Kabupaten Kepulauan Yapen";"PAPUA";"98213";"Indonesia";"";"-1.8706197";"136.2435076";"https://maps.google.com/?cid=0x0:0x7f73d770b8e46fe3"
"supermarket";"Toko umum";"Kios Alifa Berkah";"5PJV+8C, Dawai, Distrik Yapen Timur, Kabupaten Kepulauan Yapen, Papua 98252";"Dawai, Distrik Yapen Timur, Kabupaten Kepulauan Yapen";"PAPUA";"98252";"Indonesia";" 082293038417";"-1.81943";"136.7437957";"https://maps.google.com/?cid=0x0:0x7f6e3a52591ed119"
"supermarket";"supermarket";"Distrik Raimbawi";"Kabupaten Kepulauan Yapen, Papua";"Kabupaten Kepulauan Yapen, Papua";"PAPUA";"";"Indonesia";"";"-1.767849";"136.8405357";"https://maps.google.com/?cid=0x0:0x5bfe03ebf6ec49ab"
"supermarket";"Minimarket";"Toko Kevin 03";"5QJ7+6CV, Awunawai, Distrik Yapen Timur, Kabupaten Kepulauan Yapen, Papua 98252";"Awunawai, Distrik Yapen Timur, Kabupaten Kepulauan Yapen";"PAPUA";"98252";"Indonesia";"";"-1.8193962";"136.7635486";"https://maps.google.com/?cid=0x0:0x3fbe92bb67bf7b0f"
"supermarket";"Pasar";"Pasar lama";"5QG2+PWR, Dawai, Distrik Yapen Timur, Kabupaten Kepulauan Yapen, Papua 98252";"Dawai, Distrik Yapen Timur, Kabupaten Kepulauan Yapen";"PAPUA";"98252";"Indonesia";"";"-1.8231438";"136.752268";"https://maps.google.com/?cid=0x0:0x8d04c652f165d118"
"supermarket";"Toko Swalayan";"Hyfresh - Supermarket Rempoa";"Jl. Rempoa Raya No.51, RT.3/RW.03, Rempoa, Kec. Ciputat Tim., Kota Tangerang Selatan, Banten 15412";"RT.3/RW.03, Rempoa, Kec. Ciputat Tim., Kota Tangerang Selatan";"PAPUA";"15412";"Indonesia";" 081380866678";"-6.2836654";"106.7607997";"https://maps.google.com/?cid=0x0:0x8478b5aee25ede9d"
"supermarket";"Toko";"Gilang Frozen Food";"Perumahan Mutiara Puri Harmoni, Jl. Sakura 1 No.50 blok jb1, Sukamanah, Kec. Rajeg, Kabupaten Tangerang, Banten 15540";"Jl. Sakura 1 No.50 blok jb1, Sukamanah, Kec. Rajeg, Kabupaten Tangerang";"PAPUA";"15540";"Indonesia";" 085816861894";"-6.1199736";"106.5063039";"https://maps.google.com/?cid=0x0:0x23dc94fc466813b6"
"supermarket";"Toko Swalayan";"FOODMART SUPERMARKET";"FOODMART SUPERMARKET, Lippo Mall Nusantara, Jl. Jend. Sudirman No.kav 50 Lt.B1, unit, Karet Semanggi, Kecamatan Setiabudi, Kota Jakarta Selatan, Daerah Khusus Ibukota Jakarta 12930";"Lippo Mall Nusantara, Jl. Jend. Sudirman No.kav 50 Lt.B1, unit, Karet Semanggi, Kecamatan Setiabudi, Kota Jakarta Selatan";"PAPUA";"12930";"Indonesia";" 08118331631";"-6.2197194";"106.8144731";"https://maps.google.com/?cid=0x0:0x9d9b624afb9570f0"
"supermarket";"supermarket";"Distrik Tlk. Ampimoi";"Kabupaten Kepulauan Yapen, Papua";"Kabupaten Kepulauan Yapen, Papua";"PAPUA";"";"Indonesia";"";"-1.8521856";"136.5246471";"https://maps.google.com/?cid=0x0:0x9f8f93e4402acbda"
"supermarket";"Toko";"Kios Sumber Nipah Jaya";"4HP2+8P7, Waita, Distrik Tlk. Ampimoi, Kabupaten Kepulauan Yapen, Papua";"Kabupaten Kepulauan Yapen, Papua";"PAPUA";"";"Indonesia";" 081240405528";"-1.8642227";"136.5517893";"https://maps.google.com/?cid=0x0:0xa6009cb999d3934"
"supermarket";"Toko Swalayan";"Hadi Supermarket";"Jl. Frans Kaisepo No.5, RT. 003/01, Warari, Kec. Yapen Sel., Kabupaten Kepulauan Yapen, Papua 98212";"RT. 003/01, Warari, Kec. Yapen Sel., Kabupaten Kepulauan Yapen";"PAPUA";"98212";"Indonesia";" 098334276";"-1.8751153";"136.2490809";"https://maps.google.com/?cid=0x0:0xf67310d4ed062031"
"supermarket";"Toko Swalayan";"Hadi Supermarket";"Jl. Frans Kaisepo No.5, RT. 003/01, Warari, Kec. Yapen Sel., Kabupaten Kepulauan Yapen, Papua 98212";"RT. 003/01, Warari, Kec. Yapen Sel., Kabupaten Kepulauan Yapen";"PAPUA";"98212";"Indonesia";" 098334276";"-1.8751153";"136.2490809";"https://maps.google.com/?cid=0x0:0xf67310d4ed062031"
"supermarket";"Toko";"YANMart Talagasari Cikupa";"Talagasari, Kec. Cikupa, Kabupaten Tangerang, Banten 15710";"Kec. Cikupa, Kabupaten Tangerang";"PAPUA";"15710";"Indonesia";" 02122028972";"-6.2272768";"106.5196286";"https://maps.google.com/?cid=0x0:0xd1e4cf77e60ffe96"
"supermarket";"Minimarket";"Toko Kita";"46FQ+6F8, Serui Kota, Kec. Yapen Sel., Kabupaten Kepulauan Yapen, Papua 98213";"Serui Kota, Kec. Yapen Sel., Kabupaten Kepulauan Yapen";"PAPUA";"98213";"Indonesia";" 081216233268";"-1.8769662";"136.2386957";"https://maps.google.com/?cid=0x0:0x6dadbe6c18278b00"
"supermarket";"Toko Buku";"Indah Pasaraya Serui Indah";"Jl. Moh. Yamin, Serui Kota, Kec. Yapen Sel., Kabupaten Kepulauan Yapen, Papua 98215";"Serui Kota, Kec. Yapen Sel., Kabupaten Kepulauan Yapen";"PAPUA";"98215";"Indonesia";"";"-1.8836014";"136.2384964";"https://maps.google.com/?cid=0x0:0x7d9f1453d5882191"
"supermarket";"Toko Swalayan";"Surya Mart";"C8V2+G83, Jl. Irian Kepi, Kepi, Kec. Obaa, Kabupaten Mappi, Papua 99881";"Jl. Irian Kepi, Kepi, Kec. Obaa, Kabupaten Mappi";"PAPUA";"99881";"Indonesia";" 085254867242";"-6.5562444";"139.3007867";"https://maps.google.com/?cid=0x0:0x160bad2921fdf723"
"supermarket";"Toko Swalayan";"Toko Ramayana Kepi";"C8V2+8C6, Jl. Irian Kepi, Kepi, Kec. Obaa, Kabupaten Mappi, Papua 99881";"Jl. Irian Kepi, Kepi, Kec. Obaa, Kabupaten Mappi";"PAPUA";"99881";"Indonesia";" 081342212767";"-6.5567053";"139.3010043";"https://maps.google.com/?cid=0x0:0x35982355481bae6c"
"supermarket";"Toko bahan makanan";"Toko Winda";"Q8R7+54, Yenbekaki, Distrik Waigeo Timur, Kabupaten Raja Ampat, Papua Bar.";"Kabupaten Raja Ampat, Papua Bar.";"PAPUA";"";"Indonesia";"";"-0.2095622";"131.3128223";"https://maps.google.com/?cid=0x0:0x9c2e8737cbb9be30"
"supermarket";"Toko Swalayan";"Loka Supermarket Cibubur";"Jl. Alternatif Cibubur No.3, Harjamukti, Kec. Cimanggis, Bekasi, Jawa Barat 16454";"Harjamukti, Kec. Cimanggis, Bekasi";"PAPUA";"16454";"Indonesia";" 02121284712";"-6.3754734";"106.9064335";"https://maps.google.com/?cid=0x0:0x3da04bb50caaaf10"
"supermarket";"Minimarket";"Mugunghwa PIK Supermarket korea";"6, RT.6/RW.2, Kamal Muara, Penjaringan, North Jakarta City, Jakarta";"Jkt Utara, Daerah Khusus Ibukota Jakarta";"PAPUA";"";"Indonesia";" 081388396190";"-6.103568";"106.7402651";"https://maps.google.com/?cid=0x0:0x2308245d48fd402c"
"supermarket";"supermarket";"Papua 98253";"Kabupaten Kepulauan Yapen, Papua";"Kabupaten Kepulauan Yapen, Papua";"PAPUA";"";"Indonesia";"";"-1.692705";"135.7710559";"https://maps.google.com/?cid=0x0:0xe712ef09824c8ae8"
"supermarket";"Toko bahan makanan";"Victory";"2FPF+3WM, Maniwak, Distrik Wasior, Kabupaten Teluk Wondama, Papua Bar. 98362";"Maniwak, Distrik Wasior, Kabupaten Teluk Wondama";"PAPUA";"98362";"Indonesia";"";"-2.9647961";"134.4748018";"https://maps.google.com/?cid=0x0:0xaa14ccf319f55d2c"
"supermarket";"supermarket";"Kios Rizky";"7GG4+7MR, Wasior II, Distrik Wasior, Kabupaten Teluk Wondama, Papua Bar. 98362";"Wasior II, Distrik Wasior, Kabupaten Teluk Wondama";"PAPUA";"98362";"Indonesia";"";"-2.7242502";"134.5066512";"https://maps.google.com/?cid=0x0:0xa597a86fb80fd52d"
"supermarket";"Toko Swalayan";"Loka Supermarket Cibubur";"Jl. Alternatif Cibubur No.3, Harjamukti, Kec. Cimanggis, Bekasi, Jawa Barat 16454";"Harjamukti, Kec. Cimanggis, Bekasi";"PAPUA";"16454";"Indonesia";" 02121284712";"-6.3754734";"106.9064335";"https://maps.google.com/?cid=0x0:0x3da04bb50caaaf10"
"supermarket";"Minimarket";"Mu Gung Hwa Supermarket - Cibubur";"Jl. Trace Yogie / Alternatif Cibubur No.9A, Harjamukti, Kec. Cimanggis, Kota Depok, Jawa Barat 16454";"Harjamukti, Kec. Cimanggis, Kota Depok";"PAPUA";"16454";"Indonesia";" 08111358156";"-6.375824";"106.899471";"https://maps.google.com/?cid=0x0:0xbb1759eab17d5cdc"
"supermarket";"Kedai Kopi";"Philocoffee";"Jl. Alternatif Cibubur No.KM 03, Harjamukti, Kec. Cimanggis, Kota Depok, Jawa Barat 16454";"Harjamukti, Kec. Cimanggis, Kota Depok";"PAPUA";"16454";"Indonesia";" 02121284724";"-6.3756278";"106.9064891";"https://maps.google.com/?cid=0x0:0x729ba5301b95927c"
"supermarket";"supermarket";"Papua 98254";"Kabupaten Kepulauan Yapen, Papua";"Kabupaten Kepulauan Yapen, Papua";"PAPUA";"";"Indonesia";"";"-1.668696";"135.9229866";"https://maps.google.com/?cid=0x0:0x786984f83d38aaec"
"supermarket";"Toko bahan makanan";"Toko Winda";"Q8R7+54, Yenbekaki, Distrik Waigeo Timur, Kabupaten Raja Ampat, Papua Bar.";"Kabupaten Raja Ampat, Papua Bar.";"PAPUA";"";"Indonesia";"";"-0.2095622";"131.3128223";"https://maps.google.com/?cid=0x0:0x9c2e8737cbb9be30"
"supermarket";"Pusat Perbelanjaan";"Kios Chivia";"9P7H+G3M, Rarisi, Distrik Poom, Kabupaten Kepulauan Yapen, Papua";"Kabupaten Kepulauan Yapen, Papua";"PAPUA";"";"Indonesia";"";"-1.6353186";"135.7269201";"https://maps.google.com/?cid=0x0:0xbc9ae246b1863f61"
"supermarket";"Toko Pakaian";"Hang Tua (Sebelum jembatan 3 Ton)";"84H9+6J, Rosbori, Distrik Windesi, Kabupaten Kepulauan Yapen, Papua";"Kabupaten Kepulauan Yapen, Papua";"PAPUA";"";"Indonesia";"";"-1.6719751";"136.119079";"https://maps.google.com/?cid=0x0:0x3637246e593ec93e"
"supermarket";"supermarket";"Kios Rizky";"7GG4+7MR, Wasior II, Distrik Wasior, Kabupaten Teluk Wondama, Papua Bar. 98362";"Wasior II, Distrik Wasior, Kabupaten Teluk Wondama";"PAPUA";"98362";"Indonesia";"";"-2.7242502";"134.5066512";"https://maps.google.com/?cid=0x0:0xa597a86fb80fd52d"
"supermarket";"supermarket";"Warung gembira";"7GC5+GJ5, Unnamed Road, Wasior I, Distrik Wasior, Kabupaten Teluk Wondama, Papua Bar. 98362";"Unnamed Road, Wasior I, Distrik Wasior, Kabupaten Teluk Wondama";"PAPUA";"98362";"Indonesia";"";"-2.7287309";"134.5091155";"https://maps.google.com/?cid=0x0:0x243162224ff36a25"
"supermarket";"Toko Swalayan";"Loka Supermarket Cibubur";"Jl. Alternatif Cibubur No.3, Harjamukti, Kec. Cimanggis, Bekasi, Jawa Barat 16454";"Harjamukti, Kec. Cimanggis, Bekasi";"PAPUA";"16454";"Indonesia";" 02121284712";"-6.3754734";"106.9064335";"https://maps.google.com/?cid=0x0:0x3da04bb50caaaf10"
"supermarket";"supermarket";"Papua Bar. 98361";"Kabupaten Teluk Wondama, Papua Bar.";"Kabupaten Teluk Wondama, Papua Bar.";"PAPUA";"";"Indonesia";"";"-2.4815085";"134.2099791";"https://maps.google.com/?cid=0x0:0xe298b41c3e32d0eb"
"supermarket";"Toko bahan makanan";"Toko Winda";"Q8R7+54, Yenbekaki, Distrik Waigeo Timur, Kabupaten Raja Ampat, Papua Bar.";"Kabupaten Raja Ampat, Papua Bar.";"PAPUA";"";"Indonesia";"";"-0.2095622";"131.3128223";"https://maps.google.com/?cid=0x0:0x9c2e8737cbb9be30"
"supermarket";"Pusat Perbelanjaan";"Loka Supermarket";"JF2P+JV6, Jalan Topo, wadio, Bumi Wonorejo, Distrik Nabire, Kabupaten Nabire, Papua 98813";"Jalan Topo, wadio, Bumi Wonorejo, Distrik Nabire, Kabupaten Nabire";"PAPUA";"98813";"Indonesia";" 098424688";"-3.3984625";"135.4871406";"https://maps.google.com/?cid=0x0:0x79cd9d7b246fedb4"
"supermarket";"supermarket";"Kios Kurei";"J49H+Q3G, Werabur, Distrik Nikiwar, Kabupaten Teluk Wondama, Papua Bar.";"Kabupaten Teluk Wondama, Papua Bar.";"PAPUA";"";"Indonesia";"";"-2.3805709";"134.1277024";"https://maps.google.com/?cid=0x0:0x4c6aee3cf47ef92b"
"supermarket";"supermarket";"Kios Kurei";"J45F+MRF, Werabur, Distrik Nikiwar, Kabupaten Teluk Wondama, Papua Bar.";"Kabupaten Teluk Wondama, Papua Bar.";"PAPUA";"";"Indonesia";"";"-2.390823";"134.1245436";"https://maps.google.com/?cid=0x0:0xceeec8cce64f5094"
"supermarket";"supermarket";"Kios Rizky";"7GG4+7MR, Wasior II, Distrik Wasior, Kabupaten Teluk Wondama, Papua Bar. 98362";"Wasior II, Distrik Wasior, Kabupaten Teluk Wondama";"PAPUA";"98362";"Indonesia";"";"-2.7242502";"134.5066512";"https://maps.google.com/?cid=0x0:0xa597a86fb80fd52d"
"supermarket";"supermarket";"Warung gembira";"7GC5+GJ5, Unnamed Road, Wasior I, Distrik Wasior, Kabupaten Teluk Wondama, Papua Bar. 98362";"Unnamed Road, Wasior I, Distrik Wasior, Kabupaten Teluk Wondama";"PAPUA";"98362";"Indonesia";"";"-2.7287309";"134.5091155";"https://maps.google.com/?cid=0x0:0x243162224ff36a25"
"supermarket";"Toko";"Samudra Supermarket";"8PP2+F75, Kroy, Kec. Kaimana, Kabupaten Kaimana, Papua Bar. 98654";"Kroy, Kec. Kaimana, Kabupaten Kaimana";"PAPUA";"98654";"Indonesia";" 08113189579";"-3.6631656";"133.7002039";"https://maps.google.com/?cid=0x0:0x97575d1c37a98621"
"supermarket";"Pasar";"Vanimo Supermarket";"877X+QXF, Vanimo Sandaun Province, Papua Nugini";"Vanimo, Papua Nugini";"PAPUA";"";"Indonesia";"";"-2.6855509";"141.2999132";"https://maps.google.com/?cid=0x0:0x847c46436536a9a"
"supermarket";"Toko Swalayan";"Loka Supermarket Cibubur";"Jl. Alternatif Cibubur No.3, Harjamukti, Kec. Cimanggis, Bekasi, Jawa Barat 16454";"Harjamukti, Kec. Cimanggis, Bekasi";"PAPUA";"16454";"Indonesia";" 02121284712";"-6.3754734";"106.9064335";"https://maps.google.com/?cid=0x0:0x3da04bb50caaaf10"
"supermarket";"Minimarket";"Mu Gung Hwa Supermarket - Cibubur";"Jl. Trace Yogie / Alternatif Cibubur No.9A, Harjamukti, Kec. Cimanggis, Kota Depok, Jawa Barat 16454";"Harjamukti, Kec. Cimanggis, Kota Depok";"PAPUA";"16454";"Indonesia";" 08111358156";"-6.375824";"106.899471";"https://maps.google.com/?cid=0x0:0xbb1759eab17d5cdc"
"supermarket";"Kedai Kopi";"Philocoffee";"Jl. Alternatif Cibubur No.KM 03, Harjamukti, Kec. Cimanggis, Kota Depok, Jawa Barat 16454";"Harjamukti, Kec. Cimanggis, Kota Depok";"PAPUA";"16454";"Indonesia";" 02121284724";"-6.3756278";"106.9064891";"https://maps.google.com/?cid=0x0:0x729ba5301b95927c"
"supermarket";"supermarket";"Distrik Pulau Kurudu";"Kabupaten Kepulauan Yapen, Papua";"Kabupaten Kepulauan Yapen, Papua";"PAPUA";"";"Indonesia";"";"-1.8369897";"137.0324636";"https://maps.google.com/?cid=0x0:0xa7a245ed4349075"
"supermarket";"supermarket";"Papua 98252";"Kabupaten Kepulauan Yapen, Papua";"Kabupaten Kepulauan Yapen, Papua";"PAPUA";"";"Indonesia";"";"-1.7581253";"136.5547852";"https://maps.google.com/?cid=0x0:0xe52dde0e102e427c"
"supermarket";"Pusat Perbelanjaan";"Papua Supermarket  Dept. Store";"4869+F77 Bar, Sawagumu, Kec. Sorong Utara, Kota Sorong, Papua Bar. 98416";"Sawagumu, Kec. Sorong Utara, Kota Sorong";"PAPUA";"98416";"Indonesia";" 09513160123";"-0.888831";"131.3181847";"https://maps.google.com/?cid=0x0:0x7b5f0926a74ad213"
"supermarket";"supermarket";"N/A";"";"";"PAPUA";"";"Indonesia";" 081247086162";"-4.8740403";"137.8090696";"https://maps.google.com/?cid=0x0:0x8ab1890d08866233"
"supermarket";"supermarket";"Penyewaan perahu Kurudu, Kabupaten Kepulauan Yapen, Papua";"525P+W7, Kurudu, Distrik Pulau Kurudu, Kabupaten Kepulauan Yapen, Papua 98252";"Kurudu, Distrik Pulau Kurudu, Kabupaten Kepulauan Yapen";"PAPUA";"98252";"Indonesia";"";"-1.8401863";"137.0356223";"https://maps.google.com/?cid=0x0:0xa5c40f1ce9374cee"
"supermarket";"supermarket";"Kec. Pulau Yerui";"Miosnum, Kabupaten Kepulauan Yapen, Papua";"Kabupaten Kepulauan Yapen, Papua";"PAPUA";"";"Indonesia";"";"-1.4878278";"135.3337148";"https://maps.google.com/?cid=0x0:0xf1f496c1e419df1f"
"supermarket";"Toko Swalayan";"Hadi Supermarket";"Jl. Frans Kaisepo No.5, RT. 003/01, Warari, Kec. Yapen Sel., Kabupaten Kepulauan Yapen, Papua 98212";"RT. 003/01, Warari, Kec. Yapen Sel., Kabupaten Kepulauan Yapen";"PAPUA";"98212";"Indonesia";" 098334276";"-1.8751153";"136.2490809";"https://maps.google.com/?cid=0x0:0xf67310d4ed062031"
"supermarket";"supermarket";"KIOS DARNO BUTON";"G85P+888 Pulau Num, Miosnum, Kec. Pulau Yerui, Kabupaten Kepulauan Yapen, Papua";"Kabupaten Kepulauan Yapen, Papua";"PAPUA";"";"Indonesia";"";"-1.4917207";"135.3358163";"https://maps.google.com/?cid=0x0:0x8dd39c8b381056cc"
"cafe";"Kedai Kopi";"Rioco";"Jl. Maluku, Serui Kota, Kec. Yapen Sel., Kabupaten Kepulauan Yapen, Papua 98211";"Serui Kota, Kec. Yapen Sel., Kabupaten Kepulauan Yapen";"PAPUA";"98211";"Indonesia";" 082335387595";"-1.879931";"136.2259496";"https://maps.google.com/?cid=0x0:0xcd06966c9ddfefb9"
"cafe";"Kafe";"Karariri Coffee  Eatery";"46HQ+7HR, Jl. Hassanudin, Serui Kota, Kec. Yapen Sel., Kabupaten Kepulauan Yapen, Papua";"Kabupaten Kepulauan Yapen, Papua";"PAPUA";"";"Indonesia";"";"-1.8717744";"136.2388775";"https://maps.google.com/?cid=0x0:0x884a42394257efa9"
"cafe";"cafe";"N/A";"";"";"PAPUA";"";"Indonesia";"";"";"";"https://maps.google.com/?cid=0x0:0x884a42394257efa9u0026onu003dKopi+Markisau0026midu003d/g/11vjfkv5yk"
"cafe";"cafe";"N/A";"";"";"PAPUA";"";"Indonesia";"";"";"";"https://maps.google.com/?cid=0x0:0x884a42394257efa9u0026onu003dSpaghetti+Bolognese+Pastau0026midu003d/g/11vjfkv5yk"
"cafe";"cafe";"N/A";"";"";"PAPUA";"";"Indonesia";"";"";"";"https://maps.google.com/?cid=0x0:0x884a42394257efa9u0026onu0026midu003d/g/11vjfkv5yk"
"cafe";"cafe";"Papua 98253";"Kabupaten Kepulauan Yapen, Papua";"Kabupaten Kepulauan Yapen, Papua";"PAPUA";"";"Indonesia";"";"-1.692705";"135.7710559";"https://maps.google.com/?cid=0x0:0xe712ef09824c8ae8"
"cafe";"Kedai Kopi";"CORNER Cafe";"4763+6G2, Jl. Moh. Hatta, Warari, Kec. Yapen Sel., Kabupaten Kepulauan Yapen, Papua 98212";"Jl. Moh. Hatta, Warari, Kec. Yapen Sel., Kabupaten Kepulauan Yapen";"PAPUA";"98212";"Indonesia";" 085258510000";"-1.8894765";"136.2537775";"https://maps.google.com/?cid=0x0:0x15dc32038ef27e93"
"cafe";"Dapur Umum";"CAFE MATA KITAAA";"46RQ+725, Unnamed Road, Mantembu, Kec. Yapen Sel., Kabupaten Kepulauan Yapen, Papua 98211";"Unnamed Road, Mantembu, Kec. Yapen Sel., Kabupaten Kepulauan Yapen";"PAPUA";"98211";"Indonesia";"";"-1.8593617";"136.2376143";"https://maps.google.com/?cid=0x0:0x66164c98239f5dd0"
"cafe";"Kedai Kopi";"warkop Republik Coffee";"46GX+2Q7, Unnamed Road, Warari, Kec. Yapen Sel., Kabupaten Kepulauan Yapen, Papua 98213";"Unnamed Road, Warari, Kec. Yapen Sel., Kabupaten Kepulauan Yapen";"PAPUA";"98213";"Indonesia";" 082293417644";"-1.8749715";"136.2494163";"https://maps.google.com/?cid=0x0:0x8e004e64d053e640"
"cafe";"Kedai Kopi";"GD Cafe";"46FW+W33, Gg. I KPR, Famboaman, Kec. Yapen Sel., Kabupaten Kepulauan Yapen, Papua 98213";"Gg. I KPR, Famboaman, Kec. Yapen Sel., Kabupaten Kepulauan Yapen";"PAPUA";"98213";"Indonesia";" 082199183168";"-1.8752401";"136.245179";"https://maps.google.com/?cid=0x0:0x6d0d16f02857b4f7"
"cafe";"Kedai Kopi";"Rthree coffee  rest";"468P+5PJ, Jl. Padat Karya, Serui Kota, Kec. Yapen Sel., Kabupaten Kepulauan Yapen, Papua 98627";"Jl. Padat Karya, Serui Kota, Kec. Yapen Sel., Kabupaten Kepulauan Yapen";"PAPUA";"98627";"Indonesia";" 081241584548";"-1.8845257";"136.2367688";"https://maps.google.com/?cid=0x0:0x972620a571113986"
"cafe";"Kedai Kopi";"Oikopi";"Jl. Padat Karya, Tarau, Kec. Yapen Sel., Kabupaten Kepulauan Yapen, Papua 98215";"Tarau, Kec. Yapen Sel., Kabupaten Kepulauan Yapen";"PAPUA";"98215";"Indonesia";" 085246386239";"-1.8817318";"136.2350141";"https://maps.google.com/?cid=0x0:0xb5bf06580e25e22c"
"cafe";"Kedai Kopi";"arabi Coffee";"Jl. Frans Kaisepo, Kaisepo, Kec. Yapen Sel., Kabupaten Kepulauan Yapen, Papua 98213";"Kaisepo, Kec. Yapen Sel., Kabupaten Kepulauan Yapen";"PAPUA";"98213";"Indonesia";" 081242795490";"-1.8775288";"136.2468077";"https://maps.google.com/?cid=0x0:0xe2d475d10c403795"
"cafe";"Kafe";"Classic 2 kafe";"46PQ+VJ5, Mantembu, Kec. Yapen Sel., Kabupaten Kepulauan Yapen, Papua 98211";"Mantembu, Kec. Yapen Sel., Kabupaten Kepulauan Yapen";"PAPUA";"98211";"Indonesia";"";"-1.8628667";"136.239106";"https://maps.google.com/?cid=0x0:0x1836408221a6f57a"
"cafe";"cafe";"Papua 98211";"Kec. Yapen Sel., Kabupaten Kepulauan Yapen, Papua";"Kabupaten Kepulauan Yapen, Papua";"PAPUA";"";"Indonesia";"";"-1.7995067";"136.2570137";"https://maps.google.com/?cid=0x0:0xb2b850cfde1935fd"
"cafe";"Dapur Umum";"CAFE MATA KITAAA";"46RQ+725, Unnamed Road, Mantembu, Kec. Yapen Sel., Kabupaten Kepulauan Yapen, Papua 98211";"Unnamed Road, Mantembu, Kec. Yapen Sel., Kabupaten Kepulauan Yapen";"PAPUA";"98211";"Indonesia";"";"-1.8593617";"136.2376143";"https://maps.google.com/?cid=0x0:0x66164c98239f5dd0"
"cafe";"Kedai Kopi";"CORNER Cafe";"4763+6G2, Jl. Moh. Hatta, Warari, Kec. Yapen Sel., Kabupaten Kepulauan Yapen, Papua 98212";"Jl. Moh. Hatta, Warari, Kec. Yapen Sel., Kabupaten Kepulauan Yapen";"PAPUA";"98212";"Indonesia";" 085258510000";"-1.8894765";"136.2537775";"https://maps.google.com/?cid=0x0:0x15dc32038ef27e93"
"cafe";"Kedai Kopi";"Rioco";"Jl. Maluku, Serui Kota, Kec. Yapen Sel., Kabupaten Kepulauan Yapen, Papua 98211";"Serui Kota, Kec. Yapen Sel., Kabupaten Kepulauan Yapen";"PAPUA";"98211";"Indonesia";" 082335387595";"-1.879931";"136.2259496";"https://maps.google.com/?cid=0x0:0xcd06966c9ddfefb9"
"cafe";"Kedai Kopi";"GD Cafe";"46FW+W33, Gg. I KPR, Famboaman, Kec. Yapen Sel., Kabupaten Kepulauan Yapen, Papua 98213";"Gg. I KPR, Famboaman, Kec. Yapen Sel., Kabupaten Kepulauan Yapen";"PAPUA";"98213";"Indonesia";" 082199183168";"-1.8752401";"136.245179";"https://maps.google.com/?cid=0x0:0x6d0d16f02857b4f7"
"cafe";"Kedai Kopi";"arabi Coffee";"Jl. Frans Kaisepo, Kaisepo, Kec. Yapen Sel., Kabupaten Kepulauan Yapen, Papua 98213";"Kaisepo, Kec. Yapen Sel., Kabupaten Kepulauan Yapen";"PAPUA";"98213";"Indonesia";" 081242795490";"-1.8775288";"136.2468077";"https://maps.google.com/?cid=0x0:0xe2d475d10c403795"
"cafe";"Kedai Kopi";"warkop Republik Coffee";"46GX+2Q7, Unnamed Road, Warari, Kec. Yapen Sel., Kabupaten Kepulauan Yapen, Papua 98213";"Unnamed Road, Warari, Kec. Yapen Sel., Kabupaten Kepulauan Yapen";"PAPUA";"98213";"Indonesia";" 082293417644";"-1.8749715";"136.2494163";"https://maps.google.com/?cid=0x0:0x8e004e64d053e640"
"cafe";"Kafe";"Classic#1Cafe";"46RP+492, Mantembu, Kec. Yapen Sel., Kabupaten Kepulauan Yapen, Papua 98211";"Mantembu, Kec. Yapen Sel., Kabupaten Kepulauan Yapen";"PAPUA";"98211";"Indonesia";"";"-1.8597258";"136.2359024";"https://maps.google.com/?cid=0x0:0x1167154d86a3841e"
"cafe";"Kedai Kopi";"Domino Café";"468V+4VH, Serui Kota, Kec. Yapen Sel., Kabupaten Kepulauan Yapen, Papua 98215";"Serui Kota, Kec. Yapen Sel., Kabupaten Kepulauan Yapen";"PAPUA";"98215";"Indonesia";" 081240509805";"-1.8846804";"136.2447424";"https://maps.google.com/?cid=0x0:0x199fe5be8a44fa07"
"cafe";"Kedai Kopi";"SETIA CAFE";"46FR+6R5, Serui Jaya, Kec. Yapen Sel., Kabupaten Kepulauan Yapen, Papua 98213";"Serui Jaya, Kec. Yapen Sel., Kabupaten Kepulauan Yapen";"PAPUA";"98213";"Indonesia";"";"-1.8772767";"136.2424757";"https://maps.google.com/?cid=0x0:0xc0de8f5469650110"
"cafe";"Kafe";"Enjoy";"Jalan moh.toha, anotaurei, Kec. Yapen Sel., Kabupaten Kepulauan Yapen, Papua 98211";"anotaurei, Kec. Yapen Sel., Kabupaten Kepulauan Yapen";"PAPUA";"98211";"Indonesia";"";"-1.8627747";"136.2384829";"https://maps.google.com/?cid=0x0:0x131dfb2a528fb53f"
"cafe";"Kafe";"TONK PU CAFE  RESTO";"Warari, Kec. Yapen Sel., Kabupaten Kepulauan Yapen, Papua 98212";"Kec. Yapen Sel., Kabupaten Kepulauan Yapen";"PAPUA";"98212";"Indonesia";" 08522342132";"-1.8748379";"136.2489907";"https://maps.google.com/?cid=0x0:0x92750332302c358e"
"cafe";"Kafe";"Maharani";"46PQ+HQJ, Anatorei, Kec. Yapen Sel., Kabupaten Kepulauan Yapen, Papua 98211";"Anatorei, Kec. Yapen Sel., Kabupaten Kepulauan Yapen";"PAPUA";"98211";"Indonesia";"";"-1.8635391";"136.2393854";"https://maps.google.com/?cid=0x0:0x3f318d924627cb16"
"cafe";"Kedai Kopi";"Oikopi";"Jl. Padat Karya, Tarau, Kec. Yapen Sel., Kabupaten Kepulauan Yapen, Papua 98215";"Tarau, Kec. Yapen Sel., Kabupaten Kepulauan Yapen";"PAPUA";"98215";"Indonesia";" 085246386239";"-1.8817318";"136.2350141";"https://maps.google.com/?cid=0x0:0xb5bf06580e25e22c"
"cafe";"Kedai Kopi";"CORNER Cafe";"4763+6G2, Jl. Moh. Hatta, Warari, Kec. Yapen Sel., Kabupaten Kepulauan Yapen, Papua 98212";"Jl. Moh. Hatta, Warari, Kec. Yapen Sel., Kabupaten Kepulauan Yapen";"PAPUA";"98212";"Indonesia";" 085258510000";"-1.8894765";"136.2537775";"https://maps.google.com/?cid=0x0:0x15dc32038ef27e93"
"cafe";"cafe";"Papua 98212";"Warari, Kec. Yapen Sel., Kabupaten Kepulauan Yapen, Papua";"Kabupaten Kepulauan Yapen, Papua";"PAPUA";"";"Indonesia";"";"-1.8764518";"136.2546196";"https://maps.google.com/?cid=0x0:0x297f020ff7113bd"
"cafe";"Kafe";"TONK PU CAFE  RESTO";"Warari, Kec. Yapen Sel., Kabupaten Kepulauan Yapen, Papua 98212";"Kec. Yapen Sel., Kabupaten Kepulauan Yapen";"PAPUA";"98212";"Indonesia";" 08522342132";"-1.8748379";"136.2489907";"https://maps.google.com/?cid=0x0:0x92750332302c358e"
"cafe";"Kedai Kopi";"arabi Coffee";"Jl. Frans Kaisepo, Kaisepo, Kec. Yapen Sel., Kabupaten Kepulauan Yapen, Papua 98213";"Kaisepo, Kec. Yapen Sel., Kabupaten Kepulauan Yapen";"PAPUA";"98213";"Indonesia";" 081242795490";"-1.8775288";"136.2468077";"https://maps.google.com/?cid=0x0:0xe2d475d10c403795"
"cafe";"Kedai Kopi";"Domino Café";"468V+4VH, Serui Kota, Kec. Yapen Sel., Kabupaten Kepulauan Yapen, Papua 98215";"Serui Kota, Kec. Yapen Sel., Kabupaten Kepulauan Yapen";"PAPUA";"98215";"Indonesia";" 081240509805";"-1.8846804";"136.2447424";"https://maps.google.com/?cid=0x0:0x199fe5be8a44fa07"
"cafe";"Kedai Kopi";"GD Cafe";"46FW+W33, Gg. I KPR, Famboaman, Kec. Yapen Sel., Kabupaten Kepulauan Yapen, Papua 98213";"Gg. I KPR, Famboaman, Kec. Yapen Sel., Kabupaten Kepulauan Yapen";"PAPUA";"98213";"Indonesia";" 082199183168";"-1.8752401";"136.245179";"https://maps.google.com/?cid=0x0:0x6d0d16f02857b4f7"
"cafe";"Kedai Kopi";"warkop Republik Coffee";"46GX+2Q7, Unnamed Road, Warari, Kec. Yapen Sel., Kabupaten Kepulauan Yapen, Papua 98213";"Unnamed Road, Warari, Kec. Yapen Sel., Kabupaten Kepulauan Yapen";"PAPUA";"98213";"Indonesia";" 082293417644";"-1.8749715";"136.2494163";"https://maps.google.com/?cid=0x0:0x8e004e64d053e640"
"cafe";"Dapur Umum";"CAFE MATA KITAAA";"46RQ+725, Unnamed Road, Mantembu, Kec. Yapen Sel., Kabupaten Kepulauan Yapen, Papua 98211";"Unnamed Road, Mantembu, Kec. Yapen Sel., Kabupaten Kepulauan Yapen";"PAPUA";"98211";"Indonesia";"";"-1.8593617";"136.2376143";"https://maps.google.com/?cid=0x0:0x66164c98239f5dd0"
"cafe";"Kafe";"Classic 2 kafe";"46PQ+VJ5, Mantembu, Kec. Yapen Sel., Kabupaten Kepulauan Yapen, Papua 98211";"Mantembu, Kec. Yapen Sel., Kabupaten Kepulauan Yapen";"PAPUA";"98211";"Indonesia";"";"-1.8628667";"136.239106";"https://maps.google.com/?cid=0x0:0x1836408221a6f57a"
"cafe";"Kedai Kopi";"SETIA CAFE";"46FR+6R5, Serui Jaya, Kec. Yapen Sel., Kabupaten Kepulauan Yapen, Papua 98213";"Serui Jaya, Kec. Yapen Sel., Kabupaten Kepulauan Yapen";"PAPUA";"98213";"Indonesia";"";"-1.8772767";"136.2424757";"https://maps.google.com/?cid=0x0:0xc0de8f5469650110"
"cafe";"Kafe";"RG_BARKIT";"47G3+244, Jl. Ke Menawi, Warari, Kec. Yapen Sel., Kabupaten Kepulauan Yapen, Papua 98212";"Jl. Ke Menawi, Warari, Kec. Yapen Sel., Kabupaten Kepulauan Yapen";"PAPUA";"98212";"Indonesia";"";"-1.8749753";"136.2528303";"https://maps.google.com/?cid=0x0:0x6f123f1cc98338b4"
"cafe";"Kedai Kopi";"Oikopi";"Jl. Padat Karya, Tarau, Kec. Yapen Sel., Kabupaten Kepulauan Yapen, Papua 98215";"Tarau, Kec. Yapen Sel., Kabupaten Kepulauan Yapen";"PAPUA";"98215";"Indonesia";" 085246386239";"-1.8817318";"136.2350141";"https://maps.google.com/?cid=0x0:0xb5bf06580e25e22c"
"cafe";"Kedai Kopi";"Cafe six6lounge  cavabonnugget";"46GQ+MHQ, Serui Kota, Kec. Yapen Sel., Kabupaten Kepulauan Yapen, Papua 98213";"Serui Kota, Kec. Yapen Sel., Kabupaten Kepulauan Yapen";"PAPUA";"98213";"Indonesia";" 082343387575";"-1.8732783";"136.2388577";"https://maps.google.com/?cid=0x0:0x8e0076f773f51b5e"
"cafe";"Kafe";"Pondok Noken Manbers";"47F3+X6R, Jl. Frans Kaisepo, Warari, Kec. Yapen Sel., Kabupaten Kepulauan Yapen, Papua 98213";"Jl. Frans Kaisepo, Warari, Kec. Yapen Sel., Kabupaten Kepulauan Yapen";"PAPUA";"98213";"Indonesia";" 081248839720";"-1.8750091";"136.2530212";"https://maps.google.com/?cid=0x0:0x2c332521d56e14c1"
"cafe";"cafe";"Papua 98213";"Kec. Yapen Sel., Kabupaten Kepulauan Yapen, Papua";"Kabupaten Kepulauan Yapen, Papua";"PAPUA";"";"Indonesia";"";"-1.8722668";"136.2354713";"https://maps.google.com/?cid=0x0:0xf81978a1f9fcf655"
"cafe";"Kafe";"Karariri Coffee  Eatery";"46HQ+7HR, Jl. Hassanudin, Serui Kota, Kec. Yapen Sel., Kabupaten Kepulauan Yapen, Papua";"Kabupaten Kepulauan Yapen, Papua";"PAPUA";"";"Indonesia";"";"-1.8717744";"136.2388775";"https://maps.google.com/?cid=0x0:0x884a42394257efa9"
"cafe";"Dapur Umum";"CAFE MATA KITAAA";"46RQ+725, Unnamed Road, Mantembu, Kec. Yapen Sel., Kabupaten Kepulauan Yapen, Papua 98211";"Unnamed Road, Mantembu, Kec. Yapen Sel., Kabupaten Kepulauan Yapen";"PAPUA";"98211";"Indonesia";"";"-1.8593617";"136.2376143";"https://maps.google.com/?cid=0x0:0x66164c98239f5dd0"
"cafe";"Kedai Kopi";"GD Cafe";"46FW+W33, Gg. I KPR, Famboaman, Kec. Yapen Sel., Kabupaten Kepulauan Yapen, Papua 98213";"Gg. I KPR, Famboaman, Kec. Yapen Sel., Kabupaten Kepulauan Yapen";"PAPUA";"98213";"Indonesia";" 082199183168";"-1.8752401";"136.245179";"https://maps.google.com/?cid=0x0:0x6d0d16f02857b4f7"
"cafe";"Kedai Kopi";"CORNER Cafe";"4763+6G2, Jl. Moh. Hatta, Warari, Kec. Yapen Sel., Kabupaten Kepulauan Yapen, Papua 98212";"Jl. Moh. Hatta, Warari, Kec. Yapen Sel., Kabupaten Kepulauan Yapen";"PAPUA";"98212";"Indonesia";" 085258510000";"-1.8894765";"136.2537775";"https://maps.google.com/?cid=0x0:0x15dc32038ef27e93"
"cafe";"Kedai Kopi";"Cafe six6lounge  cavabonnugget";"46GQ+MHQ, Serui Kota, Kec. Yapen Sel., Kabupaten Kepulauan Yapen, Papua 98213";"Serui Kota, Kec. Yapen Sel., Kabupaten Kepulauan Yapen";"PAPUA";"98213";"Indonesia";" 082343387575";"-1.8732783";"136.2388577";"https://maps.google.com/?cid=0x0:0x8e0076f773f51b5e"
"cafe";"Kedai Kopi";"warkop Republik Coffee";"46GX+2Q7, Unnamed Road, Warari, Kec. Yapen Sel., Kabupaten Kepulauan Yapen, Papua 98213";"Unnamed Road, Warari, Kec. Yapen Sel., Kabupaten Kepulauan Yapen";"PAPUA";"98213";"Indonesia";" 082293417644";"-1.8749715";"136.2494163";"https://maps.google.com/?cid=0x0:0x8e004e64d053e640"
"cafe";"Kedai Kopi";"SETIA CAFE";"46FR+6R5, Serui Jaya, Kec. Yapen Sel., Kabupaten Kepulauan Yapen, Papua 98213";"Serui Jaya, Kec. Yapen Sel., Kabupaten Kepulauan Yapen";"PAPUA";"98213";"Indonesia";"";"-1.8772767";"136.2424757";"https://maps.google.com/?cid=0x0:0xc0de8f5469650110"
"cafe";"Kedai Kopi";"History Cafe";"46GR+V3X, Serui Kota, Kec. Yapen Sel., Kabupaten Kepulauan Yapen, Papua 98213";"Serui Kota, Kec. Yapen Sel., Kabupaten Kepulauan Yapen";"PAPUA";"98213";"Indonesia";"";"-1.8727586";"136.240242";"https://maps.google.com/?cid=0x0:0xd5a3a90561e257c"
"cafe";"Kedai Kopi";"Domino Café";"468V+4VH, Serui Kota, Kec. Yapen Sel., Kabupaten Kepulauan Yapen, Papua 98215";"Serui Kota, Kec. Yapen Sel., Kabupaten Kepulauan Yapen";"PAPUA";"98215";"Indonesia";" 081240509805";"-1.8846804";"136.2447424";"https://maps.google.com/?cid=0x0:0x199fe5be8a44fa07"
"cafe";"Kedai Kopi";"Rthree coffee  rest";"468P+5PJ, Jl. Padat Karya, Serui Kota, Kec. Yapen Sel., Kabupaten Kepulauan Yapen, Papua 98627";"Jl. Padat Karya, Serui Kota, Kec. Yapen Sel., Kabupaten Kepulauan Yapen";"PAPUA";"98627";"Indonesia";" 081241584548";"-1.8845257";"136.2367688";"https://maps.google.com/?cid=0x0:0x972620a571113986"
"cafe";"cafe";"Ai Coffee";"469Q+86P, Jl. Kapitan Pattimura, Serui Kota, Kec. Yapen Sel., Kabupaten Kepulauan Yapen, Papua 98215";"Jl. Kapitan Pattimura, Serui Kota, Kec. Yapen Sel., Kabupaten Kepulauan Yapen";"PAPUA";"98215";"Indonesia";" 085244930342";"-1.8816738";"136.2380813";"https://maps.google.com/?cid=0x0:0xff771704e8c071d8"
"cafe";"Kedai Kopi";"Rioco";"Jl. Maluku, Serui Kota, Kec. Yapen Sel., Kabupaten Kepulauan Yapen, Papua 98211";"Serui Kota, Kec. Yapen Sel., Kabupaten Kepulauan Yapen";"PAPUA";"98211";"Indonesia";" 082335387595";"-1.879931";"136.2259496";"https://maps.google.com/?cid=0x0:0xcd06966c9ddfefb9"
"cafe";"Kedai Kopi";"Oikopi";"Jl. Padat Karya, Tarau, Kec. Yapen Sel., Kabupaten Kepulauan Yapen, Papua 98215";"Tarau, Kec. Yapen Sel., Kabupaten Kepulauan Yapen";"PAPUA";"98215";"Indonesia";" 085246386239";"-1.8817318";"136.2350141";"https://maps.google.com/?cid=0x0:0xb5bf06580e25e22c"
"cafe";"cafe";"Papua 98214";"Yapan, Kec. Yapen Sel., Kabupaten Kepulauan Yapen, Papua";"Kabupaten Kepulauan Yapen, Papua";"PAPUA";"";"Indonesia";"";"-1.8312862";"136.2426511";"https://maps.google.com/?cid=0x0:0x80248e4590702d10"
"cafe";"Dapur Umum";"CAFE MATA KITAAA";"46RQ+725, Unnamed Road, Mantembu, Kec. Yapen Sel., Kabupaten Kepulauan Yapen, Papua 98211";"Unnamed Road, Mantembu, Kec. Yapen Sel., Kabupaten Kepulauan Yapen";"PAPUA";"98211";"Indonesia";"";"-1.8593617";"136.2376143";"https://maps.google.com/?cid=0x0:0x66164c98239f5dd0"
"cafe";"Kafe";"Karariri Coffee  Eatery";"46HQ+7HR, Jl. Hassanudin, Serui Kota, Kec. Yapen Sel., Kabupaten Kepulauan Yapen, Papua";"Kabupaten Kepulauan Yapen, Papua";"PAPUA";"";"Indonesia";"";"-1.8717744";"136.2388775";"https://maps.google.com/?cid=0x0:0x884a42394257efa9"
"cafe";"Kafe";"Enjoy";"Jalan moh.toha, anotaurei, Kec. Yapen Sel., Kabupaten Kepulauan Yapen, Papua 98211";"anotaurei, Kec. Yapen Sel., Kabupaten Kepulauan Yapen";"PAPUA";"98211";"Indonesia";"";"-1.8627747";"136.2384829";"https://maps.google.com/?cid=0x0:0x131dfb2a528fb53f"
"cafe";"Kafe";"Classic 2 kafe";"46PQ+VJ5, Mantembu, Kec. Yapen Sel., Kabupaten Kepulauan Yapen, Papua 98211";"Mantembu, Kec. Yapen Sel., Kabupaten Kepulauan Yapen";"PAPUA";"98211";"Indonesia";"";"-1.8628667";"136.239106";"https://maps.google.com/?cid=0x0:0x1836408221a6f57a"
"cafe";"Kedai Kopi";"arabi Coffee";"Jl. Frans Kaisepo, Kaisepo, Kec. Yapen Sel., Kabupaten Kepulauan Yapen, Papua 98213";"Kaisepo, Kec. Yapen Sel., Kabupaten Kepulauan Yapen";"PAPUA";"98213";"Indonesia";" 081242795490";"-1.8775288";"136.2468077";"https://maps.google.com/?cid=0x0:0xe2d475d10c403795"
"cafe";"Kafe";"Maharani";"46PQ+HQJ, Anatorei, Kec. Yapen Sel., Kabupaten Kepulauan Yapen, Papua 98211";"Anatorei, Kec. Yapen Sel., Kabupaten Kepulauan Yapen";"PAPUA";"98211";"Indonesia";"";"-1.8635391";"136.2393854";"https://maps.google.com/?cid=0x0:0x3f318d924627cb16"
"cafe";"Kafe";"TONK PU CAFE  RESTO";"Warari, Kec. Yapen Sel., Kabupaten Kepulauan Yapen, Papua 98212";"Kec. Yapen Sel., Kabupaten Kepulauan Yapen";"PAPUA";"98212";"Indonesia";" 08522342132";"-1.8748379";"136.2489907";"https://maps.google.com/?cid=0x0:0x92750332302c358e"
"cafe";"Kedai Kopi";"Oikopi";"Jl. Padat Karya, Tarau, Kec. Yapen Sel., Kabupaten Kepulauan Yapen, Papua 98215";"Tarau, Kec. Yapen Sel., Kabupaten Kepulauan Yapen";"PAPUA";"98215";"Indonesia";" 085246386239";"-1.8817318";"136.2350141";"https://maps.google.com/?cid=0x0:0xb5bf06580e25e22c"
"cafe";"Kafe";"Classic#1Cafe";"46RP+492, Mantembu, Kec. Yapen Sel., Kabupaten Kepulauan Yapen, Papua 98211";"Mantembu, Kec. Yapen Sel., Kabupaten Kepulauan Yapen";"PAPUA";"98211";"Indonesia";"";"-1.8597258";"136.2359024";"https://maps.google.com/?cid=0x0:0x1167154d86a3841e"
"cafe";"Kedai Kopi";"warkop Republik Coffee";"46GX+2Q7, Unnamed Road, Warari, Kec. Yapen Sel., Kabupaten Kepulauan Yapen, Papua 98213";"Unnamed Road, Warari, Kec. Yapen Sel., Kabupaten Kepulauan Yapen";"PAPUA";"98213";"Indonesia";" 082293417644";"-1.8749715";"136.2494163";"https://maps.google.com/?cid=0x0:0x8e004e64d053e640"
"cafe";"Tujuan Wisata";"Aide Pu Tempat";"46MR+H32, Famboaman, Kec. Yapen Sel., Kabupaten Kepulauan Yapen, Papua 98213";"Famboaman, Kec. Yapen Sel., Kabupaten Kepulauan Yapen";"PAPUA";"98213";"Indonesia";"";"-1.8661156";"136.2401348";"https://maps.google.com/?cid=0x0:0xeb97f1044c696eb3"
"cafe";"Kedai Kopi";"Pondok_kopiaide";"Jalan pertanian wainakawini, Anatorei, Kec. Yapen Sel., Kabupaten Kepulauan Yapen, Papua 98213";"Anatorei, Kec. Yapen Sel., Kabupaten Kepulauan Yapen";"PAPUA";"98213";"Indonesia";" 082197849420";"-1.8696428";"136.2363142";"https://maps.google.com/?cid=0x0:0xeb737ada76360073"
"cafe";"Kedai Kopi";"Kopi Yoi";"Jl. Palapa, Serui Kota, Kec. Yapen Sel., Kabupaten Kepulauan Yapen, Papua 98215";"Serui Kota, Kec. Yapen Sel., Kabupaten Kepulauan Yapen";"PAPUA";"98215";"Indonesia";" 082335387595";"-1.8814483";"136.2415865";"https://maps.google.com/?cid=0x0:0x904943177ae0c946"
"cafe";"Kedai Kopi";"CORNER Cafe";"4763+6G2, Jl. Moh. Hatta, Warari, Kec. Yapen Sel., Kabupaten Kepulauan Yapen, Papua 98212";"Jl. Moh. Hatta, Warari, Kec. Yapen Sel., Kabupaten Kepulauan Yapen";"PAPUA";"98212";"Indonesia";" 085258510000";"-1.8894765";"136.2537775";"https://maps.google.com/?cid=0x0:0x15dc32038ef27e93"
"cafe";"cafe";"Kec. Yapen Sel.";"Kabupaten Kepulauan Yapen, Papua";"Kabupaten Kepulauan Yapen, Papua";"PAPUA";"";"Indonesia";"";"-1.884104";"136.2418748";"https://maps.google.com/?cid=0x0:0x3f81bf02f4d4d5c7"
"cafe";"Dapur Umum";"CAFE MATA KITAAA";"46RQ+725, Unnamed Road, Mantembu, Kec. Yapen Sel., Kabupaten Kepulauan Yapen, Papua 98211";"Unnamed Road, Mantembu, Kec. Yapen Sel., Kabupaten Kepulauan Yapen";"PAPUA";"98211";"Indonesia";"";"-1.8593617";"136.2376143";"https://maps.google.com/?cid=0x0:0x66164c98239f5dd0"
"cafe";"cafe";"Ai Coffee";"469Q+86P, Jl. Kapitan Pattimura, Serui Kota, Kec. Yapen Sel., Kabupaten Kepulauan Yapen, Papua 98215";"Jl. Kapitan Pattimura, Serui Kota, Kec. Yapen Sel., Kabupaten Kepulauan Yapen";"PAPUA";"98215";"Indonesia";" 085244930342";"-1.8816738";"136.2380813";"https://maps.google.com/?cid=0x0:0xff771704e8c071d8"
"cafe";"Kedai Kopi";"Domino Café";"468V+4VH, Serui Kota, Kec. Yapen Sel., Kabupaten Kepulauan Yapen, Papua 98215";"Serui Kota, Kec. Yapen Sel., Kabupaten Kepulauan Yapen";"PAPUA";"98215";"Indonesia";" 081240509805";"-1.8846804";"136.2447424";"https://maps.google.com/?cid=0x0:0x199fe5be8a44fa07"
"cafe";"Kedai Kopi";"Oikopi";"Jl. Padat Karya, Tarau, Kec. Yapen Sel., Kabupaten Kepulauan Yapen, Papua 98215";"Tarau, Kec. Yapen Sel., Kabupaten Kepulauan Yapen";"PAPUA";"98215";"Indonesia";" 085246386239";"-1.8817318";"136.2350141";"https://maps.google.com/?cid=0x0:0xb5bf06580e25e22c"
"cafe";"Kedai Kopi";"titik kumpul wong tulus";"468M+3J5, Jl. Padat Karya, Tarau, Kec. Yapen Sel., Kabupaten Kepulauan Yapen, Papua 98215";"Jl. Padat Karya, Tarau, Kec. Yapen Sel., Kabupaten Kepulauan Yapen";"PAPUA";"98215";"Indonesia";"";"-1.8848645";"136.2341119";"https://maps.google.com/?cid=0x0:0x9aedc52ec39e7dd"
"cafe";"Kedai Kopi";"GD Cafe";"46FW+W33, Gg. I KPR, Famboaman, Kec. Yapen Sel., Kabupaten Kepulauan Yapen, Papua 98213";"Gg. I KPR, Famboaman, Kec. Yapen Sel., Kabupaten Kepulauan Yapen";"PAPUA";"98213";"Indonesia";" 082199183168";"-1.8752401";"136.245179";"https://maps.google.com/?cid=0x0:0x6d0d16f02857b4f7"
"cafe";"Kedai Kopi";"arabi Coffee";"Jl. Frans Kaisepo, Kaisepo, Kec. Yapen Sel., Kabupaten Kepulauan Yapen, Papua 98213";"Kaisepo, Kec. Yapen Sel., Kabupaten Kepulauan Yapen";"PAPUA";"98213";"Indonesia";" 081242795490";"-1.8775288";"136.2468077";"https://maps.google.com/?cid=0x0:0xe2d475d10c403795"
"cafe";"Kedai Kopi";"Rioco";"Jl. Maluku, Serui Kota, Kec. Yapen Sel., Kabupaten Kepulauan Yapen, Papua 98211";"Serui Kota, Kec. Yapen Sel., Kabupaten Kepulauan Yapen";"PAPUA";"98211";"Indonesia";" 082335387595";"-1.879931";"136.2259496";"https://maps.google.com/?cid=0x0:0xcd06966c9ddfefb9"
"cafe";"Kafe";"Classic 2 kafe";"46PQ+VJ5, Mantembu, Kec. Yapen Sel., Kabupaten Kepulauan Yapen, Papua 98211";"Mantembu, Kec. Yapen Sel., Kabupaten Kepulauan Yapen";"PAPUA";"98211";"Indonesia";"";"-1.8628667";"136.239106";"https://maps.google.com/?cid=0x0:0x1836408221a6f57a"
"cafe";"Kafe";"TONK PU CAFE  RESTO";"Warari, Kec. Yapen Sel., Kabupaten Kepulauan Yapen, Papua 98212";"Kec. Yapen Sel., Kabupaten Kepulauan Yapen";"PAPUA";"98212";"Indonesia";" 08522342132";"-1.8748379";"136.2489907";"https://maps.google.com/?cid=0x0:0x92750332302c358e"
"cafe";"Restoran";"Rahang Tuna";"468P+422, Jl. Padat Karya, Tarau, Kec. Yapen Sel., Kabupaten Kepulauan Yapen, Papua 98215";"Jl. Padat Karya, Tarau, Kec. Yapen Sel., Kabupaten Kepulauan Yapen";"PAPUA";"98215";"Indonesia";" 082199909712";"-1.8847373";"136.2349963";"https://maps.google.com/?cid=0x0:0xc38b623461dafaf2"
"cafe";"Kedai Kopi";"Kopi Yoi";"Jl. Palapa, Serui Kota, Kec. Yapen Sel., Kabupaten Kepulauan Yapen, Papua 98215";"Serui Kota, Kec. Yapen Sel., Kabupaten Kepulauan Yapen";"PAPUA";"98215";"Indonesia";" 082335387595";"-1.8814483";"136.2415865";"https://maps.google.com/?cid=0x0:0x904943177ae0c946"
"cafe";"cafe";"Distrik Yapen Timur";"Kabupaten Kepulauan Yapen, Papua";"Kabupaten Kepulauan Yapen, Papua";"PAPUA";"";"Indonesia";"";"-1.8231626";"136.7603579";"https://maps.google.com/?cid=0x0:0x8aa6062a086a2ccd"
"cafe";"Indonesia";"Warung Mbh Samad";"5QJ7+583, Tim., Awunawai, Distrik Yapen Timur, Kabupaten Kepulauan Yapen, Papua 98252";"Tim., Awunawai, Distrik Yapen Timur, Kabupaten Kepulauan Yapen";"PAPUA";"98252";"Indonesia";"";"-1.8196149";"136.7632972";"https://maps.google.com/?cid=0x0:0x7fe8302c599748a3"
"cafe";"cafe";"Caffe break";"5PHW+V72, Dawai, Distrik Yapen Timur, Kabupaten Kepulauan Yapen, Papua 98252";"Dawai, Distrik Yapen Timur, Kabupaten Kepulauan Yapen";"PAPUA";"98252";"Indonesia";"";"-1.8203584";"136.7456343";"https://maps.google.com/?cid=0x0:0xa4b4428111882212"
"cafe";"cafe";"Warung Mbk Mia";"5QJ7+9R4, Awunawai, Distrik Yapen Timur, Kabupaten Kepulauan Yapen, Papua 98252";"Awunawai, Distrik Yapen Timur, Kabupaten Kepulauan Yapen";"PAPUA";"98252";"Indonesia";"";"-1.8191031";"136.7645844";"https://maps.google.com/?cid=0x0:0x22f3e08baf1b81be"
"cafe";"cafe";"Warung Banyuwangi";"5QH7+WJ4, Awunawai, Distrik Yapen Timur, Kabupaten Kepulauan Yapen, Papua 98252";"Awunawai, Distrik Yapen Timur, Kabupaten Kepulauan Yapen";"PAPUA";"98252";"Indonesia";"";"-1.8202414";"136.7640755";"https://maps.google.com/?cid=0x0:0x37a923e04842787f"
"cafe";"cafe";"Warung TKW";"5QJ7+7MW, Awunawai, Distrik Yapen Timur, Kabupaten Kepulauan Yapen, Papua 98252";"Awunawai, Distrik Yapen Timur, Kabupaten Kepulauan Yapen";"PAPUA";"98252";"Indonesia";"";"-1.8192561";"136.7642156";"https://maps.google.com/?cid=0x0:0xa5205fd9c292679b"
