Category,Real Category,Business Name,Address,City,State,Postal Code,Country,Phone,Email,Website,Latitude,Longitude,Map Link,Details Link
toko bangunan,toko bangunan,Kalimantan Selatan 70713,"Loktabat Sel., Kec. Banjarbaru Selatan, Kota Banjar Baru, Kalimantan Selatan","Kota Banjar Baru, Kalimantan Selatan",KALIMANTAN SELATAN,,Indonesia,,,,-3.4471287,114.8336785,https://maps.google.com/?cid=0x0:0xbdf76c85c6461489,
toko bangunan,Toko,Gemilang Pusat Bahan Bangunan Banjarbaru,"Jl. A. Yani No.Km.33, Guntung Payung, Kec. Landasan Ulin, Kota Banjar Baru, Kalimantan Selatan 70714","Guntung Payung, Kec. Landasan Ulin, Kota Banjar Baru",KALIMANTAN SELATAN,70714.0,Indonesia,5115911071.0,,,-3.4452225,114.8131499,https://maps.google.com/?cid=0x0:0x73bc6400cc369536,
toko bangunan,Toko Bahan Bangunan,Tb.Ratu Elok,"Jl. H. Mistar Cokrokusumo, Loktabat Sel., Kec. Banjarbaru Selatan, Kota Banjar Baru, Kalimantan Selatan 70714","Loktabat Sel., Kec. Banjarbaru Selatan, Kota Banjar Baru",KALIMANTAN SELATAN,70714.0,Indonesia,8115030198.0,,,-3.4532913,114.8462637,https://maps.google.com/?cid=0x0:0x280c7d564c9af5e2,
toko bangunan,Toko Bahan Bangunan,Toko Bangunan Jasa Ibu,"Jalan Trikora Loktabat Selatan Kecamatan Banjarbaru Selatan Komp taman trikora asri Seberang komp galuh merindu 2, Kota Banjar Baru, Kalimantan Selatan 70731",Kota Banjar Baru,KALIMANTAN SELATAN,70731.0,Indonesia,,,,-3.4607848,114.8384669,https://maps.google.com/?cid=0x0:0x1ad593987f001bad,
toko bangunan,Toko Bahan Bangunan,Toko Karya Jaya,"Jl. Kemuning No.12, Loktabat Sel., Kec. Banjarbaru Selatan, Kota Banjar Baru, Kalimantan Selatan 70714","Loktabat Sel., Kec. Banjarbaru Selatan, Kota Banjar Baru",KALIMANTAN SELATAN,70714.0,Indonesia,82162913486.0,,,-3.4446753,114.8301442,https://maps.google.com/?cid=0x0:0xd342eeb0dc9639e7,
toko bangunan,Toko Bahan Bangunan,( WA : 0831-8898-8111 )Toko Bangunan Mulia Abadi,"WA:0831-8898-8111, Jl. Garuda, karang jawa, Landasan Ulin Tengah, Kec. Liang Anggang, Kota Banjar Baru, Kalimantan Selatan 70724","Jl. Garuda, karang jawa, Landasan Ulin Tengah, Kec. Liang Anggang, Kota Banjar Baru",KALIMANTAN SELATAN,70724.0,Indonesia,87781689990.0,,,-3.4483055,114.7470091,https://maps.google.com/?cid=0x0:0x83db23c3bc0fd333,
toko bangunan,Toko Bahan Bangunan,Toko SAN bangunan,"GVP5+7C4, Jl. Jeruk, Sungai Besar, Sungai Ulin, Kota Banjar Baru, Kalimantan Selatan","Kota Banjar Baru, Kalimantan Selatan",KALIMANTAN SELATAN,,Indonesia,85753176046.0,,,-3.4643672,114.8585929,https://maps.google.com/?cid=0x0:0xcee92f23c549f503,
toko bangunan,Toko Bahan Bangunan,Toko bangunan bejo,"GPWQ+HX8, Landasan Ulin Tengah, Kec. Liang Anggang, Kota Banjar Baru, Kalimantan Selatan 70724","Landasan Ulin Tengah, Kec. Liang Anggang, Kota Banjar Baru",KALIMANTAN SELATAN,70724.0,Indonesia,87781689990.0,,,-3.4529108,114.7401286,https://maps.google.com/?cid=0x0:0x16fc677699e8610f,
toko bangunan,Toko Bahan Bangunan,TB. Sumber Usaha III,"Jl. Trikora, Guntungmanggis, Kec. Landasan Ulin, Kota Banjar Baru, Kalimantan Selatan 70731","Guntungmanggis, Kec. Landasan Ulin, Kota Banjar Baru",KALIMANTAN SELATAN,70731.0,Indonesia,82189909091.0,,,-3.4612695,114.8101331,https://maps.google.com/?cid=0x0:0x170a96f74a608b5c,
toko bangunan,Toko Bahan Bangunan,Toko Bangunan Khair,"GRP6+C58, Unnamed Road, Guntungmanggis, Kec. Landasan Ulin, Kota Banjar Baru, Kalimantan Selatan 70731","Unnamed Road, Guntungmanggis, Kec. Landasan Ulin, Kota Banjar Baru",KALIMANTAN SELATAN,70731.0,Indonesia,82144648989.0,,,-3.4639565,114.8104478,https://maps.google.com/?cid=0x0:0x916ee7fdc2186763,
toko bangunan,Toko Bahan Bangunan,Toko Bangunan Cahaya Abadi,"Jl. POM NOOR, RT.06/RW.02, Sungai Ulin, Kec. Banjarbaru Selatan, Kota Banjar Baru, Kalimantan Selatan 70714","RT.06/RW.02, Sungai Ulin, Kec. Banjarbaru Selatan, Kota Banjar Baru",KALIMANTAN SELATAN,70714.0,Indonesia,82279284323.0,,,-3.4432629,114.8561533,https://maps.google.com/?cid=0x0:0x3e0891ea24b11a47,
toko bangunan,Toko Bahan Bangunan,TB. Sumber Rejeki,"Jalan A. Yani KM 24,5 Landasan Ulin, Timur, Syamsudin Noor, Kec. Liang Anggang, Kota Banjar Baru, Kalimantan Selatan 70724","Timur, Syamsudin Noor, Kec. Liang Anggang, Kota Banjar Baru",KALIMANTAN SELATAN,70724.0,Indonesia,8125000787.0,,,-3.4410737,114.7418492,https://maps.google.com/?cid=0x0:0x644f58dc813993e0,
toko bangunan,Toko Bahan Bangunan,Toko Bangunan Sehati,"Sungai Ulin, Kec. Banjarbaru Utara, Kota Banjar Baru, Kalimantan Selatan 70661","Kec. Banjarbaru Utara, Kota Banjar Baru",KALIMANTAN SELATAN,70661.0,Indonesia,,,,-3.469499,114.9249128,https://maps.google.com/?cid=0x0:0x7eb13a2843be722f,
toko bangunan,Toko Bahan Bangunan,Toko Bangunan Karya Sepakat,"depan pangkalan bus damri, Jalan Trikora Guntung manggis, Landasan Ulin Tim., Kec. Landasan Ulin, Kota Banjar Baru, Kalimantan Selatan 70721","Jalan Trikora Guntung manggis, Landasan Ulin Tim., Kec. Landasan Ulin, Kota Banjar Baru",KALIMANTAN SELATAN,70721.0,Indonesia,85251177855.0,,,-3.4602781,114.7834215,https://maps.google.com/?cid=0x0:0xa2231ef60feea943,
toko bangunan,Toko Bahan Bangunan,TOKO BANGUNAN LANCAR,"Jl. A. Yani No.Km. 32, Guntung Payung, Kec. Landasan Ulin, Kota Banjar Baru, Kalimantan Selatan 70721","Guntung Payung, Kec. Landasan Ulin, Kota Banjar Baru",KALIMANTAN SELATAN,70721.0,Indonesia,82233101067.0,,,-3.4458841,114.8087041,https://maps.google.com/?cid=0x0:0x219d624806fdf7a,
toko bangunan,Toko Bahan Bangunan,Toko Sumber Makiah,"HR47+252, Guntung Payung, Kec. Landasan Ulin, Kota Banjar Baru, Kalimantan Selatan 70721","Guntung Payung, Kec. Landasan Ulin, Kota Banjar Baru",KALIMANTAN SELATAN,70721.0,Indonesia,85810229946.0,,,-3.4449875,114.8128906,https://maps.google.com/?cid=0x0:0x690baf142f215e3e,
toko bangunan,Toko Bahan Bangunan,Lapan Lapan Bangunan,"Jl. A. Yani No.Km 21 5, RW.5, Landasan Ulin Bar., Kec. Liang Anggang, Kota Banjar Baru, Kalimantan Selatan 70723","RW.5, Landasan Ulin Bar., Kec. Liang Anggang, Kota Banjar Baru",KALIMANTAN SELATAN,70723.0,Indonesia,8115038688.0,,,-3.4432528,114.7173921,https://maps.google.com/?cid=0x0:0xb5a5f424b44fd732,
toko bangunan,Pemasok Bahan Bangunan,Toko Jaya,"komp no 31, Jl. Pangeran Antasari, Loktabat Utara, Kec. Martapura, Kota Banjar Baru, Kalimantan Selatan 70714","Jl. Pangeran Antasari, Loktabat Utara, Kec. Martapura, Kota Banjar Baru",KALIMANTAN SELATAN,70714.0,Indonesia,82279901092.0,,,-3.4184194,114.8517805,https://maps.google.com/?cid=0x0:0xfd5dda22601a1323,
toko bangunan,Toko Bahan Bangunan,Toko Berkat Jaya,"JL. A. Yani, Km. 32, 5, Landasan Ulin, Guntung Payung, Kec. Landasan Ulin, Kota Banjar Baru, Kalimantan Selatan 70724","Km. 32, 5, Landasan Ulin, Guntung Payung, Kec. Landasan Ulin, Kota Banjar Baru",KALIMANTAN SELATAN,70724.0,Indonesia,87815275766.0,,,-3.4459841,114.8095244,https://maps.google.com/?cid=0x0:0xb7a279022220e2fd,
toko bangunan,Toko Bahan Bangunan,Berkat Bersama,"HR6P+665, Jl. Panglima Batur Timur, Loktabat Utara, Kec. Banjarbaru Utara, Kota Banjar Baru, Kalimantan Selatan 70711","Jl. Panglima Batur Timur, Loktabat Utara, Kec. Banjarbaru Utara, Kota Banjar Baru",KALIMANTAN SELATAN,70711.0,Indonesia,85169995912.0,,,-3.4394882,114.8356149,https://maps.google.com/?cid=0x0:0x975c1af6f6b2ac25,
toko bangunan,Toko,Toko 88 bangunan,"HP97+5VH, Jl. Sriwijaya, Landasan Ulin Bar., Kec. Liang Anggang, Kota Banjar Baru, Kalimantan Selatan 70722","Jl. Sriwijaya, Landasan Ulin Bar., Kec. Liang Anggang, Kota Banjar Baru",KALIMANTAN SELATAN,70722.0,Indonesia,,,,-3.4320604,114.7147429,https://maps.google.com/?cid=0x0:0x8eb37926a687c4c0,
toko bangunan,Pemasok Bahan Bangunan,TB. Andeska 2,"Jalan PM Noor No.28, Kel Sungai Ulin, Sungai Besar, Kec. Banjarbaru Selatan, Kota Banjar Baru, Kalimantan Selatan 70714","Kel Sungai Ulin, Sungai Besar, Kec. Banjarbaru Selatan, Kota Banjar Baru",KALIMANTAN SELATAN,70714.0,Indonesia,82250856638.0,,,-3.4479898,114.8627371,https://maps.google.com/?cid=0x0:0x541fc759b127a9f0,
toko bangunan,Toko Bahan Bangunan,UD. Margasari,"Loktabat Sel., Kec. Banjarbaru Selatan, Kota Banjar Baru, Kalimantan Selatan 70714","Kec. Banjarbaru Selatan, Kota Banjar Baru",KALIMANTAN SELATAN,70714.0,Indonesia,82173389240.0,,,-3.4512177,114.844585,https://maps.google.com/?cid=0x0:0x96e330ec12a2c5ca,
toko bangunan,Toko Bahan Bangunan,TOKO BANGUNAN H. IYUS,"Jl. Dahlina Raya, Sungai Besar, Kec. Banjarbaru Selatan, Kota Banjar Baru, Kalimantan Selatan 70731","Sungai Besar, Kec. Banjarbaru Selatan, Kota Banjar Baru",KALIMANTAN SELATAN,70731.0,Indonesia,85169995912.0,,,-3.459988,114.8404033,https://maps.google.com/?cid=0x0:0xf6ec9bbb41d47fff,
toko bangunan,Toko Bahan Bangunan,UD Berkat Jaya,"Loktabat Sel., Kec. Banjarbaru Selatan, Kota Banjar Baru, Kalimantan Selatan 70732","Kec. Banjarbaru Selatan, Kota Banjar Baru",KALIMANTAN SELATAN,70732.0,Indonesia,87815275766.0,,,-3.4608128,114.8430843,https://maps.google.com/?cid=0x0:0x36efa92a51ede25b,
toko bangunan,Toko Bahan Bangunan,Toko Bangunan Urif Serasi,"HR85+952, Jl. Karang Anyar 2, Loktabat Utara, Kec. Landasan Ulin, Kota Banjar Baru, Kalimantan Selatan 70711","Jl. Karang Anyar 2, Loktabat Utara, Kec. Landasan Ulin, Kota Banjar Baru",KALIMANTAN SELATAN,70711.0,Indonesia,82164465822.0,,,-3.4341109,114.8078815,https://maps.google.com/?cid=0x0:0xa3a7dd8e0a14bcee,
toko bangunan,Toko Bahan Bangunan,Tb.karya Mandiri,"jln jeruk sungai ulin, Jl. Jeruk, Sungai Besar, Kec. Banjarbaru Selatan, Kota Banjar Baru, Kalimantan Selatan 70714","Jl. Jeruk, Sungai Besar, Kec. Banjarbaru Selatan, Kota Banjar Baru",KALIMANTAN SELATAN,70714.0,Indonesia,87781689990.0,,,-3.4490683,114.8632573,https://maps.google.com/?cid=0x0:0xc128475393223d8f,
toko bangunan,Toko Bahan Bangunan,Toko Hj Adi Barabai,"Jl. Oxygen II No.7, Loktabat Utara, Kec. Banjarbaru Utara, Kota Banjar Baru, Kalimantan Selatan 70714","Loktabat Utara, Kec. Banjarbaru Utara, Kota Banjar Baru",KALIMANTAN SELATAN,70714.0,Indonesia,87781689990.0,,,-3.4376036,114.8432455,https://maps.google.com/?cid=0x0:0x5f310d01c63bf013,
toko bangunan,Toko Bahan Bangunan,TB. Nusantara,"HV47+77W, Jl. Sekumpul Raya, Guntung Paikat, Kec. Banjarbaru Selatan, Kota Banjar Baru, Kalimantan Selatan 70714","Jl. Sekumpul Raya, Guntung Paikat, Kec. Banjarbaru Selatan, Kota Banjar Baru",KALIMANTAN SELATAN,70714.0,Indonesia,87781689990.0,,,-3.4442726,114.8632082,https://maps.google.com/?cid=0x0:0xdca5900e7a5a9c92,
toko bangunan,toko bangunan,Kec. Banjarbaru Selatan,"Kota Banjar Baru, Kalimantan Selatan","Kota Banjar Baru, Kalimantan Selatan",KALIMANTAN SELATAN,,Indonesia,,,,-3.4610423,114.8490732,https://maps.google.com/?cid=0x0:0xbf777f4ecd7ef2d5,
toko bangunan,Toko,Gemilang Pusat Bahan Bangunan Banjarbaru,"Jl. A. Yani No.Km.33, Guntung Payung, Kec. Landasan Ulin, Kota Banjar Baru, Kalimantan Selatan 70714","Guntung Payung, Kec. Landasan Ulin, Kota Banjar Baru",KALIMANTAN SELATAN,70714.0,Indonesia,5115911071.0,,,-3.4452225,114.8131499,https://maps.google.com/?cid=0x0:0x73bc6400cc369536,
toko bangunan,Toko Bahan Bangunan,Tb.Ratu Elok,"Jl. H. Mistar Cokrokusumo, Loktabat Sel., Kec. Banjarbaru Selatan, Kota Banjar Baru, Kalimantan Selatan 70714","Loktabat Sel., Kec. Banjarbaru Selatan, Kota Banjar Baru",KALIMANTAN SELATAN,70714.0,Indonesia,8115030198.0,,,-3.4532913,114.8462637,https://maps.google.com/?cid=0x0:0x280c7d564c9af5e2,
toko bangunan,Toko Bahan Bangunan,Tb.karya Mandiri,"jln jeruk sungai ulin, Jl. Jeruk, Sungai Besar, Kec. Banjarbaru Selatan, Kota Banjar Baru, Kalimantan Selatan 70714","Jl. Jeruk, Sungai Besar, Kec. Banjarbaru Selatan, Kota Banjar Baru",KALIMANTAN SELATAN,70714.0,Indonesia,87781689990.0,,,-3.4490683,114.8632573,https://maps.google.com/?cid=0x0:0xc128475393223d8f,
toko bangunan,Pemasok Bahan Bangunan,TB. Andeska 2,"Jalan PM Noor No.28, Kel Sungai Ulin, Sungai Besar, Kec. Banjarbaru Selatan, Kota Banjar Baru, Kalimantan Selatan 70714","Kel Sungai Ulin, Sungai Besar, Kec. Banjarbaru Selatan, Kota Banjar Baru",KALIMANTAN SELATAN,70714.0,Indonesia,82250856638.0,,,-3.4479898,114.8627371,https://maps.google.com/?cid=0x0:0x541fc759b127a9f0,
toko bangunan,Toko Bahan Bangunan,Toko Bangunan Jasa Ibu,"Jalan Trikora Loktabat Selatan Kecamatan Banjarbaru Selatan Komp taman trikora asri Seberang komp galuh merindu 2, Kota Banjar Baru, Kalimantan Selatan 70731",Kota Banjar Baru,KALIMANTAN SELATAN,70731.0,Indonesia,,,,-3.4607848,114.8384669,https://maps.google.com/?cid=0x0:0x1ad593987f001bad,
toko bangunan,Toko Bahan Bangunan,TB. Yati,"GVV6+9F6, Guntung Paikat, Kec. Banjarbaru Selatan, Kota Banjar Baru, Kalimantan Selatan 70732","Guntung Paikat, Kec. Banjarbaru Selatan, Kota Banjar Baru",KALIMANTAN SELATAN,70732.0,Indonesia,85169981293.0,,,-3.4565774,114.8611556,https://maps.google.com/?cid=0x0:0x6173dfce12dc2c6a,
toko bangunan,Toko Bahan Bangunan,TB. Nusantara,"HV47+77W, Jl. Sekumpul Raya, Guntung Paikat, Kec. Banjarbaru Selatan, Kota Banjar Baru, Kalimantan Selatan 70714","Jl. Sekumpul Raya, Guntung Paikat, Kec. Banjarbaru Selatan, Kota Banjar Baru",KALIMANTAN SELATAN,70714.0,Indonesia,87781689990.0,,,-3.4442726,114.8632082,https://maps.google.com/?cid=0x0:0xdca5900e7a5a9c92,
toko bangunan,Toko Bahan Bangunan,Tb ahmad zaini,"HV8H+6F5, Sungai Ulin, Kec. Banjarbaru Utara, Kota Banjar Baru, Kalimantan Selatan 70714","Sungai Ulin, Kec. Banjarbaru Utara, Kota Banjar Baru",KALIMANTAN SELATAN,70714.0,Indonesia,,,,-3.4345484,114.8787125,https://maps.google.com/?cid=0x0:0x35b257f42e3fc31d,
toko bangunan,Toko Bahan Bangunan,UD. Margasari,"Loktabat Sel., Kec. Banjarbaru Selatan, Kota Banjar Baru, Kalimantan Selatan 70714","Kec. Banjarbaru Selatan, Kota Banjar Baru",KALIMANTAN SELATAN,70714.0,Indonesia,82173389240.0,,,-3.4512177,114.844585,https://maps.google.com/?cid=0x0:0x96e330ec12a2c5ca,
toko bangunan,Toko Bahan Bangunan,TB Cahaya Cempaka,"GRFX+VG9, Jl. Sma 3, Cempaka, Kec. Cemp., Kota Banjar Baru, Kalimantan Selatan 70732","Jl. Sma 3, Cempaka, Kec. Cemp., Kota Banjar Baru",KALIMANTAN SELATAN,70732.0,Indonesia,85939898813.0,,,-3.4753251,114.8488516,https://maps.google.com/?cid=0x0:0xe304f60d0f20ef07,
toko bangunan,Toko Bahan Bangunan,Toko SAN bangunan,"GVP5+7C4, Jl. Jeruk, Sungai Besar, Sungai Ulin, Kota Banjar Baru, Kalimantan Selatan","Kota Banjar Baru, Kalimantan Selatan",KALIMANTAN SELATAN,,Indonesia,85753176046.0,,,-3.4643672,114.8585929,https://maps.google.com/?cid=0x0:0xcee92f23c549f503,
toko bangunan,Toko Bahan Bangunan,Toko Hj Adi Barabai,"Jl. Oxygen II No.7, Loktabat Utara, Kec. Banjarbaru Utara, Kota Banjar Baru, Kalimantan Selatan 70714","Loktabat Utara, Kec. Banjarbaru Utara, Kota Banjar Baru",KALIMANTAN SELATAN,70714.0,Indonesia,87781689990.0,,,-3.4376036,114.8432455,https://maps.google.com/?cid=0x0:0x5f310d01c63bf013,
toko bangunan,Toko Bahan Bangunan,TOKO BANGUNAN  ALAT LISTRIK ( RAHMA ),"Loktabat Utara, Kec. Banjarbaru Utara, Kota Banjar Baru, Kalimantan Selatan 70714","Kec. Banjarbaru Utara, Kota Banjar Baru",KALIMANTAN SELATAN,70714.0,Indonesia,87781689990.0,,,-3.4237618,114.8131131,https://maps.google.com/?cid=0x0:0x78b13fb59e723aa6,
toko bangunan,Toko Bahan Bangunan,TOKO BANGUNAN H. IYUS,"Jl. Dahlina Raya, Sungai Besar, Kec. Banjarbaru Selatan, Kota Banjar Baru, Kalimantan Selatan 70731","Sungai Besar, Kec. Banjarbaru Selatan, Kota Banjar Baru",KALIMANTAN SELATAN,70731.0,Indonesia,85169995912.0,,,-3.459988,114.8404033,https://maps.google.com/?cid=0x0:0xf6ec9bbb41d47fff,
toko bangunan,Toko Bahan Bangunan,TB.KELAPA GADING RAYA,"GVR3+FM8, Jl. Klp. Gading, Kemuning, Kec. Banjarbaru Selatan, Kota Banjar Baru, Kalimantan Selatan 70732","Jl. Klp. Gading, Kemuning, Kec. Banjarbaru Selatan, Kota Banjar Baru",KALIMANTAN SELATAN,70732.0,Indonesia,81272081709.0,,,-3.4588271,114.8541716,https://maps.google.com/?cid=0x0:0x61cb4cdc50053acb,
toko bangunan,Toko Bahan Bangunan,Toko Karya Jaya,"Jl. Kemuning No.12, Loktabat Sel., Kec. Banjarbaru Selatan, Kota Banjar Baru, Kalimantan Selatan 70714","Loktabat Sel., Kec. Banjarbaru Selatan, Kota Banjar Baru",KALIMANTAN SELATAN,70714.0,Indonesia,82162913486.0,,,-3.4446753,114.8301442,https://maps.google.com/?cid=0x0:0xd342eeb0dc9639e7,
toko bangunan,Toko Bahan Bangunan,TB. Surya Mandiri,"GRHV+X5Q, Jl. Aneka Tambang, Loktabat Sel., Kec. Banjarbaru Selatan, Kota Banjar Baru, Kalimantan Selatan 70732","Jl. Aneka Tambang, Loktabat Sel., Kec. Banjarbaru Selatan, Kota Banjar Baru",KALIMANTAN SELATAN,70732.0,Indonesia,87781689990.0,,,-3.4700436,114.8429837,https://maps.google.com/?cid=0x0:0xac4ddcbdc6135544,
toko bangunan,Toko Bahan Bangunan,UD Berkat Jaya,"Loktabat Sel., Kec. Banjarbaru Selatan, Kota Banjar Baru, Kalimantan Selatan 70732","Kec. Banjarbaru Selatan, Kota Banjar Baru",KALIMANTAN SELATAN,70732.0,Indonesia,87815275766.0,,,-3.4608128,114.8430843,https://maps.google.com/?cid=0x0:0x36efa92a51ede25b,
toko bangunan,Toko Bahan Bangunan,Toko Muda Jaya,"GRRX+M5F, Kemuning, Kec. Banjarbaru Selatan, Kota Banjar Baru, Kalimantan Selatan 70732","Kemuning, Kec. Banjarbaru Selatan, Kota Banjar Baru",KALIMANTAN SELATAN,70732.0,Indonesia,5114781420.0,,,-3.458319,114.8479266,https://maps.google.com/?cid=0x0:0x92654ec4c5ffc3d7,
toko bangunan,Toko,Sinar jaya batako,"GVQ5+RGJ, Jl. Klp. Gading, Guntung Paikat, Kec. Banjarbaru Selatan, Kota Banjar Baru, Kalimantan Selatan 70732","Jl. Klp. Gading, Guntung Paikat, Kec. Banjarbaru Selatan, Kota Banjar Baru",KALIMANTAN SELATAN,70732.0,Indonesia,85387328844.0,,,-3.4604099,114.8587517,https://maps.google.com/?cid=0x0:0x5b8e29dd0eba23b7,
toko bangunan,toko bangunan,Kalimantan Selatan 70714,"Kota Banjar Baru, Kalimantan Selatan","Kota Banjar Baru, Kalimantan Selatan",KALIMANTAN SELATAN,,Indonesia,,,,-3.4255734,114.844879,https://maps.google.com/?cid=0x0:0xc95c6d779c83b97e,
toko bangunan,Toko,Gemilang Pusat Bahan Bangunan Banjarbaru,"Jl. A. Yani No.Km.33, Guntung Payung, Kec. Landasan Ulin, Kota Banjar Baru, Kalimantan Selatan 70714","Guntung Payung, Kec. Landasan Ulin, Kota Banjar Baru",KALIMANTAN SELATAN,70714.0,Indonesia,5115911071.0,,,-3.4452225,114.8131499,https://maps.google.com/?cid=0x0:0x73bc6400cc369536,
toko bangunan,Toko Bahan Bangunan,Tb.Ratu Elok,"Jl. H. Mistar Cokrokusumo, Loktabat Sel., Kec. Banjarbaru Selatan, Kota Banjar Baru, Kalimantan Selatan 70714","Loktabat Sel., Kec. Banjarbaru Selatan, Kota Banjar Baru",KALIMANTAN SELATAN,70714.0,Indonesia,8115030198.0,,,-3.4532913,114.8462637,https://maps.google.com/?cid=0x0:0x280c7d564c9af5e2,
toko bangunan,Toko Bahan Bangunan,TB.KELAPA GADING RAYA,"GVR3+FM8, Jl. Klp. Gading, Kemuning, Kec. Banjarbaru Selatan, Kota Banjar Baru, Kalimantan Selatan 70732","Jl. Klp. Gading, Kemuning, Kec. Banjarbaru Selatan, Kota Banjar Baru",KALIMANTAN SELATAN,70732.0,Indonesia,81272081709.0,,,-3.4588271,114.8541716,https://maps.google.com/?cid=0x0:0x61cb4cdc50053acb,
toko bangunan,Toko Bahan Bangunan,Toko Bangunan Urif Serasi,"HR85+952, Jl. Karang Anyar 2, Loktabat Utara, Kec. Landasan Ulin, Kota Banjar Baru, Kalimantan Selatan 70711","Jl. Karang Anyar 2, Loktabat Utara, Kec. Landasan Ulin, Kota Banjar Baru",KALIMANTAN SELATAN,70711.0,Indonesia,82164465822.0,,,-3.4341109,114.8078815,https://maps.google.com/?cid=0x0:0xa3a7dd8e0a14bcee,
toko bangunan,Toko Bahan Bangunan,Irwan Jaya,"HRFC+5QG, Jl. Taruna Praja Raya, Loktabat Utara, Kec. Banjarbaru Utara, Kota Banjar Baru, Kalimantan Selatan 70714","Jl. Taruna Praja Raya, Loktabat Utara, Kec. Banjarbaru Utara, Kota Banjar Baru",KALIMANTAN SELATAN,70714.0,Indonesia,85169995912.0,,,-3.4270659,114.8219591,https://maps.google.com/?cid=0x0:0x140ff35ca2e8d35c,
toko bangunan,Toko Bahan Bangunan,TB. Karang Anyar Jaya,"Jl. Karang Anyar 1 No.18, Loktabat Utara, Kec. Banjarbaru Utara, Kota Banjar Baru, Kalimantan Selatan 70714","Loktabat Utara, Kec. Banjarbaru Utara, Kota Banjar Baru",KALIMANTAN SELATAN,70714.0,Indonesia,,,,-3.4344158,114.8152366,https://maps.google.com/?cid=0x0:0xe2f2fadb331846a4,
toko bangunan,Toko Bahan Bangunan,Toko bangunan zacky hafizi marlim,"HR98+HH6, Jl. Karang Anyar 2, Loktabat Utara, Kec. Banjarbaru Utara, Kota Banjar Baru, Kalimantan Selatan 70714","Jl. Karang Anyar 2, Loktabat Utara, Kec. Banjarbaru Utara, Kota Banjar Baru",KALIMANTAN SELATAN,70714.0,Indonesia,81310237259.0,,,-3.4310768,114.8163909,https://maps.google.com/?cid=0x0:0x638174ca9f66749b,
toko bangunan,Toko Bahan Bangunan,Toko Bangunan Cahaya Abadi,"Jl. POM NOOR, RT.06/RW.02, Sungai Ulin, Kec. Banjarbaru Selatan, Kota Banjar Baru, Kalimantan Selatan 70714","RT.06/RW.02, Sungai Ulin, Kec. Banjarbaru Selatan, Kota Banjar Baru",KALIMANTAN SELATAN,70714.0,Indonesia,82279284323.0,,,-3.4432629,114.8561533,https://maps.google.com/?cid=0x0:0x3e0891ea24b11a47,
toko bangunan,Toko Bahan Bangunan,Tb.karya Mandiri,"jln jeruk sungai ulin, Jl. Jeruk, Sungai Besar, Kec. Banjarbaru Selatan, Kota Banjar Baru, Kalimantan Selatan 70714","Jl. Jeruk, Sungai Besar, Kec. Banjarbaru Selatan, Kota Banjar Baru",KALIMANTAN SELATAN,70714.0,Indonesia,87781689990.0,,,-3.4490683,114.8632573,https://maps.google.com/?cid=0x0:0xc128475393223d8f,
toko bangunan,Toko Bahan Bangunan,Tb ahmad zaini,"HV8H+6F5, Sungai Ulin, Kec. Banjarbaru Utara, Kota Banjar Baru, Kalimantan Selatan 70714","Sungai Ulin, Kec. Banjarbaru Utara, Kota Banjar Baru",KALIMANTAN SELATAN,70714.0,Indonesia,,,,-3.4345484,114.8787125,https://maps.google.com/?cid=0x0:0x35b257f42e3fc31d,
toko bangunan,Toko Bahan Bangunan,Tb. Alfi 2,"HRCJ+CRV, Jl. Perjuangan, Loktabat Utara, Kec. Banjarbaru Utara, Kota Banjar Baru, Kalimantan Selatan 70714","Jl. Perjuangan, Loktabat Utara, Kec. Banjarbaru Utara, Kota Banjar Baru",KALIMANTAN SELATAN,70714.0,Indonesia,85389076276.0,,,-3.4288936,114.8322394,https://maps.google.com/?cid=0x0:0x105925a7e6b8d081,
toko bangunan,Toko Bahan Bangunan,TB. Nusantara,"HV47+77W, Jl. Sekumpul Raya, Guntung Paikat, Kec. Banjarbaru Selatan, Kota Banjar Baru, Kalimantan Selatan 70714","Jl. Sekumpul Raya, Guntung Paikat, Kec. Banjarbaru Selatan, Kota Banjar Baru",KALIMANTAN SELATAN,70714.0,Indonesia,87781689990.0,,,-3.4442726,114.8632082,https://maps.google.com/?cid=0x0:0xdca5900e7a5a9c92,
toko bangunan,Pemasok Bahan Bangunan,TB. Andeska 2,"Jalan PM Noor No.28, Kel Sungai Ulin, Sungai Besar, Kec. Banjarbaru Selatan, Kota Banjar Baru, Kalimantan Selatan 70714","Kel Sungai Ulin, Sungai Besar, Kec. Banjarbaru Selatan, Kota Banjar Baru",KALIMANTAN SELATAN,70714.0,Indonesia,82250856638.0,,,-3.4479898,114.8627371,https://maps.google.com/?cid=0x0:0x541fc759b127a9f0,
toko bangunan,Toko Bahan Bangunan,UD. Margasari,"Loktabat Sel., Kec. Banjarbaru Selatan, Kota Banjar Baru, Kalimantan Selatan 70714","Kec. Banjarbaru Selatan, Kota Banjar Baru",KALIMANTAN SELATAN,70714.0,Indonesia,82173389240.0,,,-3.4512177,114.844585,https://maps.google.com/?cid=0x0:0x96e330ec12a2c5ca,
toko bangunan,Toko Bahan Bangunan,Toko Bangunan Jasa Ibu,"Jalan Trikora Loktabat Selatan Kecamatan Banjarbaru Selatan Komp taman trikora asri Seberang komp galuh merindu 2, Kota Banjar Baru, Kalimantan Selatan 70731",Kota Banjar Baru,KALIMANTAN SELATAN,70731.0,Indonesia,,,,-3.4607848,114.8384669,https://maps.google.com/?cid=0x0:0x1ad593987f001bad,
toko bangunan,Toko Bahan Bangunan,Sinar Daha,"Jl. Karang Anyar 1, Loktabat Utara, Kec. Banjarbaru Utara, Kota Banjar Baru, Kalimantan Selatan 70714","Loktabat Utara, Kec. Banjarbaru Utara, Kota Banjar Baru",KALIMANTAN SELATAN,70714.0,Indonesia,85169995912.0,,,-3.434457,114.818498,https://maps.google.com/?cid=0x0:0x1b3b262f9a88e6a2,
toko bangunan,Toko Bahan Bangunan,Toko Hj Adi Barabai,"Jl. Oxygen II No.7, Loktabat Utara, Kec. Banjarbaru Utara, Kota Banjar Baru, Kalimantan Selatan 70714","Loktabat Utara, Kec. Banjarbaru Utara, Kota Banjar Baru",KALIMANTAN SELATAN,70714.0,Indonesia,87781689990.0,,,-3.4376036,114.8432455,https://maps.google.com/?cid=0x0:0x5f310d01c63bf013,
toko bangunan,Toko Bahan Bangunan,TB. Yati,"GVV6+9F6, Guntung Paikat, Kec. Banjarbaru Selatan, Kota Banjar Baru, Kalimantan Selatan 70732","Guntung Paikat, Kec. Banjarbaru Selatan, Kota Banjar Baru",KALIMANTAN SELATAN,70732.0,Indonesia,85169981293.0,,,-3.4565774,114.8611556,https://maps.google.com/?cid=0x0:0x6173dfce12dc2c6a,
toko bangunan,Toko Bahan Bangunan,TB. Sumber Usaha III,"Jl. Trikora, Guntungmanggis, Kec. Landasan Ulin, Kota Banjar Baru, Kalimantan Selatan 70731","Guntungmanggis, Kec. Landasan Ulin, Kota Banjar Baru",KALIMANTAN SELATAN,70731.0,Indonesia,82189909091.0,,,-3.4612695,114.8101331,https://maps.google.com/?cid=0x0:0x170a96f74a608b5c,
toko bangunan,Toko Bahan Bangunan,Toko Bangunan Khair,"GRP6+C58, Unnamed Road, Guntungmanggis, Kec. Landasan Ulin, Kota Banjar Baru, Kalimantan Selatan 70731","Unnamed Road, Guntungmanggis, Kec. Landasan Ulin, Kota Banjar Baru",KALIMANTAN SELATAN,70731.0,Indonesia,82144648989.0,,,-3.4639565,114.8104478,https://maps.google.com/?cid=0x0:0x916ee7fdc2186763,
toko bangunan,Toko Bahan Bangunan,TB Sumber Rejeki,"Loktabat Utara, Kec. Banjarbaru Utara, Kota Banjar Baru, Kalimantan Selatan 70714","Kec. Banjarbaru Utara, Kota Banjar Baru",KALIMANTAN SELATAN,70714.0,Indonesia,85169995912.0,,,-3.4273331,114.8162471,https://maps.google.com/?cid=0x0:0xc1b7291256ec604e,
toko bangunan,Toko Bahan Bangunan,TOKO BANGUNAN SUMBER MAKMUR,"HRFC+28J, Jl. Taruna Praja Raya, Loktabat Utara, Kec. Banjarbaru Utara, Kota Banjar Baru, Kalimantan Selatan 70714","Jl. Taruna Praja Raya, Loktabat Utara, Kec. Banjarbaru Utara, Kota Banjar Baru",KALIMANTAN SELATAN,70714.0,Indonesia,85136110532.0,,,-3.4274172,114.8207563,https://maps.google.com/?cid=0x0:0x135b2679fcdf5f65,
toko bangunan,Toko Bahan Bangunan,TB Berkat Ghina,"Samping best meat, Jl. Karang So, Loktabat Utara, Kec. Banjarbaru Utara, Kota Banjar Baru, Kalimantan Selatan 70714","Jl. Karang So, Loktabat Utara, Kec. Banjarbaru Utara, Kota Banjar Baru",KALIMANTAN SELATAN,70714.0,Indonesia,85247378111.0,,,-3.4290776,114.8161151,https://maps.google.com/?cid=0x0:0x1c2dfd6992201c1c,
toko bangunan,Toko Bahan Bangunan,Toko Karya Membangun  Kusen karya,"HRGH+J6G, Jl. Taruna Praja Raya, Loktabat Utara, Kec. Martapura, Kota Banjar Baru, Kalimantan Selatan 70714","Jl. Taruna Praja Raya, Loktabat Utara, Kec. Martapura, Kota Banjar Baru",KALIMANTAN SELATAN,70714.0,Indonesia,,,,-3.4234431,114.8280751,https://maps.google.com/?cid=0x0:0xb87ce9c386038107,
toko bangunan,Toko Bahan Bangunan,TB. Berkat Tawakkal,"Jl. Batung, Loktabat Utara, Kec. Banjarbaru Utara, Kota Banjar Baru, Kalimantan Selatan 70714","Loktabat Utara, Kec. Banjarbaru Utara, Kota Banjar Baru",KALIMANTAN SELATAN,70714.0,Indonesia,85349907380.0,,,-3.4264075,114.8126267,https://maps.google.com/?cid=0x0:0x7da44b520a641e2d,
toko bangunan,Toko Bahan Bangunan,TB. Berkat Bunda,"HRG7+V4R, Loktabat Utara, Kec. Banjarbaru Utara, Kota Banjar Baru, Kalimantan Selatan 70714","Loktabat Utara, Kec. Banjarbaru Utara, Kota Banjar Baru",KALIMANTAN SELATAN,70714.0,Indonesia,85939898813.0,,,-3.4227524,114.8127717,https://maps.google.com/?cid=0x0:0x26330052df9dffb0,
toko bangunan,Toko Bahan Bangunan,Al - Khair,"HR6X+249, Jl. Ahmad Yani, Loktabat Utara, Kec. Banjarbaru Utara, Kota Banjar Baru, Kalimantan Selatan 70714","Jl. Ahmad Yani, Loktabat Utara, Kec. Banjarbaru Utara, Kota Banjar Baru",KALIMANTAN SELATAN,70714.0,Indonesia,85169995912.0,,,-3.4399744,114.8478573,https://maps.google.com/?cid=0x0:0xe6cec216648a836,
toko bangunan,Toko Bahan Bangunan,TB. Sumber Agung,"Jalan Lingkar Utara Pondok 4, RT.19/RW.08, Guntung Payung, Loktabat Utara, Kota Banjar Baru, Kalimantan Selatan 70721","RT.19/RW.08, Guntung Payung, Loktabat Utara, Kota Banjar Baru",KALIMANTAN SELATAN,70721.0,Indonesia,81348443220.0,,,-3.43304,114.79534,https://maps.google.com/?cid=0x0:0xc7a4dbf44c69a624,
toko bangunan,toko bangunan,Kec. Cemp.,"Kota Banjar Baru, Kalimantan Selatan","Kota Banjar Baru, Kalimantan Selatan",KALIMANTAN SELATAN,,Indonesia,,,,-3.4903871,114.8522433,https://maps.google.com/?cid=0x0:0x76017dd3576ba653,
toko bangunan,Toko Bahan Bangunan,TB. Barkat,"GV83+232, Jl. H. Mistar Cokrokusumo, Bangkal, Kec. Cemp., Kota Banjar Baru, Kalimantan Selatan 70732","Jl. H. Mistar Cokrokusumo, Bangkal, Kec. Cemp., Kota Banjar Baru",KALIMANTAN SELATAN,70732.0,Indonesia,85939898813.0,,,-3.4849833,114.8526357,https://maps.google.com/?cid=0x0:0x725a1b52c61cdc7,
toko bangunan,Toko Bahan Bangunan,TB Cahaya Cempaka,"GRFX+VG9, Jl. Sma 3, Cempaka, Kec. Cemp., Kota Banjar Baru, Kalimantan Selatan 70732","Jl. Sma 3, Cempaka, Kec. Cemp., Kota Banjar Baru",KALIMANTAN SELATAN,70732.0,Indonesia,85939898813.0,,,-3.4753251,114.8488516,https://maps.google.com/?cid=0x0:0xe304f60d0f20ef07,
toko bangunan,Toko Bahan Bangunan,TB. ANUGERAH BANGUN BERSAMA,"Unnamed Road, Cempaka, Kec. Cemp., Kota Banjar Baru, Kalimantan Selatan 70734","Cempaka, Kec. Cemp., Kota Banjar Baru",KALIMANTAN SELATAN,70734.0,Indonesia,82148878901.0,,,-3.4883701,114.8695738,https://maps.google.com/?cid=0x0:0x450edfdf73d5ff8a,
toko bangunan,Toko Bahan Bangunan,TB. Tawakal 2,"GRH5+3V7, Jl. Palam Raya, Guntungmanggis, Kec. Landasan Ulin, Kota Banjar Baru, Kalimantan Selatan 70731","Jl. Palam Raya, Guntungmanggis, Kec. Landasan Ulin, Kota Banjar Baru",KALIMANTAN SELATAN,70731.0,Indonesia,,,,-3.472346,114.8096723,https://maps.google.com/?cid=0x0:0x55da18d4f556d0d5,
toko bangunan,Toko Bahan Bangunan,Tb berkah jaya,"FRP7+9W4, Bangkal, Kec. Cemp., Kota Banjar Baru, Kalimantan Selatan 70732","Bangkal, Kec. Cemp., Kota Banjar Baru",KALIMANTAN SELATAN,70732.0,Indonesia,,,,-3.5141034,114.8148407,https://maps.google.com/?cid=0x0:0x1e7c46983c28ff0f,
toko bangunan,Toko Bahan Bangunan,Toko Bangunan HS H.Tamrin,"GRQX+PF8, Jl. H. Mistar Cokrokusumo, Cempaka, Kec. Banjarbaru Selatan, Kota Banjar Baru, Kalimantan Selatan","Kota Banjar Baru, Kalimantan Selatan",KALIMANTAN SELATAN,,Indonesia,85169995912.0,,,-3.4607185,114.848695,https://maps.google.com/?cid=0x0:0x4b3ae3d4726f3c32,
toko bangunan,Toko Bahan Bangunan,TOKO BERKAT KARUNIA AL,"GR2X+Q86, Bangkal, Kec. Cemp., Kota Banjar Baru, Kalimantan Selatan 70732","Bangkal, Kec. Cemp., Kota Banjar Baru",KALIMANTAN SELATAN,70732.0,Indonesia,,,,-3.4980848,114.8482569,https://maps.google.com/?cid=0x0:0x286d177ac3b7e81b,
toko bangunan,Toko Bahan Bangunan,Tb. Anugerah,"FRWG+VVF, Jl. H. Mistar Cokrokusumo, Bangkal, Kec. Cemp., Kota Banjar Baru, Kalimantan Selatan 70732","Jl. H. Mistar Cokrokusumo, Bangkal, Kec. Cemp., Kota Banjar Baru",KALIMANTAN SELATAN,70732.0,Indonesia,,,,-3.5028228,114.8271611,https://maps.google.com/?cid=0x0:0xeccd5c0bcce35961,
toko bangunan,Toko Bahan Bangunan,Toko SAN bangunan,"GVP5+7C4, Jl. Jeruk, Sungai Besar, Sungai Ulin, Kota Banjar Baru, Kalimantan Selatan","Kota Banjar Baru, Kalimantan Selatan",KALIMANTAN SELATAN,,Indonesia,85753176046.0,,,-3.4643672,114.8585929,https://maps.google.com/?cid=0x0:0xcee92f23c549f503,
toko bangunan,Toko Bahan Bangunan,TB.KELAPA GADING RAYA,"GVR3+FM8, Jl. Klp. Gading, Kemuning, Kec. Banjarbaru Selatan, Kota Banjar Baru, Kalimantan Selatan 70732","Jl. Klp. Gading, Kemuning, Kec. Banjarbaru Selatan, Kota Banjar Baru",KALIMANTAN SELATAN,70732.0,Indonesia,81272081709.0,,,-3.4588271,114.8541716,https://maps.google.com/?cid=0x0:0x61cb4cdc50053acb,
toko bangunan,Toko Bahan Bangunan,TB. Sumber Aneka H. Ainin,"GVJ3+C2F, Jalan HM Mistar Cokrokusumo, Cempaka, Kec. Cemp., Kota Banjar Baru, Kalimantan Selatan 70732","Jalan HM Mistar Cokrokusumo, Cempaka, Kec. Cemp., Kota Banjar Baru",KALIMANTAN SELATAN,70732.0,Indonesia,85931237784.0,,,-3.4689492,114.8525622,https://maps.google.com/?cid=0x0:0x5e920ee2e9239680,
toko bangunan,Toko,Gemilang Pusat Bahan Bangunan Banjarbaru,"Jl. A. Yani No.Km.33, Guntung Payung, Kec. Landasan Ulin, Kota Banjar Baru, Kalimantan Selatan 70714","Guntung Payung, Kec. Landasan Ulin, Kota Banjar Baru",KALIMANTAN SELATAN,70714.0,Indonesia,5115911071.0,,,-3.4452225,114.8131499,https://maps.google.com/?cid=0x0:0x73bc6400cc369536,
toko bangunan,Toko Bahan Bangunan,TB Ar Raudah,"Blk. B Jl. H. Mistar Cokrokusumo No.3, Cempaka, Kec. Cemp., Kota Banjar Baru, Kalimantan Selatan 70732","Cempaka, Kec. Cemp., Kota Banjar Baru",KALIMANTAN SELATAN,70732.0,Indonesia,,,,-3.4708717,114.8523173,https://maps.google.com/?cid=0x0:0x875fc7457eadf474,
toko bangunan,Toko Bahan Bangunan,Toko Bangunan Jasa Ibu,"Jalan Trikora Loktabat Selatan Kecamatan Banjarbaru Selatan Komp taman trikora asri Seberang komp galuh merindu 2, Kota Banjar Baru, Kalimantan Selatan 70731",Kota Banjar Baru,KALIMANTAN SELATAN,70731.0,Indonesia,,,,-3.4607848,114.8384669,https://maps.google.com/?cid=0x0:0x1ad593987f001bad,
toko bangunan,Toko Bahan Bangunan,TB. Sumber Alam,"Jl. Trikora No.30, Kemuning, Kec. Banjarbaru Selatan, Kota Banjar Baru, Kalimantan Selatan 70732","Kemuning, Kec. Banjarbaru Selatan, Kota Banjar Baru",KALIMANTAN SELATAN,70732.0,Indonesia,85169995912.0,,,-3.4614394,114.8455233,https://maps.google.com/?cid=0x0:0xfd645630d014190b,
toko bangunan,Toko Bahan Bangunan,Anggi Material Cempaka,"Jl. H. Mistar Cokrokusumo No.55, Cempaka, Kec. Cemp., Kota Banjar Baru, Kalimantan Selatan 70732","Cempaka, Kec. Cemp., Kota Banjar Baru",KALIMANTAN SELATAN,70732.0,Indonesia,81349496222.0,,,-3.4689605,114.8525612,https://maps.google.com/?cid=0x0:0x3ae8e9bafdb82406,
toko bangunan,Toko Bahan Bangunan,TB. Surya Mandiri,"GRHV+X5Q, Jl. Aneka Tambang, Loktabat Sel., Kec. Banjarbaru Selatan, Kota Banjar Baru, Kalimantan Selatan 70732","Jl. Aneka Tambang, Loktabat Sel., Kec. Banjarbaru Selatan, Kota Banjar Baru",KALIMANTAN SELATAN,70732.0,Indonesia,87781689990.0,,,-3.4700436,114.8429837,https://maps.google.com/?cid=0x0:0xac4ddcbdc6135544,
toko bangunan,Pemasok Bahan Bangunan,TB. Andeska 2,"Jalan PM Noor No.28, Kel Sungai Ulin, Sungai Besar, Kec. Banjarbaru Selatan, Kota Banjar Baru, Kalimantan Selatan 70714","Kel Sungai Ulin, Sungai Besar, Kec. Banjarbaru Selatan, Kota Banjar Baru",KALIMANTAN SELATAN,70714.0,Indonesia,82250856638.0,,,-3.4479898,114.8627371,https://maps.google.com/?cid=0x0:0x541fc759b127a9f0,
toko bangunan,Toko Bahan Bangunan,TB. Yati,"GVV6+9F6, Guntung Paikat, Kec. Banjarbaru Selatan, Kota Banjar Baru, Kalimantan Selatan 70732","Guntung Paikat, Kec. Banjarbaru Selatan, Kota Banjar Baru",KALIMANTAN SELATAN,70732.0,Indonesia,85169981293.0,,,-3.4565774,114.8611556,https://maps.google.com/?cid=0x0:0x6173dfce12dc2c6a,
toko bangunan,Pemasok Bahan Bangunan,Jaya Makmur Martapura Jotun,"Jalan A. Yani Km 37,5 No. 18, Mentaos, Kec. Martapura, Kota Banjar Baru, Kalimantan Selatan 70714","Mentaos, Kec. Martapura, Kota Banjar Baru",KALIMANTAN SELATAN,70714.0,Indonesia,85767802720.0,,,-3.4333669,114.8489735,https://maps.google.com/?cid=0x0:0x69a8e8139b07ac71,
toko bangunan,Toko Bahan Bangunan,Sentral Jaya,"Jl. A. Yani No.29,4, Landasan Ulin Tim., Kec. Landasan Ulin, Kota Banjar Baru, Kalimantan Selatan 70721","Landasan Ulin Tim., Kec. Landasan Ulin, Kota Banjar Baru",KALIMANTAN SELATAN,70721.0,Indonesia,87781689990.0,,,-3.4490863,114.7865974,https://maps.google.com/?cid=0x0:0x5ffec726192cac75,
toko bangunan,Toko Bahan Bangunan,Toko Sumber Jaya Lestari,"Jl. H. Mistar Cokrokusumo No.105, Kemuning, Kec. Banjarbaru Selatan, Kota Banjar Baru, Kalimantan Selatan 70732","Kemuning, Kec. Banjarbaru Selatan, Kota Banjar Baru",KALIMANTAN SELATAN,70732.0,Indonesia,85169995912.0,,,-3.457468,114.847653,https://maps.google.com/?cid=0x0:0xa838ed75a3e0b2f0,
toko bangunan,Toko Bahan Bangunan,TB. Sumber Usaha II,"GQQV+Q5J, Jl. Trikora, Guntungmanggis, Kec. Landasan Ulin, Kota Banjar Baru, Kalimantan Selatan 70721","Jl. Trikora, Guntungmanggis, Kec. Landasan Ulin, Kota Banjar Baru",KALIMANTAN SELATAN,70721.0,Indonesia,81250008252.0,,,-3.460543,114.7928824,https://maps.google.com/?cid=0x0:0xedeeb74c7b7101af,
toko bangunan,Toko Bahan Bangunan,Tb.Ratu Elok,"Jl. H. Mistar Cokrokusumo, Loktabat Sel., Kec. Banjarbaru Selatan, Kota Banjar Baru, Kalimantan Selatan 70714","Loktabat Sel., Kec. Banjarbaru Selatan, Kota Banjar Baru",KALIMANTAN SELATAN,70714.0,Indonesia,8115030198.0,,,-3.4532913,114.8462637,https://maps.google.com/?cid=0x0:0x280c7d564c9af5e2,
toko bangunan,Toko Bahan Bangunan,Toko Bangunan Khair,"GRP6+C58, Unnamed Road, Guntungmanggis, Kec. Landasan Ulin, Kota Banjar Baru, Kalimantan Selatan 70731","Unnamed Road, Guntungmanggis, Kec. Landasan Ulin, Kota Banjar Baru",KALIMANTAN SELATAN,70731.0,Indonesia,82144648989.0,,,-3.4639565,114.8104478,https://maps.google.com/?cid=0x0:0x916ee7fdc2186763,
toko bangunan,Toko Bahan Bangunan,TOKO BANGUNAN  ALAT LISTRIK ( RAHMA ),"Loktabat Utara, Kec. Banjarbaru Utara, Kota Banjar Baru, Kalimantan Selatan 70714","Kec. Banjarbaru Utara, Kota Banjar Baru",KALIMANTAN SELATAN,70714.0,Indonesia,87781689990.0,,,-3.4237618,114.8131131,https://maps.google.com/?cid=0x0:0x78b13fb59e723aa6,
toko bangunan,Toko Bahan Bangunan,Gemilang Pusat Bahan Bangunan Kampung Melayu,"Jl. Kp. Melayu Darat, Melayu, Kec. Banjarmasin Tengah, Kota Banjarmasin, Kalimantan Selatan 70122","Melayu, Kec. Banjarmasin Tengah, Kota Banjarmasin",KALIMANTAN SELATAN,70122.0,Indonesia,82148333732.0,,,-3.3166424,114.5999037,https://maps.google.com/?cid=0x0:0x97559946365e0c81,
toko bangunan,Toko Bahan Bangunan,TB. Sumber Usaha III,"Jl. Trikora, Guntungmanggis, Kec. Landasan Ulin, Kota Banjar Baru, Kalimantan Selatan 70731","Guntungmanggis, Kec. Landasan Ulin, Kota Banjar Baru",KALIMANTAN SELATAN,70731.0,Indonesia,82189909091.0,,,-3.4612695,114.8101331,https://maps.google.com/?cid=0x0:0x170a96f74a608b5c,
toko bangunan,Toko Bahan Bangunan,TB Cahaya Cempaka,"GRFX+VG9, Jl. Sma 3, Cempaka, Kec. Cemp., Kota Banjar Baru, Kalimantan Selatan 70732","Jl. Sma 3, Cempaka, Kec. Cemp., Kota Banjar Baru",KALIMANTAN SELATAN,70732.0,Indonesia,85939898813.0,,,-3.4753251,114.8488516,https://maps.google.com/?cid=0x0:0xe304f60d0f20ef07,
toko bangunan,toko bangunan,Kalimantan Selatan 70731,"Guntungmanggis, Kec. Landasan Ulin, Kota Banjar Baru, Kalimantan Selatan","Kota Banjar Baru, Kalimantan Selatan",KALIMANTAN SELATAN,,Indonesia,,,,-3.477524,114.8033337,https://maps.google.com/?cid=0x0:0x68237dba1abc44af,
toko bangunan,Toko Bahan Bangunan,TB. Tawakal 2,"GRH5+3V7, Jl. Palam Raya, Guntungmanggis, Kec. Landasan Ulin, Kota Banjar Baru, Kalimantan Selatan 70731","Jl. Palam Raya, Guntungmanggis, Kec. Landasan Ulin, Kota Banjar Baru",KALIMANTAN SELATAN,70731.0,Indonesia,,,,-3.472346,114.8096723,https://maps.google.com/?cid=0x0:0x55da18d4f556d0d5,
toko bangunan,Toko Bahan Bangunan,TB. Sumber Usaha III,"Jl. Trikora, Guntungmanggis, Kec. Landasan Ulin, Kota Banjar Baru, Kalimantan Selatan 70731","Guntungmanggis, Kec. Landasan Ulin, Kota Banjar Baru",KALIMANTAN SELATAN,70731.0,Indonesia,82189909091.0,,,-3.4612695,114.8101331,https://maps.google.com/?cid=0x0:0x170a96f74a608b5c,
toko bangunan,Toko Bahan Bangunan,Toko Bangunan Khair,"GRP6+C58, Unnamed Road, Guntungmanggis, Kec. Landasan Ulin, Kota Banjar Baru, Kalimantan Selatan 70731","Unnamed Road, Guntungmanggis, Kec. Landasan Ulin, Kota Banjar Baru",KALIMANTAN SELATAN,70731.0,Indonesia,82144648989.0,,,-3.4639565,114.8104478,https://maps.google.com/?cid=0x0:0x916ee7fdc2186763,
toko bangunan,Toko,Gemilang Pusat Bahan Bangunan Banjarbaru,"Jl. A. Yani No.Km.33, Guntung Payung, Kec. Landasan Ulin, Kota Banjar Baru, Kalimantan Selatan 70714","Guntung Payung, Kec. Landasan Ulin, Kota Banjar Baru",KALIMANTAN SELATAN,70714.0,Indonesia,5115911071.0,,,-3.4452225,114.8131499,https://maps.google.com/?cid=0x0:0x73bc6400cc369536,
toko bangunan,Toko Bahan Bangunan,TOKO BANGUNAN H. IYUS,"Jl. Dahlina Raya, Sungai Besar, Kec. Banjarbaru Selatan, Kota Banjar Baru, Kalimantan Selatan 70731","Sungai Besar, Kec. Banjarbaru Selatan, Kota Banjar Baru",KALIMANTAN SELATAN,70731.0,Indonesia,85169995912.0,,,-3.459988,114.8404033,https://maps.google.com/?cid=0x0:0xf6ec9bbb41d47fff,
toko bangunan,Toko Bahan Bangunan,Toko Bangunan HS H.Tamrin,"GRQX+PF8, Jl. H. Mistar Cokrokusumo, Cempaka, Kec. Banjarbaru Selatan, Kota Banjar Baru, Kalimantan Selatan","Kota Banjar Baru, Kalimantan Selatan",KALIMANTAN SELATAN,,Indonesia,85169995912.0,,,-3.4607185,114.848695,https://maps.google.com/?cid=0x0:0x4b3ae3d4726f3c32,
toko bangunan,Toko Bahan Bangunan,Tawakkal,"Jl. H. Mistar Cokrokusumo, Cempaka, Kec. Cemp., Kota Banjar Baru, Kalimantan Selatan 70732","Cempaka, Kec. Cemp., Kota Banjar Baru",KALIMANTAN SELATAN,70732.0,Indonesia,85248786828.0,,,-3.4714488,114.8522606,https://maps.google.com/?cid=0x0:0x637ff0fec790a259,
toko bangunan,Toko Kayu,Toko kayu aqila,"GR82+PX6, Gg. D, Guntungmanggis, Kec. Landasan Ulin, Kota Banjar Baru, Kalimantan Selatan 70731","Gg. D, Guntungmanggis, Kec. Landasan Ulin, Kota Banjar Baru",KALIMANTAN SELATAN,70731.0,Indonesia,817217981.0,,,-3.4832135,114.8023872,https://maps.google.com/?cid=0x0:0xf5a5538c2489201,
toko bangunan,Toko Bahan Bangunan,TB. Raihan,"GRM6+R5W, Jl. Palam Raya, Guntungmanggis, Kec. Landasan Ulin, Kota Banjar Baru, Kalimantan Selatan 70731","Jl. Palam Raya, Guntungmanggis, Kec. Landasan Ulin, Kota Banjar Baru",KALIMANTAN SELATAN,70731.0,Indonesia,87781689990.0,,,-3.465376,114.8104456,https://maps.google.com/?cid=0x0:0x4011d370daa5ec63,
toko bangunan,Toko Bahan Bangunan,Tb.Ratu Elok,"Jl. H. Mistar Cokrokusumo, Loktabat Sel., Kec. Banjarbaru Selatan, Kota Banjar Baru, Kalimantan Selatan 70714","Loktabat Sel., Kec. Banjarbaru Selatan, Kota Banjar Baru",KALIMANTAN SELATAN,70714.0,Indonesia,8115030198.0,,,-3.4532913,114.8462637,https://maps.google.com/?cid=0x0:0x280c7d564c9af5e2,
toko bangunan,Toko Bahan Bangunan,Toko Bangunan Karya Sepakat,"depan pangkalan bus damri, Jalan Trikora Guntung manggis, Landasan Ulin Tim., Kec. Landasan Ulin, Kota Banjar Baru, Kalimantan Selatan 70721","Jalan Trikora Guntung manggis, Landasan Ulin Tim., Kec. Landasan Ulin, Kota Banjar Baru",KALIMANTAN SELATAN,70721.0,Indonesia,85251177855.0,,,-3.4602781,114.7834215,https://maps.google.com/?cid=0x0:0xa2231ef60feea943,
toko bangunan,Toko Bahan Bangunan,TB. Sumber Usaha II,"GQQV+Q5J, Jl. Trikora, Guntungmanggis, Kec. Landasan Ulin, Kota Banjar Baru, Kalimantan Selatan 70721","Jl. Trikora, Guntungmanggis, Kec. Landasan Ulin, Kota Banjar Baru",KALIMANTAN SELATAN,70721.0,Indonesia,81250008252.0,,,-3.460543,114.7928824,https://maps.google.com/?cid=0x0:0xedeeb74c7b7101af,
toko bangunan,Toko Bahan Bangunan,TB. Surya Mandiri,"GRHV+X5Q, Jl. Aneka Tambang, Loktabat Sel., Kec. Banjarbaru Selatan, Kota Banjar Baru, Kalimantan Selatan 70732","Jl. Aneka Tambang, Loktabat Sel., Kec. Banjarbaru Selatan, Kota Banjar Baru",KALIMANTAN SELATAN,70732.0,Indonesia,87781689990.0,,,-3.4700436,114.8429837,https://maps.google.com/?cid=0x0:0xac4ddcbdc6135544,
toko bangunan,Toko Bahan Bangunan,Tb . Auryn Jaya,"Jl. Trikora, Guntungmanggis, Kec. Landasan Ulin, Kota Banjar Baru, Kalimantan Selatan 70721","Guntungmanggis, Kec. Landasan Ulin, Kota Banjar Baru",KALIMANTAN SELATAN,70721.0,Indonesia,81250083042.0,,,-3.4733182,114.7928112,https://maps.google.com/?cid=0x0:0x38010ce63e85ad8,
toko bangunan,Toko Bahan Bangunan,TB. Sinar Utama BJB,"Jl. Palam Raya, Guntungmanggis, Kec. Landasan Ulin, Kota Banjar Baru, Kalimantan Selatan 70731","Guntungmanggis, Kec. Landasan Ulin, Kota Banjar Baru",KALIMANTAN SELATAN,70731.0,Indonesia,85169995912.0,,,-3.464728,114.8103514,https://maps.google.com/?cid=0x0:0xd3afd71da067698a,
toko bangunan,Toko Bahan Bangunan,TB. Sumber Alam,"Jl. Trikora No.30, Kemuning, Kec. Banjarbaru Selatan, Kota Banjar Baru, Kalimantan Selatan 70732","Kemuning, Kec. Banjarbaru Selatan, Kota Banjar Baru",KALIMANTAN SELATAN,70732.0,Indonesia,85169995912.0,,,-3.4614394,114.8455233,https://maps.google.com/?cid=0x0:0xfd645630d014190b,
toko bangunan,Toko Bahan Bangunan,TB. Murah Abadi,"GRQ6+6FM, Jl. Palam Raya, Guntungmanggis, Kec. Landasan Ulin, Kota Banjar Baru, Kalimantan Selatan 70731","Jl. Palam Raya, Guntungmanggis, Kec. Landasan Ulin, Kota Banjar Baru",KALIMANTAN SELATAN,70731.0,Indonesia,85169995912.0,,,-3.4619109,114.8111695,https://maps.google.com/?cid=0x0:0x63b7b65d10c757a9,
toko bangunan,Toko Bahan Bangunan,TB IMA JAYA,"Jl. Guntung Manggis No.105, Guntungmanggis, Kec. Landasan Ulin, Kota Banjar Baru, Kalimantan Selatan 70721","Guntungmanggis, Kec. Landasan Ulin, Kota Banjar Baru",KALIMANTAN SELATAN,70721.0,Indonesia,82252233399.0,,,-3.4625075,114.7916071,https://maps.google.com/?cid=0x0:0xae53f8945339dd1a,
toko bangunan,Toko Bahan Bangunan,UD. Margasari,"Loktabat Sel., Kec. Banjarbaru Selatan, Kota Banjar Baru, Kalimantan Selatan 70714","Kec. Banjarbaru Selatan, Kota Banjar Baru",KALIMANTAN SELATAN,70714.0,Indonesia,82173389240.0,,,-3.4512177,114.844585,https://maps.google.com/?cid=0x0:0x96e330ec12a2c5ca,
toko bangunan,Toko Bahan Bangunan,UD Berkat Jaya,"Loktabat Sel., Kec. Banjarbaru Selatan, Kota Banjar Baru, Kalimantan Selatan 70732","Kec. Banjarbaru Selatan, Kota Banjar Baru",KALIMANTAN SELATAN,70732.0,Indonesia,87815275766.0,,,-3.4608128,114.8430843,https://maps.google.com/?cid=0x0:0x36efa92a51ede25b,
toko bangunan,Toko Bahan Bangunan,Toko Bangunan Fajar,"Jl. Cempaka Putih Barat II No.28A, Cemp. Putih Bar., Kec. Cemp. Putih, Kota Jakarta Pusat, Daerah Khusus Ibukota Jakarta 10520","Cemp. Putih Bar., Kec. Cemp. Putih, Kota Jakarta Pusat",KALIMANTAN SELATAN,10520.0,Indonesia,2142801747.0,,,-6.1748033,106.8637371,https://maps.google.com/?cid=0x0:0xf356c194d2623b6,
toko bangunan,Toko Bahan Bangunan,Toko Bangunan Penjuru,"Jl. Kemayoran Ketapang No.01 9, RT.1/RW.8, Kb. Kosong, Kec. Kemayoran, Kota Jakarta Pusat, Daerah Khusus Ibukota Jakarta 10620","RT.1/RW.8, Kb. Kosong, Kec. Kemayoran, Kota Jakarta Pusat",KALIMANTAN SELATAN,10620.0,Indonesia,82174999886.0,,,-6.16194,106.8500061,https://maps.google.com/?cid=0x0:0x1b46df32e9e1c7d1,
toko bangunan,Pasar bahan bangunan,Toko Bangunan Jakarta Pusat Terlengkap - Mitra10 Percetakan Negara,"Blok 36C, Jl. Percetakan Negara, Rawasari, Kec. Cemp. Putih, Kota Jakarta Pusat, Daerah Khusus Ibukota Jakarta 10570","Jl. Percetakan Negara, Rawasari, Kec. Cemp. Putih, Kota Jakarta Pusat",KALIMANTAN SELATAN,10570.0,Indonesia,87800021010.0,,,-6.1892838,106.8621887,https://maps.google.com/?cid=0x0:0xd7a22e764307420f,
toko bangunan,Toko Bahan Bangunan,toko bangunan c.p.b,"Jl. Cempaka Raya No.6 3, RT.3/RW.9, Cemp. Putih Bar., Kec. Cemp. Putih, Kota Jakarta Pusat, Daerah Khusus Ibukota Jakarta 10520","RT.3/RW.9, Cemp. Putih Bar., Kec. Cemp. Putih, Kota Jakarta Pusat",KALIMANTAN SELATAN,10520.0,Indonesia,85219793880.0,,,-6.1808713,106.8608785,https://maps.google.com/?cid=0x0:0x5aa3c3258da6b919,
toko bangunan,Toko Bahan Bangunan,Toko Material PD MAKMUR PERCETAKAN NEGARA,"Jl. Percetakan Negara No.1A 1, RT.1/RW.5, Rawasari, Kec. Cemp. Putih, DKI Jakarta, Daerah Khusus Ibukota Jakarta 10570","RT.1/RW.5, Rawasari, Kec. Cemp. Putih, DKI Jakarta",KALIMANTAN SELATAN,10570.0,Indonesia,214254226.0,,,-6.1883086,106.8635527,https://maps.google.com/?cid=0x0:0x511ab539f4b0a21d,
toko bangunan,Toko Tegel,Mega Keramik,"3, Jl. Percetakan Negara No.565 B, RT.3/RW.6, Cemp. Putih Bar., Kec. Cemp. Putih, Kota Jakarta Pusat, Daerah Khusus Ibukota Jakarta 10570","Jl. Percetakan Negara No.565 B, RT.3/RW.6, Cemp. Putih Bar., Kec. Cemp. Putih, Kota Jakarta Pusat",KALIMANTAN SELATAN,10570.0,Indonesia,85133369932.0,,,-6.1872025,106.867968,https://maps.google.com/?cid=0x0:0x402593ea2816aa02,
toko bangunan,toko bangunan,Kalimantan Selatan 70732,"Bangkal, Kec. Cemp., Kota Banjar Baru, Kalimantan Selatan","Kota Banjar Baru, Kalimantan Selatan",KALIMANTAN SELATAN,,Indonesia,,,,-3.4994645,114.844879,https://maps.google.com/?cid=0x0:0x28e6e9ebdc2da355,
toko bangunan,Toko Bahan Bangunan,TB Cahaya Cempaka,"GRFX+VG9, Jl. Sma 3, Cempaka, Kec. Cemp., Kota Banjar Baru, Kalimantan Selatan 70732","Jl. Sma 3, Cempaka, Kec. Cemp., Kota Banjar Baru",KALIMANTAN SELATAN,70732.0,Indonesia,85939898813.0,,,-3.4753251,114.8488516,https://maps.google.com/?cid=0x0:0xe304f60d0f20ef07,
toko bangunan,Toko Bahan Bangunan,TB. Barkat,"GV83+232, Jl. H. Mistar Cokrokusumo, Bangkal, Kec. Cemp., Kota Banjar Baru, Kalimantan Selatan 70732","Jl. H. Mistar Cokrokusumo, Bangkal, Kec. Cemp., Kota Banjar Baru",KALIMANTAN SELATAN,70732.0,Indonesia,85939898813.0,,,-3.4849833,114.8526357,https://maps.google.com/?cid=0x0:0x725a1b52c61cdc7,
toko bangunan,Toko Bahan Bangunan,Tb berkah jaya,"FRP7+9W4, Bangkal, Kec. Cemp., Kota Banjar Baru, Kalimantan Selatan 70732","Bangkal, Kec. Cemp., Kota Banjar Baru",KALIMANTAN SELATAN,70732.0,Indonesia,,,,-3.5141034,114.8148407,https://maps.google.com/?cid=0x0:0x1e7c46983c28ff0f,
toko bangunan,Toko Bahan Bangunan,TB. ANUGERAH BANGUN BERSAMA,"Unnamed Road, Cempaka, Kec. Cemp., Kota Banjar Baru, Kalimantan Selatan 70734","Cempaka, Kec. Cemp., Kota Banjar Baru",KALIMANTAN SELATAN,70734.0,Indonesia,82148878901.0,,,-3.4883701,114.8695738,https://maps.google.com/?cid=0x0:0x450edfdf73d5ff8a,
toko bangunan,Toko Bahan Bangunan,Tb. Anugerah,"FRWG+VVF, Jl. H. Mistar Cokrokusumo, Bangkal, Kec. Cemp., Kota Banjar Baru, Kalimantan Selatan 70732","Jl. H. Mistar Cokrokusumo, Bangkal, Kec. Cemp., Kota Banjar Baru",KALIMANTAN SELATAN,70732.0,Indonesia,,,,-3.5028228,114.8271611,https://maps.google.com/?cid=0x0:0xeccd5c0bcce35961,
toko bangunan,Toko Bahan Bangunan,TB. Yati,"GVV6+9F6, Guntung Paikat, Kec. Banjarbaru Selatan, Kota Banjar Baru, Kalimantan Selatan 70732","Guntung Paikat, Kec. Banjarbaru Selatan, Kota Banjar Baru",KALIMANTAN SELATAN,70732.0,Indonesia,85169981293.0,,,-3.4565774,114.8611556,https://maps.google.com/?cid=0x0:0x6173dfce12dc2c6a,
toko bangunan,Toko Bahan Bangunan,Toko SAN bangunan,"GVP5+7C4, Jl. Jeruk, Sungai Besar, Sungai Ulin, Kota Banjar Baru, Kalimantan Selatan","Kota Banjar Baru, Kalimantan Selatan",KALIMANTAN SELATAN,,Indonesia,85753176046.0,,,-3.4643672,114.8585929,https://maps.google.com/?cid=0x0:0xcee92f23c549f503,
toko bangunan,Toko Bahan Bangunan,TB. Tawakal 2,"GRH5+3V7, Jl. Palam Raya, Guntungmanggis, Kec. Landasan Ulin, Kota Banjar Baru, Kalimantan Selatan 70731","Jl. Palam Raya, Guntungmanggis, Kec. Landasan Ulin, Kota Banjar Baru",KALIMANTAN SELATAN,70731.0,Indonesia,,,,-3.472346,114.8096723,https://maps.google.com/?cid=0x0:0x55da18d4f556d0d5,
toko bangunan,Toko Bahan Bangunan,TOKO BERKAT KARUNIA AL,"GR2X+Q86, Bangkal, Kec. Cemp., Kota Banjar Baru, Kalimantan Selatan 70732","Bangkal, Kec. Cemp., Kota Banjar Baru",KALIMANTAN SELATAN,70732.0,Indonesia,,,,-3.4980848,114.8482569,https://maps.google.com/?cid=0x0:0x286d177ac3b7e81b,
toko bangunan,Toko Bahan Bangunan,Toko Bangunan HS H.Tamrin,"GRQX+PF8, Jl. H. Mistar Cokrokusumo, Cempaka, Kec. Banjarbaru Selatan, Kota Banjar Baru, Kalimantan Selatan","Kota Banjar Baru, Kalimantan Selatan",KALIMANTAN SELATAN,,Indonesia,85169995912.0,,,-3.4607185,114.848695,https://maps.google.com/?cid=0x0:0x4b3ae3d4726f3c32,
toko bangunan,Toko Bahan Bangunan,Tb.Ratu Elok,"Jl. H. Mistar Cokrokusumo, Loktabat Sel., Kec. Banjarbaru Selatan, Kota Banjar Baru, Kalimantan Selatan 70714","Loktabat Sel., Kec. Banjarbaru Selatan, Kota Banjar Baru",KALIMANTAN SELATAN,70714.0,Indonesia,8115030198.0,,,-3.4532913,114.8462637,https://maps.google.com/?cid=0x0:0x280c7d564c9af5e2,
toko bangunan,Toko Bahan Bangunan,Toko Bangunan Jasa Ibu,"Jalan Trikora Loktabat Selatan Kecamatan Banjarbaru Selatan Komp taman trikora asri Seberang komp galuh merindu 2, Kota Banjar Baru, Kalimantan Selatan 70731",Kota Banjar Baru,KALIMANTAN SELATAN,70731.0,Indonesia,,,,-3.4607848,114.8384669,https://maps.google.com/?cid=0x0:0x1ad593987f001bad,
toko bangunan,Toko Bahan Bangunan,TB. Sumber Aneka H. Ainin,"GVJ3+C2F, Jalan HM Mistar Cokrokusumo, Cempaka, Kec. Cemp., Kota Banjar Baru, Kalimantan Selatan 70732","Jalan HM Mistar Cokrokusumo, Cempaka, Kec. Cemp., Kota Banjar Baru",KALIMANTAN SELATAN,70732.0,Indonesia,85931237784.0,,,-3.4689492,114.8525622,https://maps.google.com/?cid=0x0:0x5e920ee2e9239680,
toko bangunan,Toko Bahan Bangunan,TB.KELAPA GADING RAYA,"GVR3+FM8, Jl. Klp. Gading, Kemuning, Kec. Banjarbaru Selatan, Kota Banjar Baru, Kalimantan Selatan 70732","Jl. Klp. Gading, Kemuning, Kec. Banjarbaru Selatan, Kota Banjar Baru",KALIMANTAN SELATAN,70732.0,Indonesia,81272081709.0,,,-3.4588271,114.8541716,https://maps.google.com/?cid=0x0:0x61cb4cdc50053acb,
toko bangunan,Toko,Gemilang Pusat Bahan Bangunan Banjarbaru,"Jl. A. Yani No.Km.33, Guntung Payung, Kec. Landasan Ulin, Kota Banjar Baru, Kalimantan Selatan 70714","Guntung Payung, Kec. Landasan Ulin, Kota Banjar Baru",KALIMANTAN SELATAN,70714.0,Indonesia,5115911071.0,,,-3.4452225,114.8131499,https://maps.google.com/?cid=0x0:0x73bc6400cc369536,
toko bangunan,Toko Bahan Bangunan,TB. Surya Mandiri,"GRHV+X5Q, Jl. Aneka Tambang, Loktabat Sel., Kec. Banjarbaru Selatan, Kota Banjar Baru, Kalimantan Selatan 70732","Jl. Aneka Tambang, Loktabat Sel., Kec. Banjarbaru Selatan, Kota Banjar Baru",KALIMANTAN SELATAN,70732.0,Indonesia,87781689990.0,,,-3.4700436,114.8429837,https://maps.google.com/?cid=0x0:0xac4ddcbdc6135544,
toko bangunan,Toko Bahan Bangunan,TB Ar Raudah,"Blk. B Jl. H. Mistar Cokrokusumo No.3, Cempaka, Kec. Cemp., Kota Banjar Baru, Kalimantan Selatan 70732","Cempaka, Kec. Cemp., Kota Banjar Baru",KALIMANTAN SELATAN,70732.0,Indonesia,,,,-3.4708717,114.8523173,https://maps.google.com/?cid=0x0:0x875fc7457eadf474,
toko bangunan,Toko Bahan Bangunan,Toko Muda Jaya,"GRRX+M5F, Kemuning, Kec. Banjarbaru Selatan, Kota Banjar Baru, Kalimantan Selatan 70732","Kemuning, Kec. Banjarbaru Selatan, Kota Banjar Baru",KALIMANTAN SELATAN,70732.0,Indonesia,5114781420.0,,,-3.458319,114.8479266,https://maps.google.com/?cid=0x0:0x92654ec4c5ffc3d7,
toko bangunan,Toko Bahan Bangunan,Anggi Material Cempaka,"Jl. H. Mistar Cokrokusumo No.55, Cempaka, Kec. Cemp., Kota Banjar Baru, Kalimantan Selatan 70732","Cempaka, Kec. Cemp., Kota Banjar Baru",KALIMANTAN SELATAN,70732.0,Indonesia,81349496222.0,,,-3.4689605,114.8525612,https://maps.google.com/?cid=0x0:0x3ae8e9bafdb82406,
toko bangunan,Toko,Sinar jaya batako,"GVQ5+RGJ, Jl. Klp. Gading, Guntung Paikat, Kec. Banjarbaru Selatan, Kota Banjar Baru, Kalimantan Selatan 70732","Jl. Klp. Gading, Guntung Paikat, Kec. Banjarbaru Selatan, Kota Banjar Baru",KALIMANTAN SELATAN,70732.0,Indonesia,85387328844.0,,,-3.4604099,114.8587517,https://maps.google.com/?cid=0x0:0x5b8e29dd0eba23b7,
toko bangunan,Dealer mobil,Toko Mina Motor,"GR2W+6QX, Bangkal, Kec. Cemp., Kota Banjar Baru, Kalimantan Selatan 70732","Bangkal, Kec. Cemp., Kota Banjar Baru",KALIMANTAN SELATAN,70732.0,Indonesia,,,,-3.4993801,114.8469881,https://maps.google.com/?cid=0x0:0xfc92560ac64c949f,
toko bangunan,Toko Bahan Bangunan,TB. Sumber Alam,"Jl. Trikora No.30, Kemuning, Kec. Banjarbaru Selatan, Kota Banjar Baru, Kalimantan Selatan 70732","Kemuning, Kec. Banjarbaru Selatan, Kota Banjar Baru",KALIMANTAN SELATAN,70732.0,Indonesia,85169995912.0,,,-3.4614394,114.8455233,https://maps.google.com/?cid=0x0:0xfd645630d014190b,
toko bangunan,Toko Bahan Bangunan,Toko Bangunan Fajar,"Jl. Cempaka Putih Barat II No.28A, Cemp. Putih Bar., Kec. Cemp. Putih, Kota Jakarta Pusat, Daerah Khusus Ibukota Jakarta 10520","Cemp. Putih Bar., Kec. Cemp. Putih, Kota Jakarta Pusat",KALIMANTAN SELATAN,10520.0,Indonesia,2142801747.0,,,-6.1748033,106.8637371,https://maps.google.com/?cid=0x0:0xf356c194d2623b6,
toko bangunan,Toko Bahan Bangunan,Cempaka Batoko,"GRCW+XM3, Palam, Kec. Cemp., Kota Banjar Baru, Kalimantan Selatan 70732","Palam, Kec. Cemp., Kota Banjar Baru",KALIMANTAN SELATAN,70732.0,Indonesia,,,,-3.4776229,114.8466667,https://maps.google.com/?cid=0x0:0x5e32ba25d0feb7b0,
toko bangunan,Toko Bahan Bangunan,Sentral Jaya,"Jl. A. Yani No.29,4, Landasan Ulin Tim., Kec. Landasan Ulin, Kota Banjar Baru, Kalimantan Selatan 70721","Landasan Ulin Tim., Kec. Landasan Ulin, Kota Banjar Baru",KALIMANTAN SELATAN,70721.0,Indonesia,87781689990.0,,,-3.4490863,114.7865974,https://maps.google.com/?cid=0x0:0x5ffec726192cac75,
toko bangunan,Pemasok Bahan Bangunan,TB. Andeska 2,"Jalan PM Noor No.28, Kel Sungai Ulin, Sungai Besar, Kec. Banjarbaru Selatan, Kota Banjar Baru, Kalimantan Selatan 70714","Kel Sungai Ulin, Sungai Besar, Kec. Banjarbaru Selatan, Kota Banjar Baru",KALIMANTAN SELATAN,70714.0,Indonesia,82250856638.0,,,-3.4479898,114.8627371,https://maps.google.com/?cid=0x0:0x541fc759b127a9f0,
toko bangunan,Toko Bahan Bangunan,UD. Lita Rasih,"Jalan H.Mister Cokrokusumo RT. 13 RW. 05 Sebrang Alfamart (Sungai Tiung) Ada langgar hijau(Riadul Badi'ah) Samping kanan nya toko UD.Lita Rasih kel, Sungai Tiung, Kec. Cemp., Kota Banjar Baru, Kalimantan Selatan 70732","Sungai Tiung, Kec. Cemp., Kota Banjar Baru",KALIMANTAN SELATAN,70732.0,Indonesia,81349573079.0,,,-3.499041,114.8470994,https://maps.google.com/?cid=0x0:0x9c3740022a4865e5,
toko bangunan,Toko Perlengkapan Rumah,Surya Bangunan Toko Bangunan,"Jl. Peramuan, Landasan Ulin Tengah, Kec. Liang Anggang, Kota Banjar Baru, Kalimantan Selatan 70724","Landasan Ulin Tengah, Kec. Liang Anggang, Kota Banjar Baru",KALIMANTAN SELATAN,70724.0,Indonesia,82151892639.0,,,-3.4460136,114.7389084,https://maps.google.com/?cid=0x0:0x14fb2b29ae4e225b,
toko bangunan,toko bangunan,Kalimantan Selatan 70733,"Cempaka, Kec. Cemp., Kota Banjar Baru, Kalimantan Selatan","Kota Banjar Baru, Kalimantan Selatan",KALIMANTAN SELATAN,,Indonesia,,,,-3.5025766,114.8982871,https://maps.google.com/?cid=0x0:0x56d813104b3c5f90,
toko bangunan,Toko Bahan Bangunan,TB Cahaya Cempaka,"GRFX+VG9, Jl. Sma 3, Cempaka, Kec. Cemp., Kota Banjar Baru, Kalimantan Selatan 70732","Jl. Sma 3, Cempaka, Kec. Cemp., Kota Banjar Baru",KALIMANTAN SELATAN,70732.0,Indonesia,85939898813.0,,,-3.4753251,114.8488516,https://maps.google.com/?cid=0x0:0xe304f60d0f20ef07,
toko bangunan,Toko Bahan Bangunan,TB. ANUGERAH BANGUN BERSAMA,"Unnamed Road, Cempaka, Kec. Cemp., Kota Banjar Baru, Kalimantan Selatan 70734","Cempaka, Kec. Cemp., Kota Banjar Baru",KALIMANTAN SELATAN,70734.0,Indonesia,82148878901.0,,,-3.4883701,114.8695738,https://maps.google.com/?cid=0x0:0x450edfdf73d5ff8a,
toko bangunan,Toko Bahan Bangunan,Toko SAN bangunan,"GVP5+7C4, Jl. Jeruk, Sungai Besar, Sungai Ulin, Kota Banjar Baru, Kalimantan Selatan","Kota Banjar Baru, Kalimantan Selatan",KALIMANTAN SELATAN,,Indonesia,85753176046.0,,,-3.4643672,114.8585929,https://maps.google.com/?cid=0x0:0xcee92f23c549f503,
toko bangunan,Toko,Gemilang Pusat Bahan Bangunan Banjarbaru,"Jl. A. Yani No.Km.33, Guntung Payung, Kec. Landasan Ulin, Kota Banjar Baru, Kalimantan Selatan 70714","Guntung Payung, Kec. Landasan Ulin, Kota Banjar Baru",KALIMANTAN SELATAN,70714.0,Indonesia,5115911071.0,,,-3.4452225,114.8131499,https://maps.google.com/?cid=0x0:0x73bc6400cc369536,
toko bangunan,Pemasok Bahan Bangunan,TB. Andeska 2,"Jalan PM Noor No.28, Kel Sungai Ulin, Sungai Besar, Kec. Banjarbaru Selatan, Kota Banjar Baru, Kalimantan Selatan 70714","Kel Sungai Ulin, Sungai Besar, Kec. Banjarbaru Selatan, Kota Banjar Baru",KALIMANTAN SELATAN,70714.0,Indonesia,82250856638.0,,,-3.4479898,114.8627371,https://maps.google.com/?cid=0x0:0x541fc759b127a9f0,
toko bangunan,Toko Bahan Bangunan,Toko Bangunan Sehati,"Sungai Ulin, Kec. Banjarbaru Utara, Kota Banjar Baru, Kalimantan Selatan 70661","Kec. Banjarbaru Utara, Kota Banjar Baru",KALIMANTAN SELATAN,70661.0,Indonesia,,,,-3.469499,114.9249128,https://maps.google.com/?cid=0x0:0x7eb13a2843be722f,
toko bangunan,Toko Bahan Bangunan,Toko Bangunan Jasa Ibu,"Jalan Trikora Loktabat Selatan Kecamatan Banjarbaru Selatan Komp taman trikora asri Seberang komp galuh merindu 2, Kota Banjar Baru, Kalimantan Selatan 70731",Kota Banjar Baru,KALIMANTAN SELATAN,70731.0,Indonesia,,,,-3.4607848,114.8384669,https://maps.google.com/?cid=0x0:0x1ad593987f001bad,
toko bangunan,Toko Bahan Bangunan,Tb.karya Mandiri,"jln jeruk sungai ulin, Jl. Jeruk, Sungai Besar, Kec. Banjarbaru Selatan, Kota Banjar Baru, Kalimantan Selatan 70714","Jl. Jeruk, Sungai Besar, Kec. Banjarbaru Selatan, Kota Banjar Baru",KALIMANTAN SELATAN,70714.0,Indonesia,87781689990.0,,,-3.4490683,114.8632573,https://maps.google.com/?cid=0x0:0xc128475393223d8f,
toko bangunan,Toko Bahan Bangunan,Sentral Jaya,"Jl. A. Yani No.29,4, Landasan Ulin Tim., Kec. Landasan Ulin, Kota Banjar Baru, Kalimantan Selatan 70721","Landasan Ulin Tim., Kec. Landasan Ulin, Kota Banjar Baru",KALIMANTAN SELATAN,70721.0,Indonesia,87781689990.0,,,-3.4490863,114.7865974,https://maps.google.com/?cid=0x0:0x5ffec726192cac75,
toko bangunan,Toko Bahan Bangunan,Fathur,"komplek griya sinarbaru Jl. Sinar Baru No.31, Sungai Ulin, Kec. Banjarbaru Selatan, Kota Banjar Baru, Kalimantan Selatan 70732","Sungai Ulin, Kec. Banjarbaru Selatan, Kota Banjar Baru",KALIMANTAN SELATAN,70732.0,Indonesia,85787827508.0,,,-3.4550298,114.8670704,https://maps.google.com/?cid=0x0:0x341c00aad05abedc,
toko bangunan,Toko Bahan Bangunan,UD. Margasari,"Jl. Ir. P. M. Noor No.58, Sungai Besar, Kec. Banjarbaru Selatan, Kota Banjar Baru, Kalimantan Selatan 70714","Sungai Besar, Kec. Banjarbaru Selatan, Kota Banjar Baru",KALIMANTAN SELATAN,70714.0,Indonesia,5114787087.0,,,-3.4495656,114.8675944,https://maps.google.com/?cid=0x0:0x18a9b12fca9fea97,
toko bangunan,Toko Bahan Bangunan,Anggi Material Cempaka,"Jl. H. Mistar Cokrokusumo No.55, Cempaka, Kec. Cemp., Kota Banjar Baru, Kalimantan Selatan 70732","Cempaka, Kec. Cemp., Kota Banjar Baru",KALIMANTAN SELATAN,70732.0,Indonesia,81349496222.0,,,-3.4689605,114.8525612,https://maps.google.com/?cid=0x0:0x3ae8e9bafdb82406,
toko bangunan,Toko Bahan Bangunan,Toko Bangunan Cahaya Abadi,"Jl. POM NOOR, RT.06/RW.02, Sungai Ulin, Kec. Banjarbaru Selatan, Kota Banjar Baru, Kalimantan Selatan 70714","RT.06/RW.02, Sungai Ulin, Kec. Banjarbaru Selatan, Kota Banjar Baru",KALIMANTAN SELATAN,70714.0,Indonesia,82279284323.0,,,-3.4432629,114.8561533,https://maps.google.com/?cid=0x0:0x3e0891ea24b11a47,
toko bangunan,Toko Bahan Bangunan,Tb.Ratu Elok,"Jl. H. Mistar Cokrokusumo, Loktabat Sel., Kec. Banjarbaru Selatan, Kota Banjar Baru, Kalimantan Selatan 70714","Loktabat Sel., Kec. Banjarbaru Selatan, Kota Banjar Baru",KALIMANTAN SELATAN,70714.0,Indonesia,8115030198.0,,,-3.4532913,114.8462637,https://maps.google.com/?cid=0x0:0x280c7d564c9af5e2,
toko bangunan,Toko,Sinar jaya batako,"GVQ5+RGJ, Jl. Klp. Gading, Guntung Paikat, Kec. Banjarbaru Selatan, Kota Banjar Baru, Kalimantan Selatan 70732","Jl. Klp. Gading, Guntung Paikat, Kec. Banjarbaru Selatan, Kota Banjar Baru",KALIMANTAN SELATAN,70732.0,Indonesia,85387328844.0,,,-3.4604099,114.8587517,https://maps.google.com/?cid=0x0:0x5b8e29dd0eba23b7,
toko bangunan,Toko Bahan Bangunan,Toko D5 (D Five),"HV29+J67 dekat puskesmas, Jln Tol Sirkuit, Sei, Kec. Landasan Ulin, Kota Banjar Baru, Kalimantan Selatan","Kota Banjar Baru, Kalimantan Selatan",KALIMANTAN SELATAN,,Indonesia,85335984449.0,,,-3.4484737,114.8680586,https://maps.google.com/?cid=0x0:0xdf94b076d6721ce9,
toko bangunan,Toko Bahan Bangunan,TB. Sumber Aneka H. Ainin,"GVJ3+C2F, Jalan HM Mistar Cokrokusumo, Cempaka, Kec. Cemp., Kota Banjar Baru, Kalimantan Selatan 70732","Jalan HM Mistar Cokrokusumo, Cempaka, Kec. Cemp., Kota Banjar Baru",KALIMANTAN SELATAN,70732.0,Indonesia,85931237784.0,,,-3.4689492,114.8525622,https://maps.google.com/?cid=0x0:0x5e920ee2e9239680,
toko bangunan,Toko Bahan Bangunan,Lapan Lapan Bangunan,"Jl. A. Yani No.Km 21 5, RW.5, Landasan Ulin Bar., Kec. Liang Anggang, Kota Banjar Baru, Kalimantan Selatan 70723","RW.5, Landasan Ulin Bar., Kec. Liang Anggang, Kota Banjar Baru",KALIMANTAN SELATAN,70723.0,Indonesia,8115038688.0,,,-3.4432528,114.7173921,https://maps.google.com/?cid=0x0:0xb5a5f424b44fd732,
toko bangunan,Toko Bahan Bangunan,Toko Bangunan Karya Sepakat,"depan pangkalan bus damri, Jalan Trikora Guntung manggis, Landasan Ulin Tim., Kec. Landasan Ulin, Kota Banjar Baru, Kalimantan Selatan 70721","Jalan Trikora Guntung manggis, Landasan Ulin Tim., Kec. Landasan Ulin, Kota Banjar Baru",KALIMANTAN SELATAN,70721.0,Indonesia,85251177855.0,,,-3.4602781,114.7834215,https://maps.google.com/?cid=0x0:0xa2231ef60feea943,
toko bangunan,Toko Bahan Bangunan,Toko Bangunan HS H.Tamrin,"GRQX+PF8, Jl. H. Mistar Cokrokusumo, Cempaka, Kec. Banjarbaru Selatan, Kota Banjar Baru, Kalimantan Selatan","Kota Banjar Baru, Kalimantan Selatan",KALIMANTAN SELATAN,,Indonesia,85169995912.0,,,-3.4607185,114.848695,https://maps.google.com/?cid=0x0:0x4b3ae3d4726f3c32,
toko bangunan,Toko Bahan Bangunan,TB.KELAPA GADING RAYA,"GVR3+FM8, Jl. Klp. Gading, Kemuning, Kec. Banjarbaru Selatan, Kota Banjar Baru, Kalimantan Selatan 70732","Jl. Klp. Gading, Kemuning, Kec. Banjarbaru Selatan, Kota Banjar Baru",KALIMANTAN SELATAN,70732.0,Indonesia,81272081709.0,,,-3.4588271,114.8541716,https://maps.google.com/?cid=0x0:0x61cb4cdc50053acb,
toko bangunan,Toko Perlengkapan Rumah,Batako mang jalal,"FWWH+PFP, Jl. P. Suryanata, Cempaka, Kec. Cemp., Kota Banjar Baru, Kalimantan Selatan 70661","Jl. P. Suryanata, Cempaka, Kec. Cemp., Kota Banjar Baru",KALIMANTAN SELATAN,70661.0,Indonesia,,,,-3.5023726,114.9289035,https://maps.google.com/?cid=0x0:0x34fbb4311f8bf557,
toko bangunan,Toko Bahan Bangunan,Toko Bangunan Fajar,"Jl. Cempaka Putih Barat II No.28A, Cemp. Putih Bar., Kec. Cemp. Putih, Kota Jakarta Pusat, Daerah Khusus Ibukota Jakarta 10520","Cemp. Putih Bar., Kec. Cemp. Putih, Kota Jakarta Pusat",KALIMANTAN SELATAN,10520.0,Indonesia,2142801747.0,,,-6.1748033,106.8637371,https://maps.google.com/?cid=0x0:0xf356c194d2623b6,
toko bangunan,Toko Bahan Bangunan,Tawakkal,"Jl. H. Mistar Cokrokusumo, Cempaka, Kec. Cemp., Kota Banjar Baru, Kalimantan Selatan 70732","Cempaka, Kec. Cemp., Kota Banjar Baru",KALIMANTAN SELATAN,70732.0,Indonesia,85248786828.0,,,-3.4714488,114.8522606,https://maps.google.com/?cid=0x0:0x637ff0fec790a259,
toko bangunan,Toko Tegel,Mega Keramik,"3, Jl. Percetakan Negara No.565 B, RT.3/RW.6, Cemp. Putih Bar., Kec. Cemp. Putih, Kota Jakarta Pusat, Daerah Khusus Ibukota Jakarta 10570","Jl. Percetakan Negara No.565 B, RT.3/RW.6, Cemp. Putih Bar., Kec. Cemp. Putih, Kota Jakarta Pusat",KALIMANTAN SELATAN,10570.0,Indonesia,85133369932.0,,,-6.1872025,106.867968,https://maps.google.com/?cid=0x0:0x402593ea2816aa02,
toko bangunan,Toko Perlengkapan Rumah,Toko Bangunan Mubarak Aulia,"HR82+84G, Jl. Karang Anyar 1, Guntung Payung, Kec. Landasan Ulin, Kota Banjar Baru, Kalimantan Selatan 70721","Jl. Karang Anyar 1, Guntung Payung, Kec. Landasan Ulin, Kota Banjar Baru",KALIMANTAN SELATAN,70721.0,Indonesia,82350909595.0,,,-3.434197,114.8003184,https://maps.google.com/?cid=0x0:0xe374b29ab65800bf,
toko bangunan,toko bangunan,Kalimantan Selatan 70734,"Kec. Cemp., Kota Banjar Baru, Kalimantan Selatan","Kota Banjar Baru, Kalimantan Selatan",KALIMANTAN SELATAN,,Indonesia,,,,-3.5124917,114.8745512,https://maps.google.com/?cid=0x0:0xe3b83582fea2080a,
toko bangunan,Toko Bahan Bangunan,TB Cahaya Cempaka,"GRFX+VG9, Jl. Sma 3, Cempaka, Kec. Cemp., Kota Banjar Baru, Kalimantan Selatan 70732","Jl. Sma 3, Cempaka, Kec. Cemp., Kota Banjar Baru",KALIMANTAN SELATAN,70732.0,Indonesia,85939898813.0,,,-3.4753251,114.8488516,https://maps.google.com/?cid=0x0:0xe304f60d0f20ef07,
toko bangunan,Toko Bahan Bangunan,TB. ANUGERAH BANGUN BERSAMA,"Unnamed Road, Cempaka, Kec. Cemp., Kota Banjar Baru, Kalimantan Selatan 70734","Cempaka, Kec. Cemp., Kota Banjar Baru",KALIMANTAN SELATAN,70734.0,Indonesia,82148878901.0,,,-3.4883701,114.8695738,https://maps.google.com/?cid=0x0:0x450edfdf73d5ff8a,
toko bangunan,Toko Bahan Bangunan,Tawakkal,"Jl. H. Mistar Cokrokusumo, Cempaka, Kec. Cemp., Kota Banjar Baru, Kalimantan Selatan 70732","Cempaka, Kec. Cemp., Kota Banjar Baru",KALIMANTAN SELATAN,70732.0,Indonesia,85248786828.0,,,-3.4714488,114.8522606,https://maps.google.com/?cid=0x0:0x637ff0fec790a259,
toko bangunan,Toko Bahan Bangunan,Toko SAN bangunan,"GVP5+7C4, Jl. Jeruk, Sungai Besar, Sungai Ulin, Kota Banjar Baru, Kalimantan Selatan","Kota Banjar Baru, Kalimantan Selatan",KALIMANTAN SELATAN,,Indonesia,85753176046.0,,,-3.4643672,114.8585929,https://maps.google.com/?cid=0x0:0xcee92f23c549f503,
toko bangunan,Toko,Gemilang Pusat Bahan Bangunan Banjarbaru,"Jl. A. Yani No.Km.33, Guntung Payung, Kec. Landasan Ulin, Kota Banjar Baru, Kalimantan Selatan 70714","Guntung Payung, Kec. Landasan Ulin, Kota Banjar Baru",KALIMANTAN SELATAN,70714.0,Indonesia,5115911071.0,,,-3.4452225,114.8131499,https://maps.google.com/?cid=0x0:0x73bc6400cc369536,
toko bangunan,Toko Bahan Bangunan,Anggi Material Cempaka,"Jl. H. Mistar Cokrokusumo No.55, Cempaka, Kec. Cemp., Kota Banjar Baru, Kalimantan Selatan 70732","Cempaka, Kec. Cemp., Kota Banjar Baru",KALIMANTAN SELATAN,70732.0,Indonesia,81349496222.0,,,-3.4689605,114.8525612,https://maps.google.com/?cid=0x0:0x3ae8e9bafdb82406,
toko bangunan,Toko Bahan Bangunan,Toko Bangunan HS H.Tamrin,"GRQX+PF8, Jl. H. Mistar Cokrokusumo, Cempaka, Kec. Banjarbaru Selatan, Kota Banjar Baru, Kalimantan Selatan","Kota Banjar Baru, Kalimantan Selatan",KALIMANTAN SELATAN,,Indonesia,85169995912.0,,,-3.4607185,114.848695,https://maps.google.com/?cid=0x0:0x4b3ae3d4726f3c32,
toko bangunan,Toko Bahan Bangunan,Toko Bangunan Jasa Ibu,"Jalan Trikora Loktabat Selatan Kecamatan Banjarbaru Selatan Komp taman trikora asri Seberang komp galuh merindu 2, Kota Banjar Baru, Kalimantan Selatan 70731",Kota Banjar Baru,KALIMANTAN SELATAN,70731.0,Indonesia,,,,-3.4607848,114.8384669,https://maps.google.com/?cid=0x0:0x1ad593987f001bad,
toko bangunan,Toko Bahan Bangunan,TB. Sumber Aneka H. Ainin,"GVJ3+C2F, Jalan HM Mistar Cokrokusumo, Cempaka, Kec. Cemp., Kota Banjar Baru, Kalimantan Selatan 70732","Jalan HM Mistar Cokrokusumo, Cempaka, Kec. Cemp., Kota Banjar Baru",KALIMANTAN SELATAN,70732.0,Indonesia,85931237784.0,,,-3.4689492,114.8525622,https://maps.google.com/?cid=0x0:0x5e920ee2e9239680,
toko bangunan,Toko Bahan Bangunan,TOKO BERKAT KARUNIA AL,"GR2X+Q86, Bangkal, Kec. Cemp., Kota Banjar Baru, Kalimantan Selatan 70732","Bangkal, Kec. Cemp., Kota Banjar Baru",KALIMANTAN SELATAN,70732.0,Indonesia,,,,-3.4980848,114.8482569,https://maps.google.com/?cid=0x0:0x286d177ac3b7e81b,
toko bangunan,Toko Bahan Bangunan,TB Ar Raudah,"Blk. B Jl. H. Mistar Cokrokusumo No.3, Cempaka, Kec. Cemp., Kota Banjar Baru, Kalimantan Selatan 70732","Cempaka, Kec. Cemp., Kota Banjar Baru",KALIMANTAN SELATAN,70732.0,Indonesia,,,,-3.4708717,114.8523173,https://maps.google.com/?cid=0x0:0x875fc7457eadf474,
toko bangunan,Toko Bahan Bangunan,TB.KELAPA GADING RAYA,"GVR3+FM8, Jl. Klp. Gading, Kemuning, Kec. Banjarbaru Selatan, Kota Banjar Baru, Kalimantan Selatan 70732","Jl. Klp. Gading, Kemuning, Kec. Banjarbaru Selatan, Kota Banjar Baru",KALIMANTAN SELATAN,70732.0,Indonesia,81272081709.0,,,-3.4588271,114.8541716,https://maps.google.com/?cid=0x0:0x61cb4cdc50053acb,
toko bangunan,Toko Bahan Bangunan,Tb.Ratu Elok,"Jl. H. Mistar Cokrokusumo, Loktabat Sel., Kec. Banjarbaru Selatan, Kota Banjar Baru, Kalimantan Selatan 70714","Loktabat Sel., Kec. Banjarbaru Selatan, Kota Banjar Baru",KALIMANTAN SELATAN,70714.0,Indonesia,8115030198.0,,,-3.4532913,114.8462637,https://maps.google.com/?cid=0x0:0x280c7d564c9af5e2,
toko bangunan,Pemasok Bahan Bangunan,TB. Andeska 2,"Jalan PM Noor No.28, Kel Sungai Ulin, Sungai Besar, Kec. Banjarbaru Selatan, Kota Banjar Baru, Kalimantan Selatan 70714","Kel Sungai Ulin, Sungai Besar, Kec. Banjarbaru Selatan, Kota Banjar Baru",KALIMANTAN SELATAN,70714.0,Indonesia,82250856638.0,,,-3.4479898,114.8627371,https://maps.google.com/?cid=0x0:0x541fc759b127a9f0,
toko bangunan,Toko Bahan Bangunan,TB. Yati,"GVV6+9F6, Guntung Paikat, Kec. Banjarbaru Selatan, Kota Banjar Baru, Kalimantan Selatan 70732","Guntung Paikat, Kec. Banjarbaru Selatan, Kota Banjar Baru",KALIMANTAN SELATAN,70732.0,Indonesia,85169981293.0,,,-3.4565774,114.8611556,https://maps.google.com/?cid=0x0:0x6173dfce12dc2c6a,
toko bangunan,Toko Bahan Bangunan,TOKO BANGUNAN  ALAT LISTRIK ( RAHMA ),"Loktabat Utara, Kec. Banjarbaru Utara, Kota Banjar Baru, Kalimantan Selatan 70714","Kec. Banjarbaru Utara, Kota Banjar Baru",KALIMANTAN SELATAN,70714.0,Indonesia,87781689990.0,,,-3.4237618,114.8131131,https://maps.google.com/?cid=0x0:0x78b13fb59e723aa6,
toko bangunan,Toko Bahan Bangunan,Sentral Jaya,"Jl. A. Yani No.29,4, Landasan Ulin Tim., Kec. Landasan Ulin, Kota Banjar Baru, Kalimantan Selatan 70721","Landasan Ulin Tim., Kec. Landasan Ulin, Kota Banjar Baru",KALIMANTAN SELATAN,70721.0,Indonesia,87781689990.0,,,-3.4490863,114.7865974,https://maps.google.com/?cid=0x0:0x5ffec726192cac75,
toko bangunan,Toko Bahan Bangunan,TOKO BANGUNAN BERKAH,"FRXV+74P, Jl. H. Mistar Cokrokusumo, RT.20/RW.07, Sungai Tiung, Kec. Cemp., Kota Banjar Baru, Kalimantan Selatan 70734","Jl. H. Mistar Cokrokusumo, RT.20/RW.07, Sungai Tiung, Kec. Cemp., Kota Banjar Baru",KALIMANTAN SELATAN,70734.0,Indonesia,,,,-3.5017763,114.8428289,https://maps.google.com/?cid=0x0:0xb1da42051ea0dc6d,
toko bangunan,Toko Bahan Bangunan,UD Berkat Jaya,"Loktabat Sel., Kec. Banjarbaru Selatan, Kota Banjar Baru, Kalimantan Selatan 70732","Kec. Banjarbaru Selatan, Kota Banjar Baru",KALIMANTAN SELATAN,70732.0,Indonesia,87815275766.0,,,-3.4608128,114.8430843,https://maps.google.com/?cid=0x0:0x36efa92a51ede25b,
toko bangunan,Toko Bahan Bangunan,Cempaka Batoko,"GRCW+XM3, Palam, Kec. Cemp., Kota Banjar Baru, Kalimantan Selatan 70732","Palam, Kec. Cemp., Kota Banjar Baru",KALIMANTAN SELATAN,70732.0,Indonesia,,,,-3.4776229,114.8466667,https://maps.google.com/?cid=0x0:0x5e32ba25d0feb7b0,
toko bangunan,Toko Bahan Bangunan,Toko bangunan cempaka jaya,"Jl. Cempaka Putih Raya No.13-25 10 3, RT.4/RW.4, West Cempaka Putih, Cempaka Putih, Central Jakarta City, Jakarta 10520","RT.4/RW.4, West Cempaka Putih, Cempaka Putih, Central Jakarta City",KALIMANTAN SELATAN,10520.0,Indonesia,83164413604.0,,,-6.1762203,106.861469,https://maps.google.com/?cid=0x0:0x6aae7fbb64cc6957,
toko bangunan,Toko Bahan Bangunan,Toko Bangunan Fajar,"Jl. Cempaka Putih Barat II No.28A, Cemp. Putih Bar., Kec. Cemp. Putih, Kota Jakarta Pusat, Daerah Khusus Ibukota Jakarta 10520","Cemp. Putih Bar., Kec. Cemp. Putih, Kota Jakarta Pusat",KALIMANTAN SELATAN,10520.0,Indonesia,2142801747.0,,,-6.1748033,106.8637371,https://maps.google.com/?cid=0x0:0xf356c194d2623b6,
toko bangunan,Toko Bahan Bangunan,Toko Bangunan SAHABAT,"Jl. Rawasari Sel. No.282 6, RT.6/RW.1, Cemp. Putih Tim., Kec. Cemp. Putih, Kota Jakarta Pusat, Daerah Khusus Ibukota Jakarta 10510","RT.6/RW.1, Cemp. Putih Tim., Kec. Cemp. Putih, Kota Jakarta Pusat",KALIMANTAN SELATAN,10510.0,Indonesia,85769908813.0,,,-6.1849838,106.8700205,https://maps.google.com/?cid=0x0:0xac4b434075038958,
toko bangunan,Toko Bahan Bangunan,toko bangunan c.p.b,"Jl. Cempaka Raya No.6 3, RT.3/RW.9, Cemp. Putih Bar., Kec. Cemp. Putih, Kota Jakarta Pusat, Daerah Khusus Ibukota Jakarta 10520","RT.3/RW.9, Cemp. Putih Bar., Kec. Cemp. Putih, Kota Jakarta Pusat",KALIMANTAN SELATAN,10520.0,Indonesia,85219793880.0,,,-6.1808713,106.8608785,https://maps.google.com/?cid=0x0:0x5aa3c3258da6b919,
toko bangunan,Toko Bahan Bangunan,TK. Cempaka,"Jalan Ciputat Raya Blok Saemin, Jl. Nasional 1 No.15, RT.1/RW.12, Pd. Pinang, Kec. Kby. Lama, Kota Jakarta Selatan, Daerah Khusus Ibukota Jakarta 12310","Jl. Nasional 1 No.15, RT.1/RW.12, Pd. Pinang, Kec. Kby. Lama, Kota Jakarta Selatan",KALIMANTAN SELATAN,12310.0,Indonesia,,,,-6.2708019,106.7750651,https://maps.google.com/?cid=0x0:0xbff87ce46fabedfd,
toko bangunan,Toko Bahan Bangunan,Toko Aneka Bangunan,"Jl. Percetakan Negara No.774c 4, RT.1/RW.9, Rawasari, Kec. Cemp. Putih, Kota Jakarta Pusat, Daerah Khusus Ibukota Jakarta 10570","RT.1/RW.9, Rawasari, Kec. Cemp. Putih, Kota Jakarta Pusat",KALIMANTAN SELATAN,10570.0,Indonesia,8559999525.0,,,-6.1872222,106.8690322,https://maps.google.com/?cid=0x0:0xa959ffd5e6f8362d,
toko bangunan,Toko Bahan Bangunan,Toko Bangunan Penjuru,"Jl. Kemayoran Ketapang No.01 9, RT.1/RW.8, Kb. Kosong, Kec. Kemayoran, Kota Jakarta Pusat, Daerah Khusus Ibukota Jakarta 10620","RT.1/RW.8, Kb. Kosong, Kec. Kemayoran, Kota Jakarta Pusat",KALIMANTAN SELATAN,10620.0,Indonesia,82174999886.0,,,-6.16194,106.8500061,https://maps.google.com/?cid=0x0:0x1b46df32e9e1c7d1,
toko bangunan,Toko Perlengkapan Rumah,Berkah Toko,"JL. Sumur Batu Raya 15 RT 002/01, Cempaka Baru, Jakarta, 10640, RT.14/RW.5, Cempaka Baru, Kemayoran, Central Jakarta City, Jakarta 10640","Cempaka Baru, Jakarta,",KALIMANTAN SELATAN,10640.0,Indonesia,85166900649.0,,,-6.1683683,106.8651534,https://maps.google.com/?cid=0x0:0xfa5f6b7dbb2779da,
toko bangunan,toko bangunan,Kalimantan Selatan 70721,"Kec. Landasan Ulin, Kota Banjar Baru, Kalimantan Selatan","Kota Banjar Baru, Kalimantan Selatan",KALIMANTAN SELATAN,,Indonesia,,,,-3.4504643,114.7795914,https://maps.google.com/?cid=0x0:0x97683dff179e25ee,
toko bangunan,Toko Bahan Bangunan,Toko Bangunan Karya Sepakat,"depan pangkalan bus damri, Jalan Trikora Guntung manggis, Landasan Ulin Tim., Kec. Landasan Ulin, Kota Banjar Baru, Kalimantan Selatan 70721","Jalan Trikora Guntung manggis, Landasan Ulin Tim., Kec. Landasan Ulin, Kota Banjar Baru",KALIMANTAN SELATAN,70721.0,Indonesia,85251177855.0,,,-3.4602781,114.7834215,https://maps.google.com/?cid=0x0:0xa2231ef60feea943,
toko bangunan,Toko,Gemilang Pusat Bahan Bangunan Banjarbaru,"Jl. A. Yani No.Km.33, Guntung Payung, Kec. Landasan Ulin, Kota Banjar Baru, Kalimantan Selatan 70714","Guntung Payung, Kec. Landasan Ulin, Kota Banjar Baru",KALIMANTAN SELATAN,70714.0,Indonesia,5115911071.0,,,-3.4452225,114.8131499,https://maps.google.com/?cid=0x0:0x73bc6400cc369536,
toko bangunan,Toko Bahan Bangunan,TB. Sumber Usaha II,"GQQV+Q5J, Jl. Trikora, Guntungmanggis, Kec. Landasan Ulin, Kota Banjar Baru, Kalimantan Selatan 70721","Jl. Trikora, Guntungmanggis, Kec. Landasan Ulin, Kota Banjar Baru",KALIMANTAN SELATAN,70721.0,Indonesia,81250008252.0,,,-3.460543,114.7928824,https://maps.google.com/?cid=0x0:0xedeeb74c7b7101af,
toko bangunan,Toko Bahan Bangunan,Toko Sumber Makiah,"HR47+252, Guntung Payung, Kec. Landasan Ulin, Kota Banjar Baru, Kalimantan Selatan 70721","Guntung Payung, Kec. Landasan Ulin, Kota Banjar Baru",KALIMANTAN SELATAN,70721.0,Indonesia,85810229946.0,,,-3.4449875,114.8128906,https://maps.google.com/?cid=0x0:0x690baf142f215e3e,
toko bangunan,Toko Bahan Bangunan,Sentral Jaya,"Jl. A. Yani No.29,4, Landasan Ulin Tim., Kec. Landasan Ulin, Kota Banjar Baru, Kalimantan Selatan 70721","Landasan Ulin Tim., Kec. Landasan Ulin, Kota Banjar Baru",KALIMANTAN SELATAN,70721.0,Indonesia,87781689990.0,,,-3.4490863,114.7865974,https://maps.google.com/?cid=0x0:0x5ffec726192cac75,
toko bangunan,Toko Bahan Bangunan,Duta Bangunan,"Jl. Trikora, RT.27 RW04, Guntungmanggis, Kec. Landasan Ulin, Kota Banjar Baru, Kalimantan Selatan 70721","RT.27 RW04, Guntungmanggis, Kec. Landasan Ulin, Kota Banjar Baru",KALIMANTAN SELATAN,70721.0,Indonesia,82173389240.0,,,-3.4603975,114.78927,https://maps.google.com/?cid=0x0:0xa35aab232f36cd8e,
toko bangunan,Toko Bahan Bangunan,Toko Bangunan Khair,"GRP6+C58, Unnamed Road, Guntungmanggis, Kec. Landasan Ulin, Kota Banjar Baru, Kalimantan Selatan 70731","Unnamed Road, Guntungmanggis, Kec. Landasan Ulin, Kota Banjar Baru",KALIMANTAN SELATAN,70731.0,Indonesia,82144648989.0,,,-3.4639565,114.8104478,https://maps.google.com/?cid=0x0:0x916ee7fdc2186763,
toko bangunan,Toko Bahan Bangunan,TB IMA JAYA,"Jl. Guntung Manggis No.105, Guntungmanggis, Kec. Landasan Ulin, Kota Banjar Baru, Kalimantan Selatan 70721","Guntungmanggis, Kec. Landasan Ulin, Kota Banjar Baru",KALIMANTAN SELATAN,70721.0,Indonesia,82252233399.0,,,-3.4625075,114.7916071,https://maps.google.com/?cid=0x0:0xae53f8945339dd1a,
toko bangunan,Toko Bahan Bangunan,Toko Bangunan Urif Serasi,"HR85+952, Jl. Karang Anyar 2, Loktabat Utara, Kec. Landasan Ulin, Kota Banjar Baru, Kalimantan Selatan 70711","Jl. Karang Anyar 2, Loktabat Utara, Kec. Landasan Ulin, Kota Banjar Baru",KALIMANTAN SELATAN,70711.0,Indonesia,82164465822.0,,,-3.4341109,114.8078815,https://maps.google.com/?cid=0x0:0xa3a7dd8e0a14bcee,
toko bangunan,Toko Bahan Bangunan,TB. Tawakal 2,"GRH5+3V7, Jl. Palam Raya, Guntungmanggis, Kec. Landasan Ulin, Kota Banjar Baru, Kalimantan Selatan 70731","Jl. Palam Raya, Guntungmanggis, Kec. Landasan Ulin, Kota Banjar Baru",KALIMANTAN SELATAN,70731.0,Indonesia,,,,-3.472346,114.8096723,https://maps.google.com/?cid=0x0:0x55da18d4f556d0d5,
toko bangunan,Toko Bahan Bangunan,Toko bangunan bejo,"GPWQ+HX8, Landasan Ulin Tengah, Kec. Liang Anggang, Kota Banjar Baru, Kalimantan Selatan 70724","Landasan Ulin Tengah, Kec. Liang Anggang, Kota Banjar Baru",KALIMANTAN SELATAN,70724.0,Indonesia,87781689990.0,,,-3.4529108,114.7401286,https://maps.google.com/?cid=0x0:0x16fc677699e8610f,
toko bangunan,Toko Bahan Bangunan,Mahkota Agung,"Ruko 1, Jl. Kebun Karet No.7, Guntung Payung, Kec. Landasan Ulin, Kota Banjar Baru, Kalimantan Selatan 70721","Jl. Kebun Karet No.7, Guntung Payung, Kec. Landasan Ulin, Kota Banjar Baru",KALIMANTAN SELATAN,70721.0,Indonesia,5114783751.0,,,-3.4390183,114.8067875,https://maps.google.com/?cid=0x0:0xa16f50494fa91ef3,
toko bangunan,Toko Bahan Bangunan,Beton Mulia Jaya,"Jl. Sapta Marga No.5, RT.10/RW.3, Landasan Ulin Tim., Kec. Landasan Ulin, Kota Banjar Baru, Kalimantan Selatan 70721","RT.10/RW.3, Landasan Ulin Tim., Kec. Landasan Ulin, Kota Banjar Baru",KALIMANTAN SELATAN,70721.0,Indonesia,,,,-3.4439132,114.791269,https://maps.google.com/?cid=0x0:0xaa27a3587e8fe853,
toko bangunan,Toko Bahan Bangunan,TB. Raihan,"GRM6+R5W, Jl. Palam Raya, Guntungmanggis, Kec. Landasan Ulin, Kota Banjar Baru, Kalimantan Selatan 70731","Jl. Palam Raya, Guntungmanggis, Kec. Landasan Ulin, Kota Banjar Baru",KALIMANTAN SELATAN,70731.0,Indonesia,87781689990.0,,,-3.465376,114.8104456,https://maps.google.com/?cid=0x0:0x4011d370daa5ec63,
toko bangunan,Toko Bahan Bangunan,Toko Bangunan Sumber Jaya Utama,"HQM5+P7V, Landasan Ulin Utara, Kec. Liang Anggang, Kota Banjar Baru, Kalimantan Selatan 70724","Landasan Ulin Utara, Kec. Liang Anggang, Kota Banjar Baru",KALIMANTAN SELATAN,70724.0,Indonesia,87880521274.0,,,-3.4156471,114.7581614,https://maps.google.com/?cid=0x0:0xc9c9a6fcc2efb0a2,
toko bangunan,Toko Perlengkapan Rumah,Toko Bangunan Mubarak Aulia,"HR82+84G, Jl. Karang Anyar 1, Guntung Payung, Kec. Landasan Ulin, Kota Banjar Baru, Kalimantan Selatan 70721","Jl. Karang Anyar 1, Guntung Payung, Kec. Landasan Ulin, Kota Banjar Baru",KALIMANTAN SELATAN,70721.0,Indonesia,82350909595.0,,,-3.434197,114.8003184,https://maps.google.com/?cid=0x0:0xe374b29ab65800bf,
toko bangunan,Pemasok produk beton,Asia Beton,"Jl. A. Yani No.28, Landasan Ulin Tim., Kec. Landasan Ulin, Kota Banjar Baru, Kalimantan Selatan 70721","Landasan Ulin Tim., Kec. Landasan Ulin, Kota Banjar Baru",KALIMANTAN SELATAN,70721.0,Indonesia,85249652262.0,,,-3.4478889,114.7757698,https://maps.google.com/?cid=0x0:0x9d4091d9b921f5a9,
toko bangunan,Toko Bahan Bangunan,Sumber Usaha Bersama,"Jl. A. Yani No.30, RW.2, Guntungmanggis, Kec. Landasan Ulin, Kota Banjar Baru, Kalimantan Selatan 70721","RW.2, Guntungmanggis, Kec. Landasan Ulin, Kota Banjar Baru",KALIMANTAN SELATAN,70721.0,Indonesia,85939898813.0,,,-3.4493371,114.7933851,https://maps.google.com/?cid=0x0:0x2ac4d5422d71f19a,
toko bangunan,Toko Bahan Bangunan,TB. Fajar Abdan,"HQ86+X64, Jl. Simpati, Landasan Ulin Utara, Kec. Liang Anggang, Kota Banjar Baru, Kalimantan Selatan 70724","Jl. Simpati, Landasan Ulin Utara, Kec. Liang Anggang, Kota Banjar Baru",KALIMANTAN SELATAN,70724.0,Indonesia,85939898813.0,,,-3.4326103,114.7605835,https://maps.google.com/?cid=0x0:0xa6390aa9f0161479,
toko bangunan,Toko Bahan Bangunan,Tb . Auryn Jaya,"Jl. Trikora, Guntungmanggis, Kec. Landasan Ulin, Kota Banjar Baru, Kalimantan Selatan 70721","Guntungmanggis, Kec. Landasan Ulin, Kota Banjar Baru",KALIMANTAN SELATAN,70721.0,Indonesia,81250083042.0,,,-3.4733182,114.7928112,https://maps.google.com/?cid=0x0:0x38010ce63e85ad8,
toko bangunan,Toko Bahan Bangunan,TB Laris Jaya,"HR83+9HG, Jl. Pandu, Guntung Payung, Kec. Landasan Ulin, Kota Banjar Baru, Kalimantan Selatan 70714","Jl. Pandu, Guntung Payung, Kec. Landasan Ulin, Kota Banjar Baru",KALIMANTAN SELATAN,70714.0,Indonesia,,,,-3.4340679,114.8039596,https://maps.google.com/?cid=0x0:0xd5d8b6b6b9bcf50f,
toko bangunan,Toko,Toko Murah Berkah Bersaudara,"Jl. Guntung Manggis No.8, Guntungmanggis, Kec. Landasan Ulin, Kota Banjar Baru, Kalimantan Selatan 70721","Guntungmanggis, Kec. Landasan Ulin, Kota Banjar Baru",KALIMANTAN SELATAN,70721.0,Indonesia,82155057705.0,,,-3.4755809,114.7840713,https://maps.google.com/?cid=0x0:0x4b3ecb89b5e5d793,
toko bangunan,Toko Bahan Bangunan,TB. Sumber Usaha III,"Jl. Trikora, Guntungmanggis, Kec. Landasan Ulin, Kota Banjar Baru, Kalimantan Selatan 70731","Guntungmanggis, Kec. Landasan Ulin, Kota Banjar Baru",KALIMANTAN SELATAN,70731.0,Indonesia,82189909091.0,,,-3.4612695,114.8101331,https://maps.google.com/?cid=0x0:0x170a96f74a608b5c,
toko bangunan,toko bangunan,Kalimantan Selatan 70724,"Kec. Liang Anggang, Kota Banjar Baru, Kalimantan Selatan","Kota Banjar Baru, Kalimantan Selatan",KALIMANTAN SELATAN,,Indonesia,,,,-3.4466669,114.7499112,https://maps.google.com/?cid=0x0:0x1a444b507a9477bf,
toko bangunan,Toko Bahan Bangunan,( WA : 0831-8898-8111 )Toko Bangunan Mulia Abadi,"WA:0831-8898-8111, Jl. Garuda, karang jawa, Landasan Ulin Tengah, Kec. Liang Anggang, Kota Banjar Baru, Kalimantan Selatan 70724","Jl. Garuda, karang jawa, Landasan Ulin Tengah, Kec. Liang Anggang, Kota Banjar Baru",KALIMANTAN SELATAN,70724.0,Indonesia,87781689990.0,,,-3.4483055,114.7470091,https://maps.google.com/?cid=0x0:0x83db23c3bc0fd333,
toko bangunan,Toko Bahan Bangunan,Toko bangunan bejo,"GPWQ+HX8, Landasan Ulin Tengah, Kec. Liang Anggang, Kota Banjar Baru, Kalimantan Selatan 70724","Landasan Ulin Tengah, Kec. Liang Anggang, Kota Banjar Baru",KALIMANTAN SELATAN,70724.0,Indonesia,87781689990.0,,,-3.4529108,114.7401286,https://maps.google.com/?cid=0x0:0x16fc677699e8610f,
toko bangunan,Toko Perlengkapan Rumah,Surya Bangunan Toko Bangunan,"Jl. Peramuan, Landasan Ulin Tengah, Kec. Liang Anggang, Kota Banjar Baru, Kalimantan Selatan 70724","Landasan Ulin Tengah, Kec. Liang Anggang, Kota Banjar Baru",KALIMANTAN SELATAN,70724.0,Indonesia,82151892639.0,,,-3.4460136,114.7389084,https://maps.google.com/?cid=0x0:0x14fb2b29ae4e225b,
toko bangunan,Toko Bahan Bangunan,Lapan Lapan Bangunan,"Jl. A. Yani No.Km 21 5, RW.5, Landasan Ulin Bar., Kec. Liang Anggang, Kota Banjar Baru, Kalimantan Selatan 70723","RW.5, Landasan Ulin Bar., Kec. Liang Anggang, Kota Banjar Baru",KALIMANTAN SELATAN,70723.0,Indonesia,8115038688.0,,,-3.4432528,114.7173921,https://maps.google.com/?cid=0x0:0xb5a5f424b44fd732,
toko bangunan,Toko Bahan Bangunan,Toko Bangunan Sumber Jaya Utama,"HQM5+P7V, Landasan Ulin Utara, Kec. Liang Anggang, Kota Banjar Baru, Kalimantan Selatan 70724","Landasan Ulin Utara, Kec. Liang Anggang, Kota Banjar Baru",KALIMANTAN SELATAN,70724.0,Indonesia,87880521274.0,,,-3.4156471,114.7581614,https://maps.google.com/?cid=0x0:0xc9c9a6fcc2efb0a2,
toko bangunan,Toko Bahan Bangunan,TB An-Nur,"HQH3+6HJ, Jl. Nanas, Landasan Ulin Utara, Kec. Liang Anggang, Kota Banjar Baru, Kalimantan Selatan 70724","Jl. Nanas, Landasan Ulin Utara, Kec. Liang Anggang, Kota Banjar Baru",KALIMANTAN SELATAN,70724.0,Indonesia,85939898813.0,,,-3.4219119,114.7538761,https://maps.google.com/?cid=0x0:0xccc53a99c8b4da02,
toko bangunan,Toko Perlengkapan Rumah,Goa,"Jl. A. Yani No.KM.23, Landasan Ulin Bar., Kec. Liang Anggang, Kota Banjar Baru, Kalimantan Selatan 70723","Landasan Ulin Bar., Kec. Liang Anggang, Kota Banjar Baru",KALIMANTAN SELATAN,70723.0,Indonesia,85248704038.0,,,-3.4425404,114.7300151,https://maps.google.com/?cid=0x0:0x6046a7c2d634da71,
toko bangunan,Toko Bahan Bangunan,TB. Banua Nusantara,"GPWW+JJF, Jl. Garuda, Landasan Ulin Tengah, Kec. Liang Anggang, Kota Banjar Baru, Kalimantan Selatan 70724","Jl. Garuda, Landasan Ulin Tengah, Kec. Liang Anggang, Kota Banjar Baru",KALIMANTAN SELATAN,70724.0,Indonesia,,,,-3.4534362,114.7465548,https://maps.google.com/?cid=0x0:0x3b2813d547dff721,
toko bangunan,Toko,Toko 88 bangunan,"HP97+5VH, Jl. Sriwijaya, Landasan Ulin Bar., Kec. Liang Anggang, Kota Banjar Baru, Kalimantan Selatan 70722","Jl. Sriwijaya, Landasan Ulin Bar., Kec. Liang Anggang, Kota Banjar Baru",KALIMANTAN SELATAN,70722.0,Indonesia,,,,-3.4320604,114.7147429,https://maps.google.com/?cid=0x0:0x8eb37926a687c4c0,
toko bangunan,Kantor Perusahaan,CV..TATA LOGAM INDONESIA,"HPVW+G56, Jl. Golf, Landasan Ulin Bar., Kec. Liang Anggang, Kota Banjar Baru, Kalimantan Selatan 70724","Jl. Golf, Landasan Ulin Bar., Kec. Liang Anggang, Kota Banjar Baru",KALIMANTAN SELATAN,70724.0,Indonesia,,,,-3.4062218,114.7453995,https://maps.google.com/?cid=0x0:0x3980c96b0ebf3e9c,
toko bangunan,Toko Bahan Bangunan,TB. Fajar Abdan,"HQ86+X64, Jl. Simpati, Landasan Ulin Utara, Kec. Liang Anggang, Kota Banjar Baru, Kalimantan Selatan 70724","Jl. Simpati, Landasan Ulin Utara, Kec. Liang Anggang, Kota Banjar Baru",KALIMANTAN SELATAN,70724.0,Indonesia,85939898813.0,,,-3.4326103,114.7605835,https://maps.google.com/?cid=0x0:0xa6390aa9f0161479,
toko bangunan,Toko Bahan Bangunan,TB. BANGUN BANUA,"Jl. Kurnia No.74, Landasan Ulin Bar., Kec. Liang Anggang, Kota Banjar Baru, Kalimantan Selatan 70723","Landasan Ulin Bar., Kec. Liang Anggang, Kota Banjar Baru",KALIMANTAN SELATAN,70723.0,Indonesia,81347208553.0,,,-3.4260546,114.7331009,https://maps.google.com/?cid=0x0:0x6b8949f92e5a7e68,
toko bangunan,Toko Perlengkapan Rumah,toko bangunan SAMUDRA,"Jl. Ahmad Yani kenanga raya No.Km 21, RT.06/RW.02, Landasan Ulin Bar., Kec. Liang Anggang, Kabupaten Banjar, Kalimantan Selatan 70722","RT.06/RW.02, Landasan Ulin Bar., Kec. Liang Anggang, Kabupaten Banjar",KALIMANTAN SELATAN,70722.0,Indonesia,87781689990.0,,,-3.4494305,114.7136362,https://maps.google.com/?cid=0x0:0xc6dde7f501f6dc80,
toko bangunan,Toko Bahan Bangunan,Mitra Agung Jaya,"Jalan Gotong Royong, No.59, Rt.018, Kel.Syamsudin Noor, Gang Belimbing, Landasan Ulin Utara, Kec. Landasan Ulin, Kota Banjar Baru, Kalimantan Selatan 70724","No.59, Rt.018, Kel.Syamsudin Noor, Gang Belimbing, Landasan Ulin Utara, Kec. Landasan Ulin, Kota Banjar Baru",KALIMANTAN SELATAN,70724.0,Indonesia,81349642423.0,,,-3.4345457,114.7467829,https://maps.google.com/?cid=0x0:0x7f3d37913dc6622c,
toko bangunan,Toko Bahan Bangunan,Tb robih,"HPPV+8HV, Jl. Golf, Landasan Ulin Utara, Kec. Liang Anggang, Kota Banjar Baru, Kalimantan Selatan 70724","Jl. Golf, Landasan Ulin Utara, Kec. Liang Anggang, Kota Banjar Baru",KALIMANTAN SELATAN,70724.0,Indonesia,,,,-3.4141286,114.7439074,https://maps.google.com/?cid=0x0:0xd8beebf502f404fa,
toko bangunan,Toko Bahan Bangunan,TB. Dana Jaya,"HP8H+F5V, Jl. Sukamara, Landasan Ulin Bar., Kec. Liang Anggang, Kota Banjar Baru, Kalimantan Selatan 70723","Jl. Sukamara, Landasan Ulin Bar., Kec. Liang Anggang, Kota Banjar Baru",KALIMANTAN SELATAN,70723.0,Indonesia,,,,-3.4337664,114.7279254,https://maps.google.com/?cid=0x0:0x7418149d0b03571b,
toko bangunan,Toko Bahan Bangunan,BERKAT ANANDA STEEL,"Landasan Ulin Tengah, Kec. Liang Anggang, Kota Banjar Baru, Kalimantan Selatan 70724","Kec. Liang Anggang, Kota Banjar Baru",KALIMANTAN SELATAN,70724.0,Indonesia,8125007272.0,,,-3.4554588,114.7550759,https://maps.google.com/?cid=0x0:0x54cd45465564ba9,
toko bangunan,Toko Bahan Bangunan,TB. SUWARNO,"Jl. Sukamara, RT.02/RW.02, Landasan Ulin Bar., Kec. Liang Anggang, Kota Banjar Baru, Kalimantan Selatan 70722","RT.02/RW.02, Landasan Ulin Bar., Kec. Liang Anggang, Kota Banjar Baru",KALIMANTAN SELATAN,70722.0,Indonesia,87764802454.0,,,-3.4261147,114.7266514,https://maps.google.com/?cid=0x0:0xd73932fcb13eeab,
toko bangunan,Toko Bahan Bangunan,TB. Amalia 2,"Jl. Pelita No.5, Landasan Ulin Bar., Kec. Liang Anggang, Kota Banjar Baru, Kalimantan Selatan 70723","Landasan Ulin Bar., Kec. Liang Anggang, Kota Banjar Baru",KALIMANTAN SELATAN,70723.0,Indonesia,81346895588.0,,,-3.4162278,114.7337641,https://maps.google.com/?cid=0x0:0xeb366dbf992ce33c,
toko bangunan,Toko Bahan Bangunan,TB. Berkat Maju Bersama,"HP7F+J7H WA TOKO (O779O3O54I, Landasan Ulin Bar., Kec. Liang Anggang, Kota Banjar Baru, Kalimantan Selatan 70723","Landasan Ulin Bar., Kec. Liang Anggang, Kota Banjar Baru",KALIMANTAN SELATAN,70723.0,Indonesia,,,,-3.4359375,114.7232344,https://maps.google.com/?cid=0x0:0x14b5b4a0b0c29021,
toko bangunan,toko bangunan,Kalimantan Selatan 70722,"Kec. Liang Anggang, Kota Banjar Baru, Kalimantan Selatan","Kota Banjar Baru, Kalimantan Selatan",KALIMANTAN SELATAN,,Indonesia,,,,-3.4479796,114.7024179,https://maps.google.com/?cid=0x0:0x6c5133a3ecf804d1,
toko bangunan,Toko Bahan Bangunan,TB. Amalia 2,"Jl. Pelita No.5, Landasan Ulin Bar., Kec. Liang Anggang, Kota Banjar Baru, Kalimantan Selatan 70723","Landasan Ulin Bar., Kec. Liang Anggang, Kota Banjar Baru",KALIMANTAN SELATAN,70723.0,Indonesia,81346895588.0,,,-3.4162278,114.7337641,https://maps.google.com/?cid=0x0:0xeb366dbf992ce33c,
toko bangunan,Toko,Toko 88 bangunan,"HP97+5VH, Jl. Sriwijaya, Landasan Ulin Bar., Kec. Liang Anggang, Kota Banjar Baru, Kalimantan Selatan 70722","Jl. Sriwijaya, Landasan Ulin Bar., Kec. Liang Anggang, Kota Banjar Baru",KALIMANTAN SELATAN,70722.0,Indonesia,,,,-3.4320604,114.7147429,https://maps.google.com/?cid=0x0:0x8eb37926a687c4c0,
toko bangunan,Toko Bahan Bangunan,( WA : 0831-8898-8111 )Toko Bangunan Mulia Abadi,"WA:0831-8898-8111, Jl. Garuda, karang jawa, Landasan Ulin Tengah, Kec. Liang Anggang, Kota Banjar Baru, Kalimantan Selatan 70724","Jl. Garuda, karang jawa, Landasan Ulin Tengah, Kec. Liang Anggang, Kota Banjar Baru",KALIMANTAN SELATAN,70724.0,Indonesia,87781689990.0,,,-3.4483055,114.7470091,https://maps.google.com/?cid=0x0:0x83db23c3bc0fd333,
toko bangunan,Toko Perlengkapan Rumah,toko bangunan SAMUDRA,"Jl. Ahmad Yani kenanga raya No.Km 21, RT.06/RW.02, Landasan Ulin Bar., Kec. Liang Anggang, Kabupaten Banjar, Kalimantan Selatan 70722","RT.06/RW.02, Landasan Ulin Bar., Kec. Liang Anggang, Kabupaten Banjar",KALIMANTAN SELATAN,70722.0,Indonesia,87781689990.0,,,-3.4494305,114.7136362,https://maps.google.com/?cid=0x0:0xc6dde7f501f6dc80,
toko bangunan,Toko Bahan Bangunan,Lapan Lapan Bangunan,"Jl. A. Yani No.Km 21 5, RW.5, Landasan Ulin Bar., Kec. Liang Anggang, Kota Banjar Baru, Kalimantan Selatan 70723","RW.5, Landasan Ulin Bar., Kec. Liang Anggang, Kota Banjar Baru",KALIMANTAN SELATAN,70723.0,Indonesia,8115038688.0,,,-3.4432528,114.7173921,https://maps.google.com/?cid=0x0:0xb5a5f424b44fd732,
toko bangunan,Toko Bahan Bangunan,Toko bangunan bejo,"GPWQ+HX8, Landasan Ulin Tengah, Kec. Liang Anggang, Kota Banjar Baru, Kalimantan Selatan 70724","Landasan Ulin Tengah, Kec. Liang Anggang, Kota Banjar Baru",KALIMANTAN SELATAN,70724.0,Indonesia,87781689990.0,,,-3.4529108,114.7401286,https://maps.google.com/?cid=0x0:0x16fc677699e8610f,
toko bangunan,Toko Bahan Bangunan,TB. SUWARNO,"Jl. Sukamara, RT.02/RW.02, Landasan Ulin Bar., Kec. Liang Anggang, Kota Banjar Baru, Kalimantan Selatan 70722","RT.02/RW.02, Landasan Ulin Bar., Kec. Liang Anggang, Kota Banjar Baru",KALIMANTAN SELATAN,70722.0,Indonesia,87764802454.0,,,-3.4261147,114.7266514,https://maps.google.com/?cid=0x0:0xd73932fcb13eeab,
toko bangunan,Toko Bahan Bangunan,Toko Bangunan Rizki Barakah,"HPJJ+Q42, Landasan Ulin Bar., Kec. Liang Anggang, Kota Banjar Baru, Kalimantan Selatan","Kota Banjar Baru, Kalimantan Selatan",KALIMANTAN SELATAN,,Indonesia,89513533311.0,,,-3.4181057,114.7302749,https://maps.google.com/?cid=0x0:0xe740ff7837d18aaf,
toko bangunan,,TB.BANGUNAN AL-BAROKAH SYIULA,"lingkar utara Rt, Jl. Sukamaju, Landasan Ulin Bar., Kec. Liang Anggang, Kota Banjar Baru, Kalimantan Selatan","Kota Banjar Baru, Kalimantan Selatan",KALIMANTAN SELATAN,,Indonesia,85387450204.0,,,-3.4195087,114.7197108,https://maps.google.com/?cid=0x0:0x398676587359ac39,
toko bangunan,Toko Bahan Bangunan,Arta Jaya,"HPJ9+8RX, Jl, Landasan Ulin Barat, Liang Anggang, Banjarbaru City, South Kalimantan 70722","Jl, Landasan Ulin Barat, Liang Anggang, Banjarbaru City",KALIMANTAN SELATAN,70722.0,Indonesia,,,,-3.4191432,114.7195938,https://maps.google.com/?cid=0x0:0xadb67430403bbe34,
toko bangunan,Toko Bahan Bangunan,Tb Fadillah,"HP9H+34R, Jl. Kurnia, Landasan Ulin Bar., Kec. Liang Anggang, Kota Banjar Baru, Kalimantan Selatan 70723","Jl. Kurnia, Landasan Ulin Bar., Kec. Liang Anggang, Kota Banjar Baru",KALIMANTAN SELATAN,70723.0,Indonesia,,,,-3.4322578,114.7277678,https://maps.google.com/?cid=0x0:0x31781aab3f86abfe,
toko bangunan,Toko Bahan Bangunan,TB. Sumber Rejeki,"Jalan A. Yani KM 24,5 Landasan Ulin, Timur, Syamsudin Noor, Kec. Liang Anggang, Kota Banjar Baru, Kalimantan Selatan 70724","Timur, Syamsudin Noor, Kec. Liang Anggang, Kota Banjar Baru",KALIMANTAN SELATAN,70724.0,Indonesia,8125000787.0,,,-3.4410737,114.7418492,https://maps.google.com/?cid=0x0:0x644f58dc813993e0,
toko bangunan,Toko Perlengkapan Rumah,Goa,"Jl. A. Yani No.KM.23, Landasan Ulin Bar., Kec. Liang Anggang, Kota Banjar Baru, Kalimantan Selatan 70723","Landasan Ulin Bar., Kec. Liang Anggang, Kota Banjar Baru",KALIMANTAN SELATAN,70723.0,Indonesia,85248704038.0,,,-3.4425404,114.7300151,https://maps.google.com/?cid=0x0:0x6046a7c2d634da71,
toko bangunan,Toko Bahan Bangunan,DD.GEMILANG 2,"GPXM+CJC, Jl. Trikora, Landasan Ulin Sel., Kec. Liang Anggang, Kota Banjar Baru, Kalimantan Selatan 70723","Jl. Trikora, Landasan Ulin Sel., Kec. Liang Anggang, Kota Banjar Baru",KALIMANTAN SELATAN,70723.0,Indonesia,81944253060.0,,,-3.4514362,114.7340156,https://maps.google.com/?cid=0x0:0xff4df220f1675762,
toko bangunan,Toko Bahan Bangunan,Toko Surya,"Jl. A. Yani No.17, Landasan Ulin Bar., Kec. Liang Anggang, Kota Banjar Baru, Kalimantan Selatan 70722","Landasan Ulin Bar., Kec. Liang Anggang, Kota Banjar Baru",KALIMANTAN SELATAN,70722.0,Indonesia,5113263504.0,,,-3.4432776,114.7117774,https://maps.google.com/?cid=0x0:0x56ab980fcbe2d7a8,
toko bangunan,Toko Bahan Bangunan,TB. Sumber Mulya,"Jl. A. Yani No.17, Landasan Ulin Bar., Kec. Liang Anggang, Kota Banjar Baru, Kalimantan Selatan 70722","Landasan Ulin Bar., Kec. Liang Anggang, Kota Banjar Baru",KALIMANTAN SELATAN,70722.0,Indonesia,,,,-3.4446233,114.7080893,https://maps.google.com/?cid=0x0:0x8db5203937f9ea0d,
toko bangunan,Toko Bahan Bangunan,TB. BANGUN BANUA,"Jl. Kurnia No.74, Landasan Ulin Bar., Kec. Liang Anggang, Kota Banjar Baru, Kalimantan Selatan 70723","Landasan Ulin Bar., Kec. Liang Anggang, Kota Banjar Baru",KALIMANTAN SELATAN,70723.0,Indonesia,81347208553.0,,,-3.4260546,114.7331009,https://maps.google.com/?cid=0x0:0x6b8949f92e5a7e68,
toko bangunan,Toko Bahan Bangunan,TOKO FAJAR ABADI,"Jl. Kurnia Gg. Kita No.Sebelah, RT.07/RW.03, Landasan Ulin Bar., Kec. Liang Anggang, Kota Banjar Baru, Kalimantan Selatan 70723","RT.07/RW.03, Landasan Ulin Bar., Kec. Liang Anggang, Kota Banjar Baru",KALIMANTAN SELATAN,70723.0,Indonesia,87773953142.0,,,-3.4336978,114.7334783,https://maps.google.com/?cid=0x0:0x46462ee432818943,
toko bangunan,Toko Bahan Bangunan,TB. Mulia,"Jalan Jenderal Ahmad Yani KM 23, Landasan Ulin, Landasan Ulin Bar., Liang Anggang, Banjar Baru, Kota Banjar Baru, Kalimantan Selatan 70723","Landasan Ulin, Landasan Ulin Bar., Liang Anggang, Banjar Baru, Kota Banjar Baru",KALIMANTAN SELATAN,70723.0,Indonesia,81586511470.0,,,-3.4418606,114.7324871,https://maps.google.com/?cid=0x0:0xa10622d3fddb578f,
toko bangunan,Toko Bahan Bangunan,TB KAYU TIGA SAUDARA,"Jl. Kelurahan No.42, RT.012/RW.003, Kayu Bawang, Kec. Gambut, Kabupaten Banjar, Kalimantan Selatan 70722","RT.012/RW.003, Kayu Bawang, Kec. Gambut, Kabupaten Banjar",KALIMANTAN SELATAN,70722.0,Indonesia,85248398839.0,,,-3.4553244,114.7003995,https://maps.google.com/?cid=0x0:0x987ef8e2cde5fd62,
toko bangunan,Toko Bahan Bangunan,TB. Dana Jaya,"HP8H+F5V, Jl. Sukamara, Landasan Ulin Bar., Kec. Liang Anggang, Kota Banjar Baru, Kalimantan Selatan 70723","Jl. Sukamara, Landasan Ulin Bar., Kec. Liang Anggang, Kota Banjar Baru",KALIMANTAN SELATAN,70723.0,Indonesia,,,,-3.4337664,114.7279254,https://maps.google.com/?cid=0x0:0x7418149d0b03571b,
toko bangunan,Toko Bahan Bangunan,TB. Ikhlas Bersama 3,"HP98+VC4, Jl. Sriwijaya, Landasan Ulin Bar., Kec. Liang Anggang, Kota Banjar Baru, Kalimantan Selatan 70722","Jl. Sriwijaya, Landasan Ulin Bar., Kec. Liang Anggang, Kota Banjar Baru",KALIMANTAN SELATAN,70722.0,Indonesia,,,,-3.4303675,114.7160716,https://maps.google.com/?cid=0x0:0xfa14a316993c2dbe,
toko bangunan,Toko Bahan Bangunan,UD.ABADI,"FPV6+9VJ, Landasan Ulin Sel., Kec. Liang Anggang, Kota Banjar Baru, Kalimantan Selatan 70722","Landasan Ulin Sel., Kec. Liang Anggang, Kota Banjar Baru",KALIMANTAN SELATAN,70722.0,Indonesia,81250019333.0,,,-3.5065317,114.7121422,https://maps.google.com/?cid=0x0:0x332ac072d8070a5e,
toko bangunan,toko bangunan,Kalimantan Selatan 70723,"Kec. Liang Anggang, Kota Banjar Baru, Kalimantan Selatan","Kota Banjar Baru, Kalimantan Selatan",KALIMANTAN SELATAN,,Indonesia,,,,-3.4705981,114.7202287,https://maps.google.com/?cid=0x0:0x219261530362f359,
