Category;Real Category;Business Name;Address;City;State;Postal Code;Country;Phone;Latitude;Longitude;Map Link
"toko bangunan";"toko bangunan";"Kec. Babul Makmur";"Kabupaten Aceh Tenggara, Aceh";"Kabupaten Aceh Tenggara, Aceh";"ACEH";"";"Indonesia";"";"3.2886858";"97.9785032";"https://maps.google.com/?cid=0x0:0xa32290e982898875"
"toko bangunan";"Sekolah";"UD. RIDHO";"Jl. Kutacane, Tanoh Alas, Kec. Babul Makmur, Kabupaten Aceh Tenggara, Aceh 24673";"Tanoh Alas, Kec. Babul Makmur, Kabupaten Aceh Tenggara";"ACEH";"24673";"Indonesia";" 083869524663";"3.2873604";"97.9789446";"https://maps.google.com/?cid=0x0:0xaf4f4e8b5a2edcfc"
"toko bangunan";"Toko Bahan Bangunan";"UD. SELLA";"Lawe Deski Sabas, Kec. Babul Makmur, Kabupaten Aceh Tenggara, Aceh 24673";"Kec. Babul Makmur, Kabupaten Aceh Tenggara";"ACEH";"24673";"Indonesia";" 085297054443";"3.3148136";"97.9529359";"https://maps.google.com/?cid=0x0:0x71759b4359f9cb4a"
"toko bangunan";"Toko Bahan Bangunan";"Sabilussalam";"8WCX+6C5, Jln. Kutacane-lawe pakam, Sabilussalam, Kec. Babul Makmur, Kabupaten Aceh Tenggara";"Kabupaten Aceh Tenggara, Aceh";"ACEH";"";"Indonesia";"";"3.3205243";"97.9485997";"https://maps.google.com/?cid=0x0:0xd797c9e0bac0a336"
"toko bangunan";"Grosir Barang Kelontong";"Bontot Sehatku";"Lawe Mantik, Kec. Babul Makmur, Kabupaten Aceh Tenggara, Aceh 24673";"Kec. Babul Makmur, Kabupaten Aceh Tenggara";"ACEH";"24673";"Indonesia";" 088263808937";"3.3027382";"97.9577749";"https://maps.google.com/?cid=0x0:0xd489293949e1a553"
"toko bangunan";"Sekolah";"UD. RIDHO";"Jl. Kutacane, Tanoh Alas, Kec. Babul Makmur, Kabupaten Aceh Tenggara, Aceh 24673";"Tanoh Alas, Kec. Babul Makmur, Kabupaten Aceh Tenggara";"ACEH";"24673";"Indonesia";" 083869524663";"3.2873604";"97.9789446";"https://maps.google.com/?cid=0x0:0xaf4f4e8b5a2edcfc"
"toko bangunan";"Toko Bahan Bangunan";"UD. SELLA";"Lawe Deski Sabas, Kec. Babul Makmur, Kabupaten Aceh Tenggara, Aceh 24673";"Kec. Babul Makmur, Kabupaten Aceh Tenggara";"ACEH";"24673";"Indonesia";" 085297054443";"3.3148136";"97.9529359";"https://maps.google.com/?cid=0x0:0x71759b4359f9cb4a"
"toko bangunan";"toko bangunan";"Aceh 24673";"Kabupaten Aceh Tenggara, Aceh";"Kabupaten Aceh Tenggara, Aceh";"ACEH";"";"Indonesia";"";"3.0291759";"97.8286368";"https://maps.google.com/?cid=0x0:0x9e7ae9b803d7455"
"toko bangunan";"Toko Bahan Bangunan";"Toko Sinar Bangunan";"Jl. Blangkejeren - Kutacane, Alas Merancar, Kec. Babussalam, Kabupaten Aceh Tenggara, Aceh 24651";"Alas Merancar, Kec. Babussalam, Kabupaten Aceh Tenggara";"ACEH";"24651";"Indonesia";" 081360194534";"3.505696";"97.805592";"https://maps.google.com/?cid=0x0:0x62b80c131958ab09"
"toko bangunan";"Pusat Perbelanjaan";"toko alat bangunan UD.Usaha Baru";"X8RV+25V, Rak Lunung, Kec. Blangkejeren, Kabupaten Gayo Lues, Aceh 24653";"Rak Lunung, Kec. Blangkejeren, Kabupaten Gayo Lues";"ACEH";"24653";"Indonesia";"";"3.9901214";"97.3429091";"https://maps.google.com/?cid=0x0:0xf60dc2da87a6f48d"
"toko bangunan";"Pusat Perbelanjaan";"UD.hanif bangunan";"4734+V2W, Ampa Kolak, Kec. Rikit Gaib, Kabupaten Gayo Lues, Aceh 24661";"Ampa Kolak, Kec. Rikit Gaib, Kabupaten Gayo Lues";"ACEH";"24661";"Indonesia";" 082298920035";"4.1047722";"97.2550933";"https://maps.google.com/?cid=0x0:0x1c6ebf78c8573664"
"toko bangunan";"Toko Bahan Bangunan";"UD. Ahmad Rafif";"9V86+72J, Titi Mas, Kec. Babul Rahman, Kabupaten Aceh Tenggara, Aceh 24562";"Titi Mas, Kec. Babul Rahman, Kabupaten Aceh Tenggara";"ACEH";"24562";"Indonesia";" 085358320324";"3.3655017";"97.860937";"https://maps.google.com/?cid=0x0:0x60c6bcdce40d0d07"
"toko bangunan";"Toko Perlengkapan Rumah";"Toko Mandiri Bangunan";"282R+QP4, JL. Tgk M. Luddin, Kuta Lintang, Kec. Blangkejeren, Kabupaten Gayo Lues, Aceh 24655";"JL. Tgk M. Luddin, Kuta Lintang, Kec. Blangkejeren, Kabupaten Gayo Lues";"ACEH";"24655";"Indonesia";" 0818674274";"4.0018778";"97.3418272";"https://maps.google.com/?cid=0x0:0xf1bbd819fbfd1554"
"toko bangunan";"Toko Bahan Bangunan";"Sabilussalam";"8WCX+6C5, Jln. Kutacane-lawe pakam, Sabilussalam, Kec. Babul Makmur, Kabupaten Aceh Tenggara";"Kabupaten Aceh Tenggara, Aceh";"ACEH";"";"Indonesia";"";"3.3205243";"97.9485997";"https://maps.google.com/?cid=0x0:0xd797c9e0bac0a336"
"toko bangunan";"Toko Perlengkapan Rumah";"Toko Bangunan Pandawa Lima";"FRMG+H5F, Simpang Empat, Kec. Lawe Bulan, Kabupaten Aceh Tenggara, Aceh 24651";"Simpang Empat, Kec. Lawe Bulan, Kabupaten Aceh Tenggara";"ACEH";"24651";"Indonesia";"";"3.4839302";"97.8254135";"https://maps.google.com/?cid=0x0:0x195639a521312653"
"toko bangunan";"Toko Perlengkapan Rumah";"Toko Harapan Baru Keramik";"Jl. Blangkejeren - Kutacane No.10, Kota Kutacane, Kec. Babussalam, Kabupaten Aceh Tenggara, Aceh 24651";"Kota Kutacane, Kec. Babussalam, Kabupaten Aceh Tenggara";"ACEH";"24651";"Indonesia";" 08111522228";"3.4875132";"97.8115114";"https://maps.google.com/?cid=0x0:0x67030dcadd253e8d"
"toko bangunan";"Toko Bahan Bangunan";"Toko Cahaya Baru";"Jl. Raya, Kerukunan Kuta Panjang, Kec. Kutapanjang, Kabupaten Gayo Lues, Aceh 24655";"Kerukunan Kuta Panjang, Kec. Kutapanjang, Kabupaten Gayo Lues";"ACEH";"24655";"Indonesia";" 085296662799";"4.0164994";"97.2780218";"https://maps.google.com/?cid=0x0:0x8b21297c68721e96"
"toko bangunan";"Toko Perlengkapan Rumah";"Berkah Bangunan";"Jl. Blangkejeren - Kutacane, Cempa, Kec. Blangkejeren, Kabupaten Gayo Lues, Aceh 24653";"Cempa, Kec. Blangkejeren, Kabupaten Gayo Lues";"ACEH";"24653";"Indonesia";" 081360058001";"3.9745266";"97.3476546";"https://maps.google.com/?cid=0x0:0xa4b1d04d18874726"
"toko bangunan";"Toko Perlengkapan Rumah";"Anugerah Jaya";"9W39+7X4, Lawe Sigala Tim., Kec. Lawe Sigala-Gala, Kabupaten Aceh Tenggara, Aceh 24673";"Lawe Sigala Tim., Kec. Lawe Sigala-Gala, Kabupaten Aceh Tenggara";"ACEH";"24673";"Indonesia";"";"3.3533158";"97.9198264";"https://maps.google.com/?cid=0x0:0x1b39a007fa63286c"
"toko bangunan";"toko bangunan";"Kec. Babussalam";"Kabupaten Aceh Tenggara, Aceh";"Kabupaten Aceh Tenggara, Aceh";"ACEH";"";"Indonesia";"";"3.4831986";"97.812801";"https://maps.google.com/?cid=0x0:0x585c8bae275f9877"
"toko bangunan";"Toko Perlengkapan Rumah";"Toko Harapan Baru Keramik";"Jl. Blangkejeren - Kutacane No.10, Kota Kutacane, Kec. Babussalam, Kabupaten Aceh Tenggara, Aceh 24651";"Kota Kutacane, Kec. Babussalam, Kabupaten Aceh Tenggara";"ACEH";"24651";"Indonesia";" 08111522228";"3.4875132";"97.8115114";"https://maps.google.com/?cid=0x0:0x67030dcadd253e8d"
"toko bangunan";"Toko Bahan Bangunan";"Toko Sinar Bangunan";"Jl. Blangkejeren - Kutacane, Alas Merancar, Kec. Babussalam, Kabupaten Aceh Tenggara, Aceh 24651";"Alas Merancar, Kec. Babussalam, Kabupaten Aceh Tenggara";"ACEH";"24651";"Indonesia";" 081360194534";"3.505696";"97.805592";"https://maps.google.com/?cid=0x0:0x62b80c131958ab09"
"toko bangunan";"Toko Perlengkapan Rumah";"Toko Bangunan Pandawa Lima";"FRMG+H5F, Simpang Empat, Kec. Lawe Bulan, Kabupaten Aceh Tenggara, Aceh 24651";"Simpang Empat, Kec. Lawe Bulan, Kabupaten Aceh Tenggara";"ACEH";"24651";"Indonesia";"";"3.4839302";"97.8254135";"https://maps.google.com/?cid=0x0:0x195639a521312653"
"toko bangunan";"Toko Perlengkapan Rumah";"TOKO ALAT BANGUNAN NAJLA";"Jl. Marga Satwa No.Desa, Perapat Hilir, Kab, Southeast Aceh, Aceh 24651";"Perapat Hilir, Kab, Southeast Aceh";"ACEH";"24651";"Indonesia";"";"3.478036";"97.810492";"https://maps.google.com/?cid=0x0:0xa4076180a46bc977"
"toko bangunan";"Toko Perlengkapan Rumah";"Toko UD BULEK kutacane";"FR6H+8CR, Jl. Kutacane-Tigabinanga, Bambel Gabungan, Kec. Klp. Gading, Kabupaten Aceh Tenggara, Aceh 24651";"Jl. Kutacane-Tigabinanga, Bambel Gabungan, Kec. Klp. Gading, Kabupaten Aceh Tenggara";"ACEH";"24651";"Indonesia";"";"3.4608744";"97.8285069";"https://maps.google.com/?cid=0x0:0xdb8b0462d5ac32a3"
"toko bangunan";"Toko Bahan Bangunan";"ZHAFIRA KERAMIK";"GR93+52G, Jl. Blangkejeren - Kutacane, Kota Kutacane, Kec. Badar, Kabupaten Aceh Tenggara, Aceh 24651";"Jl. Blangkejeren - Kutacane, Kota Kutacane, Kec. Badar, Kabupaten Aceh Tenggara";"ACEH";"24651";"Indonesia";" 082211150669";"3.5179428";"97.8025742";"https://maps.google.com/?cid=0x0:0x2c029e8214e46bb3"
"toko bangunan";"Toko bahan makanan";"Toko Jotun Agara Warna";"Jl. Jend Ahmad Yani komplek ruko ABC No.18, Kota Kutacane, Kec. Babussalam, Kabupaten Aceh Tenggara, Aceh 24651";"Kota Kutacane, Kec. Babussalam, Kabupaten Aceh Tenggara";"ACEH";"24651";"Indonesia";" 081260049444";"3.4868713";"97.811434";"https://maps.google.com/?cid=0x0:0x4988d3201e8b79df"
"toko bangunan";"Toko Bahan Bangunan";"Ud semban";"FRQ8+MHC, Lawe Rutung, Kec. Lawe Bulan, Kabupaten Aceh Tenggara, Aceh 24651";"Lawe Rutung, Kec. Lawe Bulan, Kabupaten Aceh Tenggara";"ACEH";"24651";"Indonesia";"";"3.4891877";"97.8164006";"https://maps.google.com/?cid=0x0:0x47089266d151d260"
"toko bangunan";"Toko Bahan Bangunan";"Tunas Muda";"Jl.jend.Ahmad Yani No.2, Pulo Latong, Kec. Babussalam, Kabupaten Aceh Tenggara, Aceh 24651";"Pulo Latong, Kec. Babussalam, Kabupaten Aceh Tenggara";"ACEH";"24651";"Indonesia";"";"3.4818925";"97.8129579";"https://maps.google.com/?cid=0x0:0x5eaddb385346e5a2"
"toko bangunan";"Toko Bahan Bangunan";"Toko Besi Nabawi2";"depan alfamart, Jln.pajak pagi, Lawe Rutung, Kec. Lawe Bulan, Kabupaten Aceh Tenggara, Aceh 24651";"Jln.pajak pagi, Lawe Rutung, Kec. Lawe Bulan, Kabupaten Aceh Tenggara";"ACEH";"24651";"Indonesia";"";"3.4870822";"97.8135816";"https://maps.google.com/?cid=0x0:0xa2f72346d29994cf"
"toko bangunan";"Toko";"UD. HANDIKA  GERRY";"GR83+RMG, Lawe Bekung, Kec. Badar, Kabupaten Aceh Tenggara, Aceh 24651";"Lawe Bekung, Kec. Badar, Kabupaten Aceh Tenggara";"ACEH";"24651";"Indonesia";"";"3.5170529";"97.804215";"https://maps.google.com/?cid=0x0:0x9ab748d447c151d4"
"toko bangunan";"Toko Bahan Bangunan";""UD.Kuah Ate"";"FRW4+2CP, Batu Bulan Asli, Kec. Babussalam, Kabupaten Aceh Tenggara, Aceh 24651";"Batu Bulan Asli, Kec. Babussalam, Kabupaten Aceh Tenggara";"ACEH";"24651";"Indonesia";"";"3.4955845";"97.8056822";"https://maps.google.com/?cid=0x0:0x293640f701f99e23"
"toko bangunan";"Toko";"Arkana kaca";"FRG9+3GF, Jl. Iskandar Muda, Kutacane Lama, Kec. Babussalam, Kabupaten Aceh Tenggara, Aceh 24651";"Jl. Iskandar Muda, Kutacane Lama, Kec. Babussalam, Kabupaten Aceh Tenggara";"ACEH";"24651";"Indonesia";" 082273304207";"3.4751822";"97.8188088";"https://maps.google.com/?cid=0x0:0x5b61e96e7e069a60"
"toko bangunan";"toko bangunan";"Aceh 24671";"Kabupaten Aceh Tenggara, Aceh";"Kabupaten Aceh Tenggara, Aceh";"ACEH";"";"Indonesia";"";"3.3974891";"97.8612767";"https://maps.google.com/?cid=0x0:0x2f1eb6944610f143"
"toko bangunan";"Toko Bahan Bangunan";"Toko Sinar Bangunan";"Jl. Blangkejeren - Kutacane, Alas Merancar, Kec. Babussalam, Kabupaten Aceh Tenggara, Aceh 24651";"Alas Merancar, Kec. Babussalam, Kabupaten Aceh Tenggara";"ACEH";"24651";"Indonesia";" 081360194534";"3.505696";"97.805592";"https://maps.google.com/?cid=0x0:0x62b80c131958ab09"
"toko bangunan";"Toko Bahan Bangunan";"Toko TABINA BARU";"Jl. Laksamana Malahayati No.84, Kajhu, Kec. Baitussalam, Kabupaten Aceh Besar, Aceh 24415";"Kajhu, Kec. Baitussalam, Kabupaten Aceh Besar";"ACEH";"24415";"Indonesia";" 082172312450";"5.5991407";"95.3779109";"https://maps.google.com/?cid=0x0:0x979b71f7709432ad"
"toko bangunan";"Toko Bahan Bangunan";"SULTAN JAYA(TOKO BANGUNAN)";"Jl. Bandara Sultan Iskandar Muda, Ajee Cut, Kec. Ingin Jaya, Kabupaten Aceh Besar, Aceh 24411";"Ajee Cut, Kec. Ingin Jaya, Kabupaten Aceh Besar";"ACEH";"24411";"Indonesia";" 085167599087";"5.510563";"95.3880613";"https://maps.google.com/?cid=0x0:0xaa81de74e089cb09"
"toko bangunan";"Kantor Perusahaan";"Toko Bangunan Bangun Mitra";"Sp, Tumbo Baro, Kuta Malaka, Aceh Besar Regency, Aceh 23352";"Tumbo Baro, Kuta Malaka, Aceh Besar Regency";"ACEH";"23352";"Indonesia";" 081377445345";"5.4371572";"95.4059501";"https://maps.google.com/?cid=0x0:0xa37f6dde43e7d463"
"toko bangunan";"Toko Bahan Bangunan";"Toko Bangunan Sekata";"Jl. Laksamana Malahayati No.111, Kajhu, Kec. Baitussalam, Kabupaten Aceh Besar, Aceh";"Kabupaten Aceh Besar, Aceh";"ACEH";"";"Indonesia";" 085277117730";"5.5961509";"95.3733874";"https://maps.google.com/?cid=0x0:0xc5ac32b26c53b293"
"toko bangunan";"Toko Bahan Bangunan";"Toko Bangunan Semoga Maju";"Banda Safa, Kec. Kuta Cot Glie, Kabupaten Aceh Besar, Aceh 23372";"Kec. Kuta Cot Glie, Kabupaten Aceh Besar";"ACEH";"23372";"Indonesia";" 087784554999";"5.3915696";"95.5146221";"https://maps.google.com/?cid=0x0:0xbfcb6b1df256257f"
"toko bangunan";"Toko Bahan Bangunan";"TOKO BESI BINTANG BANGUNAN";"Jl. Pocut Baren No.29, Keuramat, Kec. Kuta Alam, Kota Banda Aceh, Aceh 23126";"Keuramat, Kec. Kuta Alam, Kota Banda Aceh";"ACEH";"23126";"Indonesia";" 081360031288";"5.5617508";"95.3240203";"https://maps.google.com/?cid=0x0:0xa98c67e001462b53"
"toko bangunan";"Toko Bahan Bangunan";"Toko Dunia Bangunan. 24 Jam.";"H82H+CVX, Jl. Teuku Imuem Jl. Teuku Chik Di Tiro, Ateuk Pahlawan, Kec. Baiturrahman, Kota Banda Aceh, Aceh 174_175";"Kota Banda Aceh, Aceh";"ACEH";"";"Indonesia";" 085260178145";"5.5511237";"95.3297328";"https://maps.google.com/?cid=0x0:0xc5443108175d2ef2"
"toko bangunan";"Toko Bahan Bangunan";"Toko Bangunan Jaya Perkasa";"Tungkob, Kec. Darussalam, Kabupaten Aceh Besar, Aceh 23374";"Kec. Darussalam, Kabupaten Aceh Besar";"ACEH";"23374";"Indonesia";" 082385885885";"5.567927";"95.3840599";"https://maps.google.com/?cid=0x0:0xbbb44c129445c877"
"toko bangunan";"Toko Bahan Bangunan";"Serba Agung Toko Bangunan";"Jl. Cut Nyak Dhien, Ajuen, Kec. Peukan Bada, Kabupaten Aceh Besar, Aceh 23232";"Ajuen, Kec. Peukan Bada, Kabupaten Aceh Besar";"ACEH";"23232";"Indonesia";"";"5.5264411";"95.2885605";"https://maps.google.com/?cid=0x0:0xc22c5edc4f5d33ef"
"toko bangunan";"Toko Bahan Bangunan";"Toko Bangunan Balia";"G8G3+M57, Geuceu Iniem, Kec. Banda Raya, Kota Banda Aceh, Aceh 23232";"Geuceu Iniem, Kec. Banda Raya, Kota Banda Aceh";"ACEH";"23232";"Indonesia";" 085769978768";"5.5266501";"95.3029277";"https://maps.google.com/?cid=0x0:0xf90c60957a4d309e"
"toko bangunan";"Toko Bahan Bangunan";"Toko Babussalam/Darussalam Bangunan";"Jl. Raya Biaro - Lasi, Lasi, Kec. Candung, Kabupaten Agam, Sumatera Barat 26191";"Lasi, Kec. Candung, Kabupaten Agam";"ACEH";"26191";"Indonesia";" 082171748721";"-0.3157437";"100.4343164";"https://maps.google.com/?cid=0x0:0xc213cac4a5bf4a01"
"toko bangunan";"Toko Bahan Bangunan";"Toko Bangunan SINAR BAHAGIA";"G8R4+G6G, Punge Blang Cut, Kec. Jaya Baru, Kota Banda Aceh, Aceh 23116";"Punge Blang Cut, Kec. Jaya Baru, Kota Banda Aceh";"ACEH";"23116";"Indonesia";" 085167599087";"5.5413144";"95.3055744";"https://maps.google.com/?cid=0x0:0xb118ca7458dd520c"
"toko bangunan";"toko bangunan";"Kec. Badar";"Kabupaten Aceh Tenggara, Aceh";"Kabupaten Aceh Tenggara, Aceh";"ACEH";"";"Indonesia";"";"3.5177072";"97.8029595";"https://maps.google.com/?cid=0x0:0xd42fb9bff7e8b819"
"toko bangunan";"Toko Bahan Bangunan";"Toko Sinar Bangunan";"Jl. Blangkejeren - Kutacane, Alas Merancar, Kec. Babussalam, Kabupaten Aceh Tenggara, Aceh 24651";"Alas Merancar, Kec. Babussalam, Kabupaten Aceh Tenggara";"ACEH";"24651";"Indonesia";" 081360194534";"3.505696";"97.805592";"https://maps.google.com/?cid=0x0:0x62b80c131958ab09"
"toko bangunan";"Toko";"UD. HANDIKA  GERRY";"GR83+RMG, Lawe Bekung, Kec. Badar, Kabupaten Aceh Tenggara, Aceh 24651";"Lawe Bekung, Kec. Badar, Kabupaten Aceh Tenggara";"ACEH";"24651";"Indonesia";"";"3.5170529";"97.804215";"https://maps.google.com/?cid=0x0:0x9ab748d447c151d4"
"toko bangunan";"Toko Perlengkapan Rumah";"Toko Harapan Baru Keramik";"Jl. Blangkejeren - Kutacane No.10, Kota Kutacane, Kec. Babussalam, Kabupaten Aceh Tenggara, Aceh 24651";"Kota Kutacane, Kec. Babussalam, Kabupaten Aceh Tenggara";"ACEH";"24651";"Indonesia";" 08111522228";"3.4875132";"97.8115114";"https://maps.google.com/?cid=0x0:0x67030dcadd253e8d"
"toko bangunan";"Toko Bahan Bangunan";"SIDIN KERAWANGAN DAN LUBANG ANGIN";"Kp. Baru, Kec. Badar, Kabupaten Aceh Tenggara, Aceh 24651";"Kec. Badar, Kabupaten Aceh Tenggara";"ACEH";"24651";"Indonesia";" 082271362677";"3.5247963";"97.7926906";"https://maps.google.com/?cid=0x0:0x3061a766c2c5fa52"
"toko bangunan";"Toko Perlengkapan Rumah";"Toko Bangunan Pandawa Lima";"FRMG+H5F, Simpang Empat, Kec. Lawe Bulan, Kabupaten Aceh Tenggara, Aceh 24651";"Simpang Empat, Kec. Lawe Bulan, Kabupaten Aceh Tenggara";"ACEH";"24651";"Indonesia";"";"3.4839302";"97.8254135";"https://maps.google.com/?cid=0x0:0x195639a521312653"
"toko bangunan";"Toko Bahan Bangunan";"Toko besi ARI JAWA";"FRP7+JPP, Lawe Rutung, Kec. Lawe Bulan, Kabupaten Aceh Tenggara, Aceh 24651";"Lawe Rutung, Kec. Lawe Bulan, Kabupaten Aceh Tenggara";"ACEH";"24651";"Indonesia";" 081263838057";"3.4865877";"97.8143307";"https://maps.google.com/?cid=0x0:0x7f4eb195649120ba"
"toko bangunan";"Toko Perlengkapan Rumah";"TOKO ALAT BANGUNAN NAJLA";"Jl. Marga Satwa No.Desa, Perapat Hilir, Kab, Southeast Aceh, Aceh 24651";"Perapat Hilir, Kab, Southeast Aceh";"ACEH";"24651";"Indonesia";"";"3.478036";"97.810492";"https://maps.google.com/?cid=0x0:0xa4076180a46bc977"
"toko bangunan";"Toko Perlengkapan Rumah";"Toko bangunan pacific baru";"62Q4+HH4, Jl. PT. KKA, Paloh Lada, Kec. Dewantara, Kabupaten Aceh Utara, Aceh";"Kabupaten Aceh Utara, Aceh";"ACEH";"";"Indonesia";" 081321534311";"5.23888";"97.00644";"https://maps.google.com/?cid=0x0:0x7f761c0e1a87072"
"toko bangunan";"Toko Bahan Bangunan";"Zahra Bangunan";"Jl. Dr. Mr. Mohd Hasan, Batoh, Kec. Lueng Bata, Kota Banda Aceh, Aceh 23127";"Batoh, Kec. Lueng Bata, Kota Banda Aceh";"ACEH";"23127";"Indonesia";" 0811111703";"5.5425651";"95.3305542";"https://maps.google.com/?cid=0x0:0x9785538145c2ac3"
"toko bangunan";"Toko Bahan Bangunan";"Toko Besi Nabawi2";"depan alfamart, Jln.pajak pagi, Lawe Rutung, Kec. Lawe Bulan, Kabupaten Aceh Tenggara, Aceh 24651";"Jln.pajak pagi, Lawe Rutung, Kec. Lawe Bulan, Kabupaten Aceh Tenggara";"ACEH";"24651";"Indonesia";"";"3.4870822";"97.8135816";"https://maps.google.com/?cid=0x0:0xa2f72346d29994cf"
"toko bangunan";"Toko Bahan Bangunan";"Toko Bangunan Balia";"G8G3+M57, Geuceu Iniem, Kec. Banda Raya, Kota Banda Aceh, Aceh 23232";"Geuceu Iniem, Kec. Banda Raya, Kota Banda Aceh";"ACEH";"23232";"Indonesia";" 085769978768";"5.5266501";"95.3029277";"https://maps.google.com/?cid=0x0:0xf90c60957a4d309e"
"toko bangunan";"Toko Bahan Bangunan";"Toko Bangunan Restu Baru";"Punge Jurong, Kec. Meuraxa, Kota Banda Aceh, Aceh";"Kota Banda Aceh, Aceh";"ACEH";"";"Indonesia";" 0811111703";"5.5505698";"95.3063395";"https://maps.google.com/?cid=0x0:0x19be35fae5e58e08"
"toko bangunan";"Toko Bahan Bangunan";"Serba Agung Toko Bangunan";"Jl. Cut Nyak Dhien, Ajuen, Kec. Peukan Bada, Kabupaten Aceh Besar, Aceh 23232";"Ajuen, Kec. Peukan Bada, Kabupaten Aceh Besar";"ACEH";"23232";"Indonesia";"";"5.5264411";"95.2885605";"https://maps.google.com/?cid=0x0:0xc22c5edc4f5d33ef"
"toko bangunan";"Toko Perlengkapan Rumah";"Toko UD BULEK kutacane";"FR6H+8CR, Jl. Kutacane-Tigabinanga, Bambel Gabungan, Kec. Klp. Gading, Kabupaten Aceh Tenggara, Aceh 24651";"Jl. Kutacane-Tigabinanga, Bambel Gabungan, Kec. Klp. Gading, Kabupaten Aceh Tenggara";"ACEH";"24651";"Indonesia";"";"3.4608744";"97.8285069";"https://maps.google.com/?cid=0x0:0xdb8b0462d5ac32a3"
"toko bangunan";"Toko Bahan Bangunan";"TB BERUANG";"Jl. Gembira No.5, RT.1/RW.6, Guntur, Kecamatan Setiabudi, Kota Jakarta Selatan, Daerah Khusus Ibukota Jakarta 12980";"RT.1/RW.6, Guntur, Kecamatan Setiabudi, Kota Jakarta Selatan";"ACEH";"12980";"Indonesia";" 0218303154";"-6.2082151";"106.8322198";"https://maps.google.com/?cid=0x0:0xa3308d33696c1ed6"
"toko bangunan";"Toko Bahan Bangunan";"UD. Putra Alas";"Bambel Gabungan, Kec. Bambel, Kabupaten Aceh Tenggara, Aceh 24651";"Kec. Bambel, Kabupaten Aceh Tenggara";"ACEH";"24651";"Indonesia";" 082251536584";"3.4580077";"97.8302665";"https://maps.google.com/?cid=0x0:0xaec2fd01ded4e13b"
"toko bangunan";"Toko Kaca";"Arkana Group";"CVR8+R24, Jl. Kutacane, Pulo Sanggar, Kec. Babussalam, Kabupaten Aceh Tenggara, Aceh 24651";"Jl. Kutacane, Pulo Sanggar, Kec. Babussalam, Kabupaten Aceh Tenggara";"ACEH";"24651";"Indonesia";" 08116831273";"3.4420104";"97.8650824";"https://maps.google.com/?cid=0x0:0x234a6b0b966fbfe3"
"toko bangunan";"Toko Perlengkapan Rumah";"Toko Harapan Baru Keramik";"Jl. Blangkejeren - Kutacane No.10, Kota Kutacane, Kec. Babussalam, Kabupaten Aceh Tenggara, Aceh 24651";"Kota Kutacane, Kec. Babussalam, Kabupaten Aceh Tenggara";"ACEH";"24651";"Indonesia";" 08111522228";"3.4875132";"97.8115114";"https://maps.google.com/?cid=0x0:0x67030dcadd253e8d"
"toko bangunan";"Toko Perlengkapan Rumah";"Toko Bangunan Pandawa Lima";"FRMG+H5F, Simpang Empat, Kec. Lawe Bulan, Kabupaten Aceh Tenggara, Aceh 24651";"Simpang Empat, Kec. Lawe Bulan, Kabupaten Aceh Tenggara";"ACEH";"24651";"Indonesia";"";"3.4839302";"97.8254135";"https://maps.google.com/?cid=0x0:0x195639a521312653"
"toko bangunan";"Toko Bahan Bangunan";"Toko Sinar Bangunan";"Jl. Blangkejeren - Kutacane, Alas Merancar, Kec. Babussalam, Kabupaten Aceh Tenggara, Aceh 24651";"Alas Merancar, Kec. Babussalam, Kabupaten Aceh Tenggara";"ACEH";"24651";"Indonesia";" 081360194534";"3.505696";"97.805592";"https://maps.google.com/?cid=0x0:0x62b80c131958ab09"
"toko bangunan";"Toko Bahan Bangunan";"Ud semban";"FRQ8+MHC, Lawe Rutung, Kec. Lawe Bulan, Kabupaten Aceh Tenggara, Aceh 24651";"Lawe Rutung, Kec. Lawe Bulan, Kabupaten Aceh Tenggara";"ACEH";"24651";"Indonesia";"";"3.4891877";"97.8164006";"https://maps.google.com/?cid=0x0:0x47089266d151d260"
"toko bangunan";"Toko Bahan Bangunan";"Toko besi ARI JAWA";"FRP7+JPP, Lawe Rutung, Kec. Lawe Bulan, Kabupaten Aceh Tenggara, Aceh 24651";"Lawe Rutung, Kec. Lawe Bulan, Kabupaten Aceh Tenggara";"ACEH";"24651";"Indonesia";" 081263838057";"3.4865877";"97.8143307";"https://maps.google.com/?cid=0x0:0x7f4eb195649120ba"
"toko bangunan";"Toko Bahan Bangunan";"UD RIVANA";"CV9R+6QX, Amaliah, Kec. Bukit Tusam, Kabupaten Aceh Tenggara, Aceh 24671";"Amaliah, Kec. Bukit Tusam, Kabupaten Aceh Tenggara";"ACEH";"24671";"Indonesia";"";"3.4181237";"97.8919771";"https://maps.google.com/?cid=0x0:0x2bf0e4da9afaa0fc"
"toko bangunan";"toko bangunan";"U.D PERWIRA";"CVV9+F6G, Kuning II, Kec. Bambel, Kabupaten Aceh Tenggara, Aceh 24651";"Kuning II, Kec. Bambel, Kabupaten Aceh Tenggara";"ACEH";"24651";"Indonesia";"";"3.4436988";"97.8680786";"https://maps.google.com/?cid=0x0:0x5e0cf6169392d279"
"toko bangunan";"Toko Perlengkapan Rumah";"TOKO ALAT BANGUNAN NAJLA";"Jl. Marga Satwa No.Desa, Perapat Hilir, Kab, Southeast Aceh, Aceh 24651";"Perapat Hilir, Kab, Southeast Aceh";"ACEH";"24651";"Indonesia";"";"3.478036";"97.810492";"https://maps.google.com/?cid=0x0:0xa4076180a46bc977"
"toko bangunan";"Toko Bahan Bangunan";"UD.ZUNANDA";"9VXW+C2M, Simpang Semadam, Kec. Semadam, Kabupaten Aceh Tenggara, Aceh 24671";"Simpang Semadam, Kec. Semadam, Kabupaten Aceh Tenggara";"ACEH";"24671";"Indonesia";"";"3.3985922";"97.8950455";"https://maps.google.com/?cid=0x0:0x7d8807f8f52b4aeb"
"toko bangunan";"Toko Bahan Bangunan";"UD. Putra Alas";"Bambel Gabungan, Kec. Bambel, Kabupaten Aceh Tenggara, Aceh 24651";"Kec. Bambel, Kabupaten Aceh Tenggara";"ACEH";"24651";"Indonesia";" 082251536584";"3.4580077";"97.8302665";"https://maps.google.com/?cid=0x0:0xaec2fd01ded4e13b"
"toko bangunan";"toko bangunan";"Aceh 24671";"Kabupaten Aceh Tenggara, Aceh";"Kabupaten Aceh Tenggara, Aceh";"ACEH";"";"Indonesia";"";"3.3974891";"97.8612767";"https://maps.google.com/?cid=0x0:0x2f1eb6944610f143"
"toko bangunan";"Toko Bahan Bangunan";"UD.Maulida mandiri";"9VG2+8F8, Salim Pinim, Tanoh Alas, Kabupaten Aceh Tenggara, Aceh 24671";"Salim Pinim, Tanoh Alas, Kabupaten Aceh Tenggara";"ACEH";"24671";"Indonesia";" 085296019972";"3.3759465";"97.8522351";"https://maps.google.com/?cid=0x0:0xe92c4457f7694c91"
"toko bangunan";"Toko Perlengkapan Rumah";"Toko UD BULEK kutacane";"FR6H+8CR, Jl. Kutacane-Tigabinanga, Bambel Gabungan, Kec. Klp. Gading, Kabupaten Aceh Tenggara, Aceh 24651";"Jl. Kutacane-Tigabinanga, Bambel Gabungan, Kec. Klp. Gading, Kabupaten Aceh Tenggara";"ACEH";"24651";"Indonesia";"";"3.4608744";"97.8285069";"https://maps.google.com/?cid=0x0:0xdb8b0462d5ac32a3"
"toko bangunan";"Toko Bahan Bangunan";"UD RIVANA";"CV9R+6QX, Amaliah, Kec. Bukit Tusam, Kabupaten Aceh Tenggara, Aceh 24671";"Amaliah, Kec. Bukit Tusam, Kabupaten Aceh Tenggara";"ACEH";"24671";"Indonesia";"";"3.4181237";"97.8919771";"https://maps.google.com/?cid=0x0:0x2bf0e4da9afaa0fc"
"toko bangunan";"Toko Bahan Bangunan";"Ud Alkautsar";"9RQQ+RG8, Lawe Tungkal, Tanoh Alas, Kabupaten Aceh Tenggara, Aceh 24671";"Lawe Tungkal, Tanoh Alas, Kabupaten Aceh Tenggara";"ACEH";"24671";"Indonesia";"";"3.3895484";"97.8388351";"https://maps.google.com/?cid=0x0:0x87e1a4c3d16bb19e"
"toko bangunan";"Toko Bahan Bangunan";"UD. SELLA";"Lawe Deski Sabas, Kec. Babul Makmur, Kabupaten Aceh Tenggara, Aceh 24673";"Kec. Babul Makmur, Kabupaten Aceh Tenggara";"ACEH";"24673";"Indonesia";" 085297054443";"3.3148136";"97.9529359";"https://maps.google.com/?cid=0x0:0x71759b4359f9cb4a"
"toko bangunan";"Toko Perlengkapan Rumah";"Anugerah Jaya";"9W39+7X4, Lawe Sigala Tim., Kec. Lawe Sigala-Gala, Kabupaten Aceh Tenggara, Aceh 24673";"Lawe Sigala Tim., Kec. Lawe Sigala-Gala, Kabupaten Aceh Tenggara";"ACEH";"24673";"Indonesia";"";"3.3533158";"97.9198264";"https://maps.google.com/?cid=0x0:0x1b39a007fa63286c"
"toko bangunan";"Toko Perlengkapan Rumah";"Ud Harapan Baru";"Simpang Semadam, Kec. Semadam, Kabupaten Aceh Tenggara, Aceh 24671";"Kec. Semadam, Kabupaten Aceh Tenggara";"ACEH";"24671";"Indonesia";" 082362103000";"3.4017715";"97.8989741";"https://maps.google.com/?cid=0x0:0x49ac71f26f7ea112"
"toko bangunan";"Toko Kaca";"Arkana Group";"CVR8+R24, Jl. Kutacane, Pulo Sanggar, Kec. Babussalam, Kabupaten Aceh Tenggara, Aceh 24651";"Jl. Kutacane, Pulo Sanggar, Kec. Babussalam, Kabupaten Aceh Tenggara";"ACEH";"24651";"Indonesia";" 08116831273";"3.4420104";"97.8650824";"https://maps.google.com/?cid=0x0:0x234a6b0b966fbfe3"
"toko bangunan";"Toko Bahan Bangunan";"Rikit bur 2";"CVMJ+54F, Jl. Kutacane, Tigabinanga, Kec. Bukit Tusam, Kabupaten Aceh Tenggara, Aceh 24671";"Jl. Kutacane, Tigabinanga, Kec. Bukit Tusam, Kabupaten Aceh Tenggara";"ACEH";"24671";"Indonesia";"";"3.4329274";"97.8802895";"https://maps.google.com/?cid=0x0:0x4fd8a9d77f965e70"
"toko bangunan";"Toko Bahan Bangunan";"TOKO BESI BINTANG BANGUNAN";"Jl. Pocut Baren No.29, Keuramat, Kec. Kuta Alam, Kota Banda Aceh, Aceh 23126";"Keuramat, Kec. Kuta Alam, Kota Banda Aceh";"ACEH";"23126";"Indonesia";" 081360031288";"5.5617508";"95.3240203";"https://maps.google.com/?cid=0x0:0xa98c67e001462b53"
"toko bangunan";"Toko Bahan Bangunan";"Sabilussalam";"8WCX+6C5, Jln. Kutacane-lawe pakam, Sabilussalam, Kec. Babul Makmur, Kabupaten Aceh Tenggara";"Kabupaten Aceh Tenggara, Aceh";"ACEH";"";"Indonesia";"";"3.3205243";"97.9485997";"https://maps.google.com/?cid=0x0:0xd797c9e0bac0a336"
"toko bangunan";"Toko Bahan Bangunan";"UD RIVANA";"CV9R+6QX, Amaliah, Kec. Bukit Tusam, Kabupaten Aceh Tenggara, Aceh 24671";"Amaliah, Kec. Bukit Tusam, Kabupaten Aceh Tenggara";"ACEH";"24671";"Indonesia";"";"3.4181237";"97.8919771";"https://maps.google.com/?cid=0x0:0x2bf0e4da9afaa0fc"
"toko bangunan";"toko bangunan";"Kec. Bukit Tusam";"Kabupaten Aceh Tenggara, Aceh";"Kabupaten Aceh Tenggara, Aceh";"ACEH";"";"Indonesia";"";"3.4266977";"97.8877166";"https://maps.google.com/?cid=0x0:0xf9f3969c7ad2c2c1"
"toko bangunan";"Toko Bahan Bangunan";"UD.ZUNANDA";"9VXW+C2M, Simpang Semadam, Kec. Semadam, Kabupaten Aceh Tenggara, Aceh 24671";"Simpang Semadam, Kec. Semadam, Kabupaten Aceh Tenggara";"ACEH";"24671";"Indonesia";"";"3.3985922";"97.8950455";"https://maps.google.com/?cid=0x0:0x7d8807f8f52b4aeb"
"toko bangunan";"Toko Bahan Bangunan";"Rikit bur 2";"CVMJ+54F, Jl. Kutacane, Tigabinanga, Kec. Bukit Tusam, Kabupaten Aceh Tenggara, Aceh 24671";"Jl. Kutacane, Tigabinanga, Kec. Bukit Tusam, Kabupaten Aceh Tenggara";"ACEH";"24671";"Indonesia";"";"3.4329274";"97.8802895";"https://maps.google.com/?cid=0x0:0x4fd8a9d77f965e70"
"toko bangunan";"Toko Kaca";"Arkana Group";"CVR8+R24, Jl. Kutacane, Pulo Sanggar, Kec. Babussalam, Kabupaten Aceh Tenggara, Aceh 24651";"Jl. Kutacane, Pulo Sanggar, Kec. Babussalam, Kabupaten Aceh Tenggara";"ACEH";"24651";"Indonesia";" 08116831273";"3.4420104";"97.8650824";"https://maps.google.com/?cid=0x0:0x234a6b0b966fbfe3"
"toko bangunan";"Toko Perlengkapan Rumah";"Ud Harapan Baru";"Simpang Semadam, Kec. Semadam, Kabupaten Aceh Tenggara, Aceh 24671";"Kec. Semadam, Kabupaten Aceh Tenggara";"ACEH";"24671";"Indonesia";" 082362103000";"3.4017715";"97.8989741";"https://maps.google.com/?cid=0x0:0x49ac71f26f7ea112"
"toko bangunan";"Toko Bahan Bangunan";"UD.Maulida mandiri";"9VG2+8F8, Salim Pinim, Tanoh Alas, Kabupaten Aceh Tenggara, Aceh 24671";"Salim Pinim, Tanoh Alas, Kabupaten Aceh Tenggara";"ACEH";"24671";"Indonesia";" 085296019972";"3.3759465";"97.8522351";"https://maps.google.com/?cid=0x0:0xe92c4457f7694c91"
"toko bangunan";"Toko Perlengkapan Rumah";"Toko Mandiri Bangunan";"282R+QP4, JL. Tgk M. Luddin, Kuta Lintang, Kec. Blangkejeren, Kabupaten Gayo Lues, Aceh 24655";"JL. Tgk M. Luddin, Kuta Lintang, Kec. Blangkejeren, Kabupaten Gayo Lues";"ACEH";"24655";"Indonesia";" 0818674274";"4.0018778";"97.3418272";"https://maps.google.com/?cid=0x0:0xf1bbd819fbfd1554"
"toko bangunan";"toko bangunan";"Aceh 24653";"Aceh";"Aceh";"ACEH";"";"Indonesia";"";"3.510025";"97.5680595";"https://maps.google.com/?cid=0x0:0xfbadf244defba520"
"toko bangunan";"Toko Bahan Bangunan";"SIGMA Toko Bangunan";"Gantung Geluni, Kec. Blangpegayon, Kabupaten Gayo Lues, Aceh 24653";"Kec. Blangpegayon, Kabupaten Gayo Lues";"ACEH";"24653";"Indonesia";" 085362353530";"3.9851952";"97.3183733";"https://maps.google.com/?cid=0x0:0x3f1d5d441b9a5b49"
"toko bangunan";"Toko Bahan Bangunan";"Toko Bangunan ACEH INDAH";"X8XR+GF6, Kuta Lintang, Kec. Blangkejeren, Kabupaten Gayo Lues, Aceh 24653";"Kuta Lintang, Kec. Blangkejeren, Kabupaten Gayo Lues";"ACEH";"24653";"Indonesia";" 083869524613";"3.9987814";"97.3411457";"https://maps.google.com/?cid=0x0:0x6ac6d864eeff5f11"
"toko bangunan";"Toko Bahan Bangunan";"Toko Cahaya Baru";"Jl. Raya, Kerukunan Kuta Panjang, Kec. Kutapanjang, Kabupaten Gayo Lues, Aceh 24655";"Kerukunan Kuta Panjang, Kec. Kutapanjang, Kabupaten Gayo Lues";"ACEH";"24655";"Indonesia";" 085296662799";"4.0164994";"97.2780218";"https://maps.google.com/?cid=0x0:0x8b21297c68721e96"
"toko bangunan";"Toko Perlengkapan Rumah";"TOKO BANGUNAN BERINGIN JAYA";"X8XR+Q94, Jl. Lintas Takengon - Blangkejeren, Kuta Lintang, Kec. Blangkejeren, Kabupaten Gayo Lues, Aceh 24653";"Jl. Lintas Takengon - Blangkejeren, Kuta Lintang, Kec. Blangkejeren, Kabupaten Gayo Lues";"ACEH";"24653";"Indonesia";" 085277548160";"3.9993964";"97.3409389";"https://maps.google.com/?cid=0x0:0x5b280f9dafdeef25"
"toko bangunan";"Toko Perlengkapan Rumah";"Toko Bangunan ACEH GAYO (ANCI)";"X8WR+MF2, Kota Blangkejeren, Kec. Blangkejeren, Kabupaten Gayo Lues, Aceh 24653";"Kota Blangkejeren, Kec. Blangkejeren, Kabupaten Gayo Lues";"ACEH";"24653";"Indonesia";"";"3.9966444";"97.3411511";"https://maps.google.com/?cid=0x0:0x60a3a85fe350dabd"
"toko bangunan";"Toko Perlengkapan Rumah";"Berkah Bangunan";"Jl. Blangkejeren - Kutacane, Cempa, Kec. Blangkejeren, Kabupaten Gayo Lues, Aceh 24653";"Cempa, Kec. Blangkejeren, Kabupaten Gayo Lues";"ACEH";"24653";"Indonesia";" 081360058001";"3.9745266";"97.3476546";"https://maps.google.com/?cid=0x0:0xa4b1d04d18874726"
"toko bangunan";"Toko Bahan Bangunan";"Toko Jotun Dicky Jaya";"Jl. Blangkejeren - Kutacane No.17, Penampaan Uken, Kec. Blangkejeren, Kabupaten Gayo Lues, Aceh 24653";"Penampaan Uken, Kec. Blangkejeren, Kabupaten Gayo Lues";"ACEH";"24653";"Indonesia";"";"3.9914169";"97.3425236";"https://maps.google.com/?cid=0x0:0x56cb6e81e264829c"
"toko bangunan";"Toko Bahan Bangunan";"Toko Bangunan UD.FATHIN";"Jl.Tgk.H.M.Luddin depan SMU 1, Bustanussalam, Kec. Blangkejeren, Kabupaten Gayo Lues, Aceh 24653";"Bustanussalam, Kec. Blangkejeren, Kabupaten Gayo Lues";"ACEH";"24653";"Indonesia";" 085297010777";"4.0050662";"97.3418124";"https://maps.google.com/?cid=0x0:0xca0c0c090c460885"
"toko bangunan";"toko bangunan";"Toko Bangunan Surya Agung";"Jl. Blangkejeren - Kutacane No.71, Rak Lunung, Kec. Blangkejeren, Kabupaten Gayo Lues, Aceh 24653";"Rak Lunung, Kec. Blangkejeren, Kabupaten Gayo Lues";"ACEH";"24653";"Indonesia";"";"3.9907141";"97.3431208";"https://maps.google.com/?cid=0x0:0x3fc7f51fc8915306"
"toko bangunan";"Toko Bahan Bangunan";"Toko Bangunan HIJRAH";"NO WA OI54O54249, Jln Terminal No.1 No.2, Jantho Makmur, Kec. Kota Jantho, Kabupaten Aceh Besar, Aceh 23951";"Jln Terminal No.1 No.2, Jantho Makmur, Kec. Kota Jantho, Kabupaten Aceh Besar";"ACEH";"23951";"Indonesia";" 08154053540";"5.3019409";"95.5993081";"https://maps.google.com/?cid=0x0:0x6e374a714db84e4a"
"toko bangunan";"Toko Bahan Bangunan";"Toko Bangunan Cangduri";"279P+43G, Tampeng Musara, Kec. Kutapanjang, Kabupaten Gayo Lues, Aceh 24655";"Tampeng Musara, Kec. Kutapanjang, Kabupaten Gayo Lues";"ACEH";"24655";"Indonesia";"";"4.0178068";"97.2851982";"https://maps.google.com/?cid=0x0:0xdfcddd08dd537a81"
"toko bangunan";"Toko Perlengkapan Rumah";"Toko bangunan pacific baru";"62Q4+HH4, Jl. PT. KKA, Paloh Lada, Kec. Dewantara, Kabupaten Aceh Utara, Aceh";"Kabupaten Aceh Utara, Aceh";"ACEH";"";"Indonesia";" 081321534311";"5.23888";"97.00644";"https://maps.google.com/?cid=0x0:0x7f761c0e1a87072"
"toko bangunan";"Masjid";"Masjid PENGGULU TANGKUH";"FRXC+7QW, Tenembak Lang Lang, Kec. Deleng Pokhkisen, Kabupaten Aceh Tenggara, Aceh 24651";"Tenembak Lang Lang, Kec. Deleng Pokhkisen, Kabupaten Aceh Tenggara";"ACEH";"24651";"Indonesia";"";"3.4971119";"97.8222096";"https://maps.google.com/?cid=0x0:0x19cdfcd4cd894f6"
"toko bangunan";"toko bangunan";"Ud. Adzkiya";"FRXC+888, Tenembak Lang Lang, Kec. Deleng Pokhkisen, Kabupaten Aceh Tenggara, Aceh 24651";"Tenembak Lang Lang, Kec. Deleng Pokhkisen, Kabupaten Aceh Tenggara";"ACEH";"24651";"Indonesia";"";"3.4982801";"97.8208333";"https://maps.google.com/?cid=0x0:0xd17637bed4bdc862"
"toko bangunan";"toko bangunan";"Aceh";"";"Aceh";"ACEH";"";"Indonesia";"";"4.695135";"96.7493993";"https://maps.google.com/?cid=0x0:0x1039d80b220ca60"
"toko bangunan";"Toko Bahan Bangunan";"TB Sinar Bintang";"Uteun Geulinggang, Kec. Dewantara, Kabupaten Aceh Utara, Aceh";"Kabupaten Aceh Utara, Aceh";"ACEH";"";"Indonesia";" 08154053540";"5.2409094";"97.013557";"https://maps.google.com/?cid=0x0:0x291daba9e0025103"
"toko bangunan";"Toko Bahan Bangunan";"TOKO BESI BINTANG BANGUNAN";"Jl. Pocut Baren No.29, Keuramat, Kec. Kuta Alam, Kota Banda Aceh, Aceh 23126";"Keuramat, Kec. Kuta Alam, Kota Banda Aceh";"ACEH";"23126";"Indonesia";" 081360031288";"5.5617508";"95.3240203";"https://maps.google.com/?cid=0x0:0xa98c67e001462b53"
"toko bangunan";"Toko Bahan Bangunan";"SULTAN JAYA(TOKO BANGUNAN)";"Jl. Bandara Sultan Iskandar Muda, Ajee Cut, Kec. Ingin Jaya, Kabupaten Aceh Besar, Aceh 24411";"Ajee Cut, Kec. Ingin Jaya, Kabupaten Aceh Besar";"ACEH";"24411";"Indonesia";" 085167599087";"5.510563";"95.3880613";"https://maps.google.com/?cid=0x0:0xaa81de74e089cb09"
"toko bangunan";"Toko Perlengkapan Rumah";"Toko bangunan pacific baru";"62Q4+HH4, Jl. PT. KKA, Paloh Lada, Kec. Dewantara, Kabupaten Aceh Utara, Aceh";"Kabupaten Aceh Utara, Aceh";"ACEH";"";"Indonesia";" 081321534311";"5.23888";"97.00644";"https://maps.google.com/?cid=0x0:0x7f761c0e1a87072"
"toko bangunan";"Toko Bahan Bangunan";"Toko Bangunan RAHMAT ABADI SP. DAMA";"474Q+WRJ, AH25, Ulee Tanoh, Kec. Tanah Pasir, Kabupaten Aceh Utara, Aceh 24382";"AH25, Ulee Tanoh, Kec. Tanah Pasir, Kabupaten Aceh Utara";"ACEH";"24382";"Indonesia";" 08154053540";"5.1073326";"97.2895105";"https://maps.google.com/?cid=0x0:0x9665f8257bbbe8c2"
"toko bangunan";"Toko Bahan Bangunan";"TOKO DAMAI INDAH BANGUNAN";"G7MH+249, Payatieng, Kec. Peukan Bada, Kabupaten Aceh Besar, Aceh";"Kabupaten Aceh Besar, Aceh";"ACEH";"";"Indonesia";" 085364882222";"5.5325367";"95.2778479";"https://maps.google.com/?cid=0x0:0xb23e4cea3a78f7c"
"toko bangunan";"Toko Bahan Bangunan";"Toko bangunan / toko bahan bangunan";"H9J7+PM3, Rukoh, Kec. Syiah Kuala, Kota Banda Aceh, Aceh";"Kota Banda Aceh, Aceh";"ACEH";"";"Indonesia";"";"5.581784";"95.3641847";"https://maps.google.com/?cid=0x0:0xca53fca6947362de"
"toko bangunan";"Toko Bahan Bangunan";"Zahra Bangunan";"Jl. Dr. Mr. Mohd Hasan, Batoh, Kec. Lueng Bata, Kota Banda Aceh, Aceh 23127";"Batoh, Kec. Lueng Bata, Kota Banda Aceh";"ACEH";"23127";"Indonesia";" 0811111703";"5.5425651";"95.3305542";"https://maps.google.com/?cid=0x0:0x9785538145c2ac3"
"toko bangunan";"Toko Bahan Bangunan";"Toko bangunan HIKMAH Wak Neh";"Cot Geundreut, Kec. Blang Bintang, Kabupaten Aceh Besar, Aceh 23360";"Kec. Blang Bintang, Kabupaten Aceh Besar";"ACEH";"23360";"Indonesia";" 085260310113";"5.5095699";"95.402056";"https://maps.google.com/?cid=0x0:0x2d9a05a2cf12b3e7"
"toko bangunan";"Toko Bahan Bangunan";"Zahara Jaya";"H838+29W, Kp. Baru, Kec. Baiturrahman, Kota Banda Aceh, Aceh 23116";"Kp. Baru, Kec. Baiturrahman, Kota Banda Aceh";"ACEH";"23116";"Indonesia";" 065123718";"5.5526101";"95.3159489";"https://maps.google.com/?cid=0x0:0xef4ab7341c24f4b0"
"toko bangunan";"Toko Bahan Bangunan";"Toko Bangunan TABRIZ JAYA";"59Q9+CGJ, Matang Panyang, Kec. Seunuddon, Kabupaten Aceh Utara, Aceh";"Kabupaten Aceh Utara, Aceh";"ACEH";"";"Indonesia";" 081212122530";"5.1885877";"97.3687712";"https://maps.google.com/?cid=0x0:0x38bf78f385eb8ef2"
"toko bangunan";"Toko Bahan Bangunan";"Toko Bangunan Pacific Jaya";"62R4+5VM, Paloh Lada, Kec. Dewantara, Kabupaten Aceh Utara, Aceh";"Kabupaten Aceh Utara, Aceh";"ACEH";"";"Indonesia";" 08154053540";"5.2404522";"97.0071786";"https://maps.google.com/?cid=0x0:0xb01dad4468be43c1"
"toko bangunan";"toko bangunan";"Aceh 24652";"Kabupaten Aceh Tenggara, Aceh";"Kabupaten Aceh Tenggara, Aceh";"ACEH";"";"Indonesia";"";"3.6699926";"97.654811";"https://maps.google.com/?cid=0x0:0xf321f2dc3f3b9295"
"toko bangunan";"Toko";"Toko Helindo Abadi";"Alue Sungai Pinang, Kec. Jeumpa, Kabupaten Aceh Barat Daya, Aceh 23764";"Kec. Jeumpa, Kabupaten Aceh Barat Daya";"ACEH";"23764";"Indonesia";"";"3.7760506";"96.8178029";"https://maps.google.com/?cid=0x0:0x36da571bc959c426"
"toko bangunan";"toko bangunan";"Ud. Adzkiya";"FRXC+888, Tenembak Lang Lang, Kec. Deleng Pokhkisen, Kabupaten Aceh Tenggara, Aceh 24651";"Tenembak Lang Lang, Kec. Deleng Pokhkisen, Kabupaten Aceh Tenggara";"ACEH";"24651";"Indonesia";"";"3.4982801";"97.8208333";"https://maps.google.com/?cid=0x0:0xd17637bed4bdc862"
"toko bangunan";"Toko Bahan Bangunan";"TB Sinar Bintang";"Uteun Geulinggang, Kec. Dewantara, Kabupaten Aceh Utara, Aceh";"Kabupaten Aceh Utara, Aceh";"ACEH";"";"Indonesia";" 08154053540";"5.2409094";"97.013557";"https://maps.google.com/?cid=0x0:0x291daba9e0025103"
"toko bangunan";"Toko Bahan Bangunan";"TOKO BESI BINTANG BANGUNAN";"Jl. Pocut Baren No.29, Keuramat, Kec. Kuta Alam, Kota Banda Aceh, Aceh 23126";"Keuramat, Kec. Kuta Alam, Kota Banda Aceh";"ACEH";"23126";"Indonesia";" 081360031288";"5.5617508";"95.3240203";"https://maps.google.com/?cid=0x0:0xa98c67e001462b53"
"toko bangunan";"Toko Bahan Bangunan";"TOKO DAMAI INDAH BANGUNAN";"G7MH+249, Payatieng, Kec. Peukan Bada, Kabupaten Aceh Besar, Aceh";"Kabupaten Aceh Besar, Aceh";"ACEH";"";"Indonesia";" 085364882222";"5.5325367";"95.2778479";"https://maps.google.com/?cid=0x0:0xb23e4cea3a78f7c"
"toko bangunan";"Toko Perlengkapan Rumah";"Toko bangunan pacific baru";"62Q4+HH4, Jl. PT. KKA, Paloh Lada, Kec. Dewantara, Kabupaten Aceh Utara, Aceh";"Kabupaten Aceh Utara, Aceh";"ACEH";"";"Indonesia";" 081321534311";"5.23888";"97.00644";"https://maps.google.com/?cid=0x0:0x7f761c0e1a87072"
"toko bangunan";"Toko Bahan Bangunan";"Toko Bangunan RAHMAT ABADI SP. DAMA";"474Q+WRJ, AH25, Ulee Tanoh, Kec. Tanah Pasir, Kabupaten Aceh Utara, Aceh 24382";"AH25, Ulee Tanoh, Kec. Tanah Pasir, Kabupaten Aceh Utara";"ACEH";"24382";"Indonesia";" 08154053540";"5.1073326";"97.2895105";"https://maps.google.com/?cid=0x0:0x9665f8257bbbe8c2"
"toko bangunan";"Toko Bahan Bangunan";"Zahra Bangunan";"Jl. Dr. Mr. Mohd Hasan, Batoh, Kec. Lueng Bata, Kota Banda Aceh, Aceh 23127";"Batoh, Kec. Lueng Bata, Kota Banda Aceh";"ACEH";"23127";"Indonesia";" 0811111703";"5.5425651";"95.3305542";"https://maps.google.com/?cid=0x0:0x9785538145c2ac3"
"toko bangunan";"Toko bahan makanan";"UD. Aisyah";"VPCC+JX, Alue Jerjak, Kec. Babah Rot, Kabupaten Aceh Barat Daya, Aceh";"Kabupaten Aceh Barat Daya, Aceh";"ACEH";"";"Indonesia";" 081364240904";"3.8715182";"96.7224057";"https://maps.google.com/?cid=0x0:0xdee7af3ad3529c10"
"toko bangunan";"Toko Bahan Bangunan";"Toko bangunan HIKMAH Wak Neh";"Cot Geundreut, Kec. Blang Bintang, Kabupaten Aceh Besar, Aceh 23360";"Kec. Blang Bintang, Kabupaten Aceh Besar";"ACEH";"23360";"Indonesia";" 085260310113";"5.5095699";"95.402056";"https://maps.google.com/?cid=0x0:0x2d9a05a2cf12b3e7"
"toko bangunan";"Toko Bahan Bangunan";"Toko bangunan / toko bahan bangunan";"H9J7+PM3, Rukoh, Kec. Syiah Kuala, Kota Banda Aceh, Aceh";"Kota Banda Aceh, Aceh";"ACEH";"";"Indonesia";"";"5.581784";"95.3641847";"https://maps.google.com/?cid=0x0:0xca53fca6947362de"
"toko bangunan";"Toko Bahan Bangunan";"Toko Bangunan TABRIZ JAYA";"59Q9+CGJ, Matang Panyang, Kec. Seunuddon, Kabupaten Aceh Utara, Aceh";"Kabupaten Aceh Utara, Aceh";"ACEH";"";"Indonesia";" 081212122530";"5.1885877";"97.3687712";"https://maps.google.com/?cid=0x0:0x38bf78f385eb8ef2"
"toko bangunan";"Toko Bahan Bangunan";"Toko Sinar Bangunan";"Jl. Blangkejeren - Kutacane, Alas Merancar, Kec. Babussalam, Kabupaten Aceh Tenggara, Aceh 24651";"Alas Merancar, Kec. Babussalam, Kabupaten Aceh Tenggara";"ACEH";"24651";"Indonesia";" 081360194534";"3.505696";"97.805592";"https://maps.google.com/?cid=0x0:0x62b80c131958ab09"
"toko bangunan";"toko bangunan";"Aceh 24652";"Kabupaten Aceh Tenggara, Aceh";"Kabupaten Aceh Tenggara, Aceh";"ACEH";"";"Indonesia";"";"3.6699926";"97.654811";"https://maps.google.com/?cid=0x0:0xf321f2dc3f3b9295"
"toko bangunan";"Toko Perlengkapan Rumah";"Toko Harapan Baru Keramik";"Jl. Blangkejeren - Kutacane No.10, Kota Kutacane, Kec. Babussalam, Kabupaten Aceh Tenggara, Aceh 24651";"Kota Kutacane, Kec. Babussalam, Kabupaten Aceh Tenggara";"ACEH";"24651";"Indonesia";" 08111522228";"3.4875132";"97.8115114";"https://maps.google.com/?cid=0x0:0x67030dcadd253e8d"
"toko bangunan";"Toko Bahan Bangunan";"TOKO BANGUNAN HIDAYAH";"85RM+9FC, Padang Sikabu, Kec. Kaway XVI, Kabupaten Aceh Barat, Aceh 23681";"Padang Sikabu, Kec. Kaway XVI, Kabupaten Aceh Barat";"ACEH";"23681";"Indonesia";" 085260875358";"4.3409422";"96.1836455";"https://maps.google.com/?cid=0x0:0xd9810d90677391d4"
"toko bangunan";"Tujuan Wisata";"Ketambe Trek  Orangutan Explore";"Ketambe, Kec. Ketambe, Kabupaten Aceh Tenggara, Aceh 24652";"Kec. Ketambe, Kabupaten Aceh Tenggara";"ACEH";"24652";"Indonesia";" 085373818261";"3.6793105";"97.6597187";"https://maps.google.com/?cid=0x0:0x7711333e9bbb92b7"
"toko bangunan";"Taman";"Ketambe jungle trekking";"Jl. Blangkejeren - Kutacane No.km 32, Ketambe, Kec. Ketambe, Kabupaten Aceh Tenggara, Aceh 24652";"Ketambe, Kec. Ketambe, Kabupaten Aceh Tenggara";"ACEH";"24652";"Indonesia";" 082261010009";"3.6740885";"97.6615852";"https://maps.google.com/?cid=0x0:0x58c4d92206dc8635"
"toko bangunan";"Toko Perlengkapan Rumah";"Toko SH BANGUNAN";"Jl, Muka Sungai Kuruk, Kec. Seuruway, Kabupaten Aceh Tamiang, Aceh";"Kabupaten Aceh Tamiang, Aceh";"ACEH";"";"Indonesia";"";"4.3541556";"98.1853171";"https://maps.google.com/?cid=0x0:0x9851477dd1a1f493"
"toko bangunan";"Toko Bahan Bangunan";"Toko bangunan sinar utara";"95M6+RRW, Jl. Medan B. Aceh, Seuneubok Dalam Mesjid, Banda Aceh, Kabupaten Aceh Tamiang, Aceh 24472";"Jl. Medan B. Aceh, Seuneubok Dalam Mesjid, Banda Aceh, Kabupaten Aceh Tamiang";"ACEH";"24472";"Indonesia";" 087784554999";"4.3847402";"98.1627285";"https://maps.google.com/?cid=0x0:0x5ca1257abddb6f4e"
"toko bangunan";"Toko Perlengkapan Rumah";"Toko Mandiri Bangunan";"282R+QP4, JL. Tgk M. Luddin, Kuta Lintang, Kec. Blangkejeren, Kabupaten Gayo Lues, Aceh 24655";"JL. Tgk M. Luddin, Kuta Lintang, Kec. Blangkejeren, Kabupaten Gayo Lues";"ACEH";"24655";"Indonesia";" 0818674274";"4.0018778";"97.3418272";"https://maps.google.com/?cid=0x0:0xf1bbd819fbfd1554"
"toko bangunan";"Toko Perlengkapan Rumah";"Toko Bangunan Pandawa Lima";"FRMG+H5F, Simpang Empat, Kec. Lawe Bulan, Kabupaten Aceh Tenggara, Aceh 24651";"Simpang Empat, Kec. Lawe Bulan, Kabupaten Aceh Tenggara";"ACEH";"24651";"Indonesia";"";"3.4839302";"97.8254135";"https://maps.google.com/?cid=0x0:0x195639a521312653"
"toko bangunan";"Toko Bahan Bangunan";"Toko Bangunan Kaya Hatee";"Jl. Laksamana Malahayati No.Km. 30, Beurandeh, Kec. Mesjid Raya, Kabupaten Aceh Besar, Aceh 23381";"Beurandeh, Kec. Mesjid Raya, Kabupaten Aceh Besar";"ACEH";"23381";"Indonesia";" 087784554999";"5.5928677";"95.5073505";"https://maps.google.com/?cid=0x0:0xb9a59f2c2829801e"
"toko bangunan";"Toko Bahan Bangunan";"Toko Bangunan Umran";"Jl. Medan Banda Aceh No.63, Seumadam, Kec. Kejuruan Muda, Kabupaten Aceh Tamiang, Aceh 24474";"Seumadam, Kec. Kejuruan Muda, Kabupaten Aceh Tamiang";"ACEH";"24474";"Indonesia";" 08126476231";"4.1821682";"98.0517118";"https://maps.google.com/?cid=0x0:0xc1453692ad2b177f"
"toko bangunan";"Toko Bahan Bangunan";"SIGMA Toko Bangunan";"Gantung Geluni, Kec. Blangpegayon, Kabupaten Gayo Lues, Aceh 24653";"Kec. Blangpegayon, Kabupaten Gayo Lues";"ACEH";"24653";"Indonesia";" 085362353530";"3.9851952";"97.3183733";"https://maps.google.com/?cid=0x0:0x3f1d5d441b9a5b49"
"toko bangunan";"Toko Perlengkapan Rumah";"TOKO BESI DAN BAHAN BANGUNAN CAHAYA ABADI";"93XC+G3J, Jl. Lintas Sumatra, Tualang Baru, Kec. Manyak Payed, Kabupaten Aceh Tamiang, Aceh 24471";"Jl. Lintas Sumatra, Tualang Baru, Kec. Manyak Payed, Kabupaten Aceh Tamiang";"ACEH";"24471";"Indonesia";" 0818674274";"4.3988716";"98.0700961";"https://maps.google.com/?cid=0x0:0x351e338af5b61e09"
"toko bangunan";"Toko Bahan Bangunan";"Toko Sinar Bangunan";"Jl. Blangkejeren - Kutacane, Alas Merancar, Kec. Babussalam, Kabupaten Aceh Tenggara, Aceh 24651";"Alas Merancar, Kec. Babussalam, Kabupaten Aceh Tenggara";"ACEH";"24651";"Indonesia";" 081360194534";"3.505696";"97.805592";"https://maps.google.com/?cid=0x0:0x62b80c131958ab09"
"toko bangunan";"Toko Bahan Bangunan";"UD. Putra Alas";"Bambel Gabungan, Kec. Bambel, Kabupaten Aceh Tenggara, Aceh 24651";"Kec. Bambel, Kabupaten Aceh Tenggara";"ACEH";"24651";"Indonesia";" 082251536584";"3.4580077";"97.8302665";"https://maps.google.com/?cid=0x0:0xaec2fd01ded4e13b"
"toko bangunan";"toko bangunan";"Kec. Lawe Alas";"Kabupaten Aceh Tenggara, Aceh";"Kabupaten Aceh Tenggara, Aceh";"ACEH";"";"Indonesia";"";"3.4262923";"97.8310337";"https://maps.google.com/?cid=0x0:0x8c79164bdcdfbd2e"
"toko bangunan";"Toko Perlengkapan Rumah";"Toko Bangunan Pandawa Lima";"FRMG+H5F, Simpang Empat, Kec. Lawe Bulan, Kabupaten Aceh Tenggara, Aceh 24651";"Simpang Empat, Kec. Lawe Bulan, Kabupaten Aceh Tenggara";"ACEH";"24651";"Indonesia";"";"3.4839302";"97.8254135";"https://maps.google.com/?cid=0x0:0x195639a521312653"
"toko bangunan";"Toko Perlengkapan Rumah";"TOKO ALAT BANGUNAN NAJLA";"Jl. Marga Satwa No.Desa, Perapat Hilir, Kab, Southeast Aceh, Aceh 24651";"Perapat Hilir, Kab, Southeast Aceh";"ACEH";"24651";"Indonesia";"";"3.478036";"97.810492";"https://maps.google.com/?cid=0x0:0xa4076180a46bc977"
"toko bangunan";"Toko Perlengkapan Rumah";"Toko Harapan Baru Keramik";"Jl. Blangkejeren - Kutacane No.10, Kota Kutacane, Kec. Babussalam, Kabupaten Aceh Tenggara, Aceh 24651";"Kota Kutacane, Kec. Babussalam, Kabupaten Aceh Tenggara";"ACEH";"24651";"Indonesia";" 08111522228";"3.4875132";"97.8115114";"https://maps.google.com/?cid=0x0:0x67030dcadd253e8d"
"toko bangunan";"Toko Perlengkapan Rumah";"Toko UD BULEK kutacane";"FR6H+8CR, Jl. Kutacane-Tigabinanga, Bambel Gabungan, Kec. Klp. Gading, Kabupaten Aceh Tenggara, Aceh 24651";"Jl. Kutacane-Tigabinanga, Bambel Gabungan, Kec. Klp. Gading, Kabupaten Aceh Tenggara";"ACEH";"24651";"Indonesia";"";"3.4608744";"97.8285069";"https://maps.google.com/?cid=0x0:0xdb8b0462d5ac32a3"
"toko bangunan";"Toko Bahan Bangunan";"Ud semban";"FRQ8+MHC, Lawe Rutung, Kec. Lawe Bulan, Kabupaten Aceh Tenggara, Aceh 24651";"Lawe Rutung, Kec. Lawe Bulan, Kabupaten Aceh Tenggara";"ACEH";"24651";"Indonesia";"";"3.4891877";"97.8164006";"https://maps.google.com/?cid=0x0:0x47089266d151d260"
"toko bangunan";"Toko Bahan Bangunan";"Toko Besi Nabawi2";"depan alfamart, Jln.pajak pagi, Lawe Rutung, Kec. Lawe Bulan, Kabupaten Aceh Tenggara, Aceh 24651";"Jln.pajak pagi, Lawe Rutung, Kec. Lawe Bulan, Kabupaten Aceh Tenggara";"ACEH";"24651";"Indonesia";"";"3.4870822";"97.8135816";"https://maps.google.com/?cid=0x0:0xa2f72346d29994cf"
"toko bangunan";"Toko Bahan Bangunan";"Ud Alkautsar";"9RQQ+RG8, Lawe Tungkal, Tanoh Alas, Kabupaten Aceh Tenggara, Aceh 24671";"Lawe Tungkal, Tanoh Alas, Kabupaten Aceh Tenggara";"ACEH";"24671";"Indonesia";"";"3.3895484";"97.8388351";"https://maps.google.com/?cid=0x0:0x87e1a4c3d16bb19e"
"toko bangunan";"Toko Bahan Bangunan";"Toko bangunan LANGKAH RASEUKI";"Iemasen Ulee Kareng, Kec. Ulee Kareng, Kota Banda Aceh, Aceh";"Kota Banda Aceh, Aceh";"ACEH";"";"Indonesia";" 08154053540";"5.5537857";"95.3585289";"https://maps.google.com/?cid=0x0:0x7a74ce813294b78b"
"toko bangunan";"Toko";"UD. Pande Jaya";"FR56+V76, RT.Kutacane/RW.Ngkeran, Kuta Batu I, Lawe Alas, Southeast Aceh, Aceh 24651";"RT.Kutacane/RW.Ngkeran, Kuta Batu I, Lawe Alas, Southeast Aceh";"ACEH";"24651";"Indonesia";"";"3.4596724";"97.8106488";"https://maps.google.com/?cid=0x0:0x81fa01815682605f"
"toko bangunan";"Toko Bahan Bangunan";"Tunas Muda";"Jl.jend.Ahmad Yani No.2, Pulo Latong, Kec. Babussalam, Kabupaten Aceh Tenggara, Aceh 24651";"Pulo Latong, Kec. Babussalam, Kabupaten Aceh Tenggara";"ACEH";"24651";"Indonesia";"";"3.4818925";"97.8129579";"https://maps.google.com/?cid=0x0:0x5eaddb385346e5a2"
"toko bangunan";"Toko bahan makanan";"Toko Jotun Agara Warna";"Jl. Jend Ahmad Yani komplek ruko ABC No.18, Kota Kutacane, Kec. Babussalam, Kabupaten Aceh Tenggara, Aceh 24651";"Kota Kutacane, Kec. Babussalam, Kabupaten Aceh Tenggara";"ACEH";"24651";"Indonesia";" 081260049444";"3.4868713";"97.811434";"https://maps.google.com/?cid=0x0:0x4988d3201e8b79df"
"toko bangunan";"toko bangunan";"Kec. Lawe Bulan";"Kabupaten Aceh Tenggara, Aceh";"Kabupaten Aceh Tenggara, Aceh";"ACEH";"";"Indonesia";"";"3.4844337";"97.8239129";"https://maps.google.com/?cid=0x0:0x7c500fb0a4b9b413"
"toko bangunan";"Toko Perlengkapan Rumah";"Toko Bangunan Pandawa Lima";"FRMG+H5F, Simpang Empat, Kec. Lawe Bulan, Kabupaten Aceh Tenggara, Aceh 24651";"Simpang Empat, Kec. Lawe Bulan, Kabupaten Aceh Tenggara";"ACEH";"24651";"Indonesia";"";"3.4839302";"97.8254135";"https://maps.google.com/?cid=0x0:0x195639a521312653"
"toko bangunan";"Toko Bahan Bangunan";"Toko besi ARI JAWA";"FRP7+JPP, Lawe Rutung, Kec. Lawe Bulan, Kabupaten Aceh Tenggara, Aceh 24651";"Lawe Rutung, Kec. Lawe Bulan, Kabupaten Aceh Tenggara";"ACEH";"24651";"Indonesia";" 081263838057";"3.4865877";"97.8143307";"https://maps.google.com/?cid=0x0:0x7f4eb195649120ba"
"toko bangunan";"Toko Perlengkapan Rumah";"Toko Harapan Baru Keramik";"Jl. Blangkejeren - Kutacane No.10, Kota Kutacane, Kec. Babussalam, Kabupaten Aceh Tenggara, Aceh 24651";"Kota Kutacane, Kec. Babussalam, Kabupaten Aceh Tenggara";"ACEH";"24651";"Indonesia";" 08111522228";"3.4875132";"97.8115114";"https://maps.google.com/?cid=0x0:0x67030dcadd253e8d"
"toko bangunan";"Toko Bahan Bangunan";"Toko Sinar Bangunan";"Jl. Blangkejeren - Kutacane, Alas Merancar, Kec. Babussalam, Kabupaten Aceh Tenggara, Aceh 24651";"Alas Merancar, Kec. Babussalam, Kabupaten Aceh Tenggara";"ACEH";"24651";"Indonesia";" 081360194534";"3.505696";"97.805592";"https://maps.google.com/?cid=0x0:0x62b80c131958ab09"
"toko bangunan";"Toko Perlengkapan Rumah";"TOKO ALAT BANGUNAN NAJLA";"Jl. Marga Satwa No.Desa, Perapat Hilir, Kab, Southeast Aceh, Aceh 24651";"Perapat Hilir, Kab, Southeast Aceh";"ACEH";"24651";"Indonesia";"";"3.478036";"97.810492";"https://maps.google.com/?cid=0x0:0xa4076180a46bc977"
"toko bangunan";"Toko Bahan Bangunan";"Toko Besi Nabawi2";"depan alfamart, Jln.pajak pagi, Lawe Rutung, Kec. Lawe Bulan, Kabupaten Aceh Tenggara, Aceh 24651";"Jln.pajak pagi, Lawe Rutung, Kec. Lawe Bulan, Kabupaten Aceh Tenggara";"ACEH";"24651";"Indonesia";"";"3.4870822";"97.8135816";"https://maps.google.com/?cid=0x0:0xa2f72346d29994cf"
"toko bangunan";"Toko Perlengkapan Rumah";"Toko UD BULEK kutacane";"FR6H+8CR, Jl. Kutacane-Tigabinanga, Bambel Gabungan, Kec. Klp. Gading, Kabupaten Aceh Tenggara, Aceh 24651";"Jl. Kutacane-Tigabinanga, Bambel Gabungan, Kec. Klp. Gading, Kabupaten Aceh Tenggara";"ACEH";"24651";"Indonesia";"";"3.4608744";"97.8285069";"https://maps.google.com/?cid=0x0:0xdb8b0462d5ac32a3"
"toko bangunan";"Toko";"UD. HANDIKA  GERRY";"GR83+RMG, Lawe Bekung, Kec. Badar, Kabupaten Aceh Tenggara, Aceh 24651";"Lawe Bekung, Kec. Badar, Kabupaten Aceh Tenggara";"ACEH";"24651";"Indonesia";"";"3.5170529";"97.804215";"https://maps.google.com/?cid=0x0:0x9ab748d447c151d4"
"toko bangunan";"Toko Bahan Bangunan";""UD.Kuah Ate"";"FRW4+2CP, Batu Bulan Asli, Kec. Babussalam, Kabupaten Aceh Tenggara, Aceh 24651";"Batu Bulan Asli, Kec. Babussalam, Kabupaten Aceh Tenggara";"ACEH";"24651";"Indonesia";"";"3.4955845";"97.8056822";"https://maps.google.com/?cid=0x0:0x293640f701f99e23"
"toko bangunan";"Toko Bahan Bangunan";"Tunas Muda";"Jl.jend.Ahmad Yani No.2, Pulo Latong, Kec. Babussalam, Kabupaten Aceh Tenggara, Aceh 24651";"Pulo Latong, Kec. Babussalam, Kabupaten Aceh Tenggara";"ACEH";"24651";"Indonesia";"";"3.4818925";"97.8129579";"https://maps.google.com/?cid=0x0:0x5eaddb385346e5a2"
"toko bangunan";"Toko bahan makanan";"Toko Jotun Agara Warna";"Jl. Jend Ahmad Yani komplek ruko ABC No.18, Kota Kutacane, Kec. Babussalam, Kabupaten Aceh Tenggara, Aceh 24651";"Kota Kutacane, Kec. Babussalam, Kabupaten Aceh Tenggara";"ACEH";"24651";"Indonesia";" 081260049444";"3.4868713";"97.811434";"https://maps.google.com/?cid=0x0:0x4988d3201e8b79df"
"toko bangunan";"toko bangunan";"Kec. Lawe Sigala-Gala";"Kabupaten Aceh Tenggara, Aceh";"Kabupaten Aceh Tenggara, Aceh";"ACEH";"";"Indonesia";"";"3.3523562";"97.920238";"https://maps.google.com/?cid=0x0:0xcb5b41d286766187"
"toko bangunan";"Toko Bahan Bangunan";"UD. SELLA";"Lawe Deski Sabas, Kec. Babul Makmur, Kabupaten Aceh Tenggara, Aceh 24673";"Kec. Babul Makmur, Kabupaten Aceh Tenggara";"ACEH";"24673";"Indonesia";" 085297054443";"3.3148136";"97.9529359";"https://maps.google.com/?cid=0x0:0x71759b4359f9cb4a"
"toko bangunan";"Toko Perlengkapan Rumah";"Anugerah Jaya";"9W39+7X4, Lawe Sigala Tim., Kec. Lawe Sigala-Gala, Kabupaten Aceh Tenggara, Aceh 24673";"Lawe Sigala Tim., Kec. Lawe Sigala-Gala, Kabupaten Aceh Tenggara";"ACEH";"24673";"Indonesia";"";"3.3533158";"97.9198264";"https://maps.google.com/?cid=0x0:0x1b39a007fa63286c"
"toko bangunan";"Toko Bahan Bangunan";"Toko Hans Barokah";"8WCX+79J, Jl. Kutacane-Tigabinanga, Sabilussalam, Kec. Lawe Sigala-Gala, Kabupaten Aceh Tenggara, Aceh 24673";"Jl. Kutacane-Tigabinanga, Sabilussalam, Kec. Lawe Sigala-Gala, Kabupaten Aceh Tenggara";"ACEH";"24673";"Indonesia";"";"3.320709";"97.9483754";"https://maps.google.com/?cid=0x0:0x684867b281f03afe"
"toko bangunan";"Bengkel Bongkar Pasang Mesin";"Bengkel las arios";"8WWF+HP7, Tanah Baru, Kec. Lawe Sigala-Gala, Kabupaten Aceh Tenggara, Aceh 24673";"Tanah Baru, Kec. Lawe Sigala-Gala, Kabupaten Aceh Tenggara";"ACEH";"24673";"Indonesia";"";"3.3467892";"97.9238424";"https://maps.google.com/?cid=0x0:0x19920e6005229e0"
"toko bangunan";"Toko Bahan Bangunan";"Sabilussalam";"8WCX+6C5, Jln. Kutacane-lawe pakam, Sabilussalam, Kec. Babul Makmur, Kabupaten Aceh Tenggara";"Kabupaten Aceh Tenggara, Aceh";"ACEH";"";"Indonesia";"";"3.3205243";"97.9485997";"https://maps.google.com/?cid=0x0:0xd797c9e0bac0a336"
"toko bangunan";"Toko bahan makanan";"Ud.toserba intan";"7XX7+JFJ, Jl. Kutacane, Pulo Sanggar, Kec. Babussalam, Kabupaten Aceh Tenggara, Aceh 24673";"Jl. Kutacane, Pulo Sanggar, Kec. Babussalam, Kabupaten Aceh Tenggara";"ACEH";"24673";"Indonesia";" 081288044241";"3.2990984";"97.9636348";"https://maps.google.com/?cid=0x0:0xe6f18e113e01e985"
"toko bangunan";"Toko Bahan Bangunan";"UD.ZUNANDA";"9VXW+C2M, Simpang Semadam, Kec. Semadam, Kabupaten Aceh Tenggara, Aceh 24671";"Simpang Semadam, Kec. Semadam, Kabupaten Aceh Tenggara";"ACEH";"24671";"Indonesia";"";"3.3985922";"97.8950455";"https://maps.google.com/?cid=0x0:0x7d8807f8f52b4aeb"
"toko bangunan";"Toko Perlengkapan Rumah";"Ud Harapan Baru";"Simpang Semadam, Kec. Semadam, Kabupaten Aceh Tenggara, Aceh 24671";"Kec. Semadam, Kabupaten Aceh Tenggara";"ACEH";"24671";"Indonesia";" 082362103000";"3.4017715";"97.8989741";"https://maps.google.com/?cid=0x0:0x49ac71f26f7ea112"
"toko bangunan";"Toko Pertanian";"Wicaksana Tani";"8WHV+5JR, Jl. Kutacane-Tigabinanga, Lawe Loning Gab, Kec. Lawe Sigala-Gala, Kabupaten Aceh Tenggara, Aceh 24673";"Jl. Kutacane-Tigabinanga, Lawe Loning Gab, Kec. Lawe Sigala-Gala, Kabupaten Aceh Tenggara";"ACEH";"24673";"Indonesia";"";"3.3279883";"97.9440208";"https://maps.google.com/?cid=0x0:0xcdfe34b8ac166ebe"
"toko bangunan";"Grosir Barang Kelontong";"Bontot Sehatku";"Lawe Mantik, Kec. Babul Makmur, Kabupaten Aceh Tenggara, Aceh 24673";"Kec. Babul Makmur, Kabupaten Aceh Tenggara";"ACEH";"24673";"Indonesia";" 088263808937";"3.3027382";"97.9577749";"https://maps.google.com/?cid=0x0:0xd489293949e1a553"
"toko bangunan";"Toko Bahan Bangunan";"UD RIVANA";"CV9R+6QX, Amaliah, Kec. Bukit Tusam, Kabupaten Aceh Tenggara, Aceh 24671";"Amaliah, Kec. Bukit Tusam, Kabupaten Aceh Tenggara";"ACEH";"24671";"Indonesia";"";"3.4181237";"97.8919771";"https://maps.google.com/?cid=0x0:0x2bf0e4da9afaa0fc"
"toko bangunan";"Pom bensin/SPBU";"SPBU Lawe Deski 14.246.481";"8X92+Q3C, Jl. Kutacane-Tigabinanga, Sabilussalam, Kec. Babul Makmur, Kabupaten Aceh Tenggara, Aceh 24673";"Jl. Kutacane-Tigabinanga, Sabilussalam, Kec. Babul Makmur, Kabupaten Aceh Tenggara";"ACEH";"24673";"Indonesia";"";"3.3194458";"97.9501316";"https://maps.google.com/?cid=0x0:0xa9a2e45a423b0f38"
"toko bangunan";"toko bangunan";"Pencetakan batako";"";"";"ACEH";"";"Indonesia";" 085275504954";"3.3380285";"97.617301";"https://maps.google.com/?cid=0x0:0x631311e8e1c2e38d"
"toko bangunan";"Toko Bahan Bangunan";"Toko besi ARI JAWA";"FRP7+JPP, Lawe Rutung, Kec. Lawe Bulan, Kabupaten Aceh Tenggara, Aceh 24651";"Lawe Rutung, Kec. Lawe Bulan, Kabupaten Aceh Tenggara";"ACEH";"24651";"Indonesia";" 081263838057";"3.4865877";"97.8143307";"https://maps.google.com/?cid=0x0:0x7f4eb195649120ba"
"toko bangunan";"Toko Bahan Bangunan";"Toko Besi Nabawi2";"depan alfamart, Jln.pajak pagi, Lawe Rutung, Kec. Lawe Bulan, Kabupaten Aceh Tenggara, Aceh 24651";"Jln.pajak pagi, Lawe Rutung, Kec. Lawe Bulan, Kabupaten Aceh Tenggara";"ACEH";"24651";"Indonesia";"";"3.4870822";"97.8135816";"https://maps.google.com/?cid=0x0:0xa2f72346d29994cf"
"toko bangunan";"Toko Bahan Bangunan";"Toko Sinar Bangunan";"Jl. Blangkejeren - Kutacane, Alas Merancar, Kec. Babussalam, Kabupaten Aceh Tenggara, Aceh 24651";"Alas Merancar, Kec. Babussalam, Kabupaten Aceh Tenggara";"ACEH";"24651";"Indonesia";" 081360194534";"3.505696";"97.805592";"https://maps.google.com/?cid=0x0:0x62b80c131958ab09"
"toko bangunan";"Toko Ponsel";"1001 PONSEL";"Trty.Pedi, Pulonas, Kec. Babussalam, Kabupaten Aceh Tenggara, Aceh 24651";"Pulonas, Kec. Babussalam, Kabupaten Aceh Tenggara";"ACEH";"24651";"Indonesia";" 082168441638";"3.4927301";"97.8081187";"https://maps.google.com/?cid=0x0:0x3efe533f70e48f35"
"toko bangunan";"Toko Elektronik";"1001 ponsel";"Bacang lade, Kota Kutacane, Kec. Babussalam, Kabupaten Aceh Tenggara, Aceh 24651";"Kota Kutacane, Kec. Babussalam, Kabupaten Aceh Tenggara";"ACEH";"24651";"Indonesia";" 085358917263";"3.4873886";"97.8129855";"https://maps.google.com/?cid=0x0:0x46e432bd1719b386"
"toko bangunan";"toko bangunan";"Kec. Lauser";"Kabupaten Aceh Tenggara, Aceh";"Kabupaten Aceh Tenggara, Aceh";"ACEH";"";"Indonesia";"";"3.2262868";"97.9151378";"https://maps.google.com/?cid=0x0:0x3cb4ab8d5843e495"
"toko bangunan";"Sekolah";"UD. RIDHO";"Jl. Kutacane, Tanoh Alas, Kec. Babul Makmur, Kabupaten Aceh Tenggara, Aceh 24673";"Tanoh Alas, Kec. Babul Makmur, Kabupaten Aceh Tenggara";"ACEH";"24673";"Indonesia";" 083869524663";"3.2873604";"97.9789446";"https://maps.google.com/?cid=0x0:0xaf4f4e8b5a2edcfc"
"toko bangunan";"Toko Bahan Bangunan";"Toko Bangunan Alue Seuribe";"Jl. Medan - Banda Aceh lama No.Km. 272, Panggoi, Kec. Muara Dua, Kota Lhokseumawe, Aceh 24352";"Panggoi, Kec. Muara Dua, Kota Lhokseumawe";"ACEH";"24352";"Indonesia";" 082227277608";"5.1885205";"97.1197355";"https://maps.google.com/?cid=0x0:0xcb7127abb6c895d3"
"toko bangunan";"Toko Pakaian";"Leuser - Rei Store Cibubur";"Alter, no, Jl. Alternatif Cibubur No.12, RT.003/RW.018, Jatisampurna, Kec. Jatisampurna, Kota Bks, Jawa Barat 16454";"no, Jl. Alternatif Cibubur No.12, RT.003/RW.018, Jatisampurna, Kec. Jatisampurna, Kota Bks";"ACEH";"16454";"Indonesia";" 02184599600";"-6.3752897";"106.9095253";"https://maps.google.com/?cid=0x0:0x4862256164a8cf86"
"toko bangunan";"Toko Bahan Bangunan";"Kurnia Jaya";"Jl. Raya Tajur No.120, RT.01/RW.06, Pakuan, Kec. Bogor Sel., Kota Bogor, Jawa Barat 16134";"RT.01/RW.06, Pakuan, Kec. Bogor Sel., Kota Bogor";"ACEH";"16134";"Indonesia";" 0251343968";"-6.6352896";"106.8273024";"https://maps.google.com/?cid=0x0:0xbe82681ce48e3c78"
"toko bangunan";"Toko Bahan Bangunan";"KURNIA BARU";"Jl. Brigjen Saptadji Hadiprawira No.158, RT.01/RW.09, Cilendek Bar., Kec. Bogor Bar., Kota Bogor, Jawa Barat 16112";"RT.01/RW.09, Cilendek Bar., Kec. Bogor Bar., Kota Bogor";"ACEH";"16112";"Indonesia";" 08988291218";"-6.5682298";"106.7656792";"https://maps.google.com/?cid=0x0:0xde1bb0d9cd558949"
"toko bangunan";"Toko Bahan Bangunan";"UD.ZUNANDA";"9VXW+C2M, Simpang Semadam, Kec. Semadam, Kabupaten Aceh Tenggara, Aceh 24671";"Simpang Semadam, Kec. Semadam, Kabupaten Aceh Tenggara";"ACEH";"24671";"Indonesia";"";"3.3985922";"97.8950455";"https://maps.google.com/?cid=0x0:0x7d8807f8f52b4aeb"
"toko bangunan";"Toko Perlengkapan Rumah";"Ud Harapan Baru";"Simpang Semadam, Kec. Semadam, Kabupaten Aceh Tenggara, Aceh 24671";"Kec. Semadam, Kabupaten Aceh Tenggara";"ACEH";"24671";"Indonesia";" 082362103000";"3.4017715";"97.8989741";"https://maps.google.com/?cid=0x0:0x49ac71f26f7ea112"
"toko bangunan";"toko bangunan";"Aceh 24678";"Kabupaten Aceh Tenggara, Aceh";"Kabupaten Aceh Tenggara, Aceh";"ACEH";"";"Indonesia";"";"3.3820045";"97.9211555";"https://maps.google.com/?cid=0x0:0x8613dd45575158fa"
"toko bangunan";"toko bangunan";"Toko SEMADAM KERAMIK";"CV2X+RM7, Jl. Kutacane, Simpang Semadam, Kec. Semadam, Kabupaten Aceh Tenggara, Aceh 24671";"Jl. Kutacane, Simpang Semadam, Kec. Semadam, Kabupaten Aceh Tenggara";"ACEH";"24671";"Indonesia";"";"3.4020464";"97.8991597";"https://maps.google.com/?cid=0x0:0x26b2b61f2d7825a5"
"toko bangunan";"Toko Bahan Bangunan";"Toko Sinar Bangunan";"Jl. Blangkejeren - Kutacane, Alas Merancar, Kec. Babussalam, Kabupaten Aceh Tenggara, Aceh 24651";"Alas Merancar, Kec. Babussalam, Kabupaten Aceh Tenggara";"ACEH";"24651";"Indonesia";" 081360194534";"3.505696";"97.805592";"https://maps.google.com/?cid=0x0:0x62b80c131958ab09"
"toko bangunan";"toko bangunan";"Aceh 24661";"Kabupaten Aceh Tenggara, Aceh";"Kabupaten Aceh Tenggara, Aceh";"ACEH";"";"Indonesia";"";"3.3088666";"97.6982272";"https://maps.google.com/?cid=0x0:0x3c66f885072251c8"
"toko bangunan";"Toko Bahan Bangunan";"Toko Sinar Bangunan";"Jl. Blangkejeren - Kutacane, Alas Merancar, Kec. Babussalam, Kabupaten Aceh Tenggara, Aceh 24651";"Alas Merancar, Kec. Babussalam, Kabupaten Aceh Tenggara";"ACEH";"24651";"Indonesia";" 081360194534";"3.505696";"97.805592";"https://maps.google.com/?cid=0x0:0x62b80c131958ab09"
"toko bangunan";"Pusat Perbelanjaan";"UD.hanif bangunan";"4734+V2W, Ampa Kolak, Kec. Rikit Gaib, Kabupaten Gayo Lues, Aceh 24661";"Ampa Kolak, Kec. Rikit Gaib, Kabupaten Gayo Lues";"ACEH";"24661";"Indonesia";" 082298920035";"4.1047722";"97.2550933";"https://maps.google.com/?cid=0x0:0x1c6ebf78c8573664"
"toko bangunan";"Toko Bahan Bangunan";"UD. Putra Alas";"Bambel Gabungan, Kec. Bambel, Kabupaten Aceh Tenggara, Aceh 24651";"Kec. Bambel, Kabupaten Aceh Tenggara";"ACEH";"24651";"Indonesia";" 082251536584";"3.4580077";"97.8302665";"https://maps.google.com/?cid=0x0:0xaec2fd01ded4e13b"
"toko bangunan";"Toko Perlengkapan Rumah";"Toko Mandiri Bangunan";"282R+QP4, JL. Tgk M. Luddin, Kuta Lintang, Kec. Blangkejeren, Kabupaten Gayo Lues, Aceh 24655";"JL. Tgk M. Luddin, Kuta Lintang, Kec. Blangkejeren, Kabupaten Gayo Lues";"ACEH";"24655";"Indonesia";" 0818674274";"4.0018778";"97.3418272";"https://maps.google.com/?cid=0x0:0xf1bbd819fbfd1554"
"toko bangunan";"Toko Bahan Bangunan";"UD. Ahmad Rafif";"9V86+72J, Titi Mas, Kec. Babul Rahman, Kabupaten Aceh Tenggara, Aceh 24562";"Titi Mas, Kec. Babul Rahman, Kabupaten Aceh Tenggara";"ACEH";"24562";"Indonesia";" 085358320324";"3.3655017";"97.860937";"https://maps.google.com/?cid=0x0:0x60c6bcdce40d0d07"
"toko bangunan";"Toko Perlengkapan Rumah";"Toko Harapan Baru Keramik";"Jl. Blangkejeren - Kutacane No.10, Kota Kutacane, Kec. Babussalam, Kabupaten Aceh Tenggara, Aceh 24651";"Kota Kutacane, Kec. Babussalam, Kabupaten Aceh Tenggara";"ACEH";"24651";"Indonesia";" 08111522228";"3.4875132";"97.8115114";"https://maps.google.com/?cid=0x0:0x67030dcadd253e8d"
"toko bangunan";"Toko Perlengkapan Rumah";"Toko Bangunan Pandawa Lima";"FRMG+H5F, Simpang Empat, Kec. Lawe Bulan, Kabupaten Aceh Tenggara, Aceh 24651";"Simpang Empat, Kec. Lawe Bulan, Kabupaten Aceh Tenggara";"ACEH";"24651";"Indonesia";"";"3.4839302";"97.8254135";"https://maps.google.com/?cid=0x0:0x195639a521312653"
"toko bangunan";"Toko Perlengkapan Rumah";"TOKO JIHAN";"46V5+GP9, Jl. Lintas Takengon - Blangkejeren, Cane Baru, Kec. Pantan Cuaca, Kabupaten Gayo Lues, Aceh 24661";"Jl. Lintas Takengon - Blangkejeren, Cane Baru, Kec. Pantan Cuaca, Kabupaten Gayo Lues";"ACEH";"24661";"Indonesia";"";"4.14378";"97.209362";"https://maps.google.com/?cid=0x0:0x8a162739da787c4c"
"toko bangunan";"Toko Bahan Bangunan";"Toko besi ARI JAWA";"FRP7+JPP, Lawe Rutung, Kec. Lawe Bulan, Kabupaten Aceh Tenggara, Aceh 24651";"Lawe Rutung, Kec. Lawe Bulan, Kabupaten Aceh Tenggara";"ACEH";"24651";"Indonesia";" 081263838057";"3.4865877";"97.8143307";"https://maps.google.com/?cid=0x0:0x7f4eb195649120ba"
"toko bangunan";"Toko Perlengkapan Rumah";"TOKO ALAT BANGUNAN NAJLA";"Jl. Marga Satwa No.Desa, Perapat Hilir, Kab, Southeast Aceh, Aceh 24651";"Perapat Hilir, Kab, Southeast Aceh";"ACEH";"24651";"Indonesia";"";"3.478036";"97.810492";"https://maps.google.com/?cid=0x0:0xa4076180a46bc977"
"toko bangunan";"Toko Bahan Bangunan";"UD.Maulida mandiri";"9VG2+8F8, Salim Pinim, Tanoh Alas, Kabupaten Aceh Tenggara, Aceh 24671";"Salim Pinim, Tanoh Alas, Kabupaten Aceh Tenggara";"ACEH";"24671";"Indonesia";" 085296019972";"3.3759465";"97.8522351";"https://maps.google.com/?cid=0x0:0xe92c4457f7694c91"
"toko bangunan";"Toko Bahan Bangunan";"Ud Alkautsar";"9RQQ+RG8, Lawe Tungkal, Tanoh Alas, Kabupaten Aceh Tenggara, Aceh 24671";"Lawe Tungkal, Tanoh Alas, Kabupaten Aceh Tenggara";"ACEH";"24671";"Indonesia";"";"3.3895484";"97.8388351";"https://maps.google.com/?cid=0x0:0x87e1a4c3d16bb19e"
"toko bangunan";"Toko Bahan Bangunan";"UD. SELLA";"Lawe Deski Sabas, Kec. Babul Makmur, Kabupaten Aceh Tenggara, Aceh 24673";"Kec. Babul Makmur, Kabupaten Aceh Tenggara";"ACEH";"24673";"Indonesia";" 085297054443";"3.3148136";"97.9529359";"https://maps.google.com/?cid=0x0:0x71759b4359f9cb4a"
"toko bangunan";"Sekolah";"UD. RIDHO";"Jl. Kutacane, Tanoh Alas, Kec. Babul Makmur, Kabupaten Aceh Tenggara, Aceh 24673";"Tanoh Alas, Kec. Babul Makmur, Kabupaten Aceh Tenggara";"ACEH";"24673";"Indonesia";" 083869524663";"3.2873604";"97.9789446";"https://maps.google.com/?cid=0x0:0xaf4f4e8b5a2edcfc"
"toko bangunan";"toko bangunan";"Aceh 24673";"Kabupaten Aceh Tenggara, Aceh";"Kabupaten Aceh Tenggara, Aceh";"ACEH";"";"Indonesia";"";"3.0291759";"97.8286368";"https://maps.google.com/?cid=0x0:0x9e7ae9b803d7455"
"toko bangunan";"Toko Bahan Bangunan";"UD. SELLA";"Lawe Deski Sabas, Kec. Babul Makmur, Kabupaten Aceh Tenggara, Aceh 24673";"Kec. Babul Makmur, Kabupaten Aceh Tenggara";"ACEH";"24673";"Indonesia";" 085297054443";"3.3148136";"97.9529359";"https://maps.google.com/?cid=0x0:0x71759b4359f9cb4a"
"toko bangunan";"Toko bahan makanan";"Ud.toserba intan";"7XX7+JFJ, Jl. Kutacane, Pulo Sanggar, Kec. Babussalam, Kabupaten Aceh Tenggara, Aceh 24673";"Jl. Kutacane, Pulo Sanggar, Kec. Babussalam, Kabupaten Aceh Tenggara";"ACEH";"24673";"Indonesia";" 081288044241";"3.2990984";"97.9636348";"https://maps.google.com/?cid=0x0:0xe6f18e113e01e985"
"toko bangunan";"Toko Perlengkapan Rumah";"Anugerah Jaya";"9W39+7X4, Lawe Sigala Tim., Kec. Lawe Sigala-Gala, Kabupaten Aceh Tenggara, Aceh 24673";"Lawe Sigala Tim., Kec. Lawe Sigala-Gala, Kabupaten Aceh Tenggara";"ACEH";"24673";"Indonesia";"";"3.3533158";"97.9198264";"https://maps.google.com/?cid=0x0:0x1b39a007fa63286c"
"toko bangunan";"Toko Bahan Bangunan";"UD. Putra Alas";"Bambel Gabungan, Kec. Bambel, Kabupaten Aceh Tenggara, Aceh 24651";"Kec. Bambel, Kabupaten Aceh Tenggara";"ACEH";"24651";"Indonesia";" 082251536584";"3.4580077";"97.8302665";"https://maps.google.com/?cid=0x0:0xaec2fd01ded4e13b"
"toko bangunan";"Pusat Perbelanjaan";"UD.hanif bangunan";"4734+V2W, Ampa Kolak, Kec. Rikit Gaib, Kabupaten Gayo Lues, Aceh 24661";"Ampa Kolak, Kec. Rikit Gaib, Kabupaten Gayo Lues";"ACEH";"24661";"Indonesia";" 082298920035";"4.1047722";"97.2550933";"https://maps.google.com/?cid=0x0:0x1c6ebf78c8573664"
"toko bangunan";"Toko Perlengkapan Rumah";"Toko Mandiri Bangunan";"282R+QP4, JL. Tgk M. Luddin, Kuta Lintang, Kec. Blangkejeren, Kabupaten Gayo Lues, Aceh 24655";"JL. Tgk M. Luddin, Kuta Lintang, Kec. Blangkejeren, Kabupaten Gayo Lues";"ACEH";"24655";"Indonesia";" 0818674274";"4.0018778";"97.3418272";"https://maps.google.com/?cid=0x0:0xf1bbd819fbfd1554"
"toko bangunan";"Bengkel Bongkar Pasang Mesin";"Bengkel las arios";"8WWF+HP7, Tanah Baru, Kec. Lawe Sigala-Gala, Kabupaten Aceh Tenggara, Aceh 24673";"Tanah Baru, Kec. Lawe Sigala-Gala, Kabupaten Aceh Tenggara";"ACEH";"24673";"Indonesia";"";"3.3467892";"97.9238424";"https://maps.google.com/?cid=0x0:0x19920e6005229e0"
"toko bangunan";"Grosir Barang Kelontong";"Bontot Sehatku";"Lawe Mantik, Kec. Babul Makmur, Kabupaten Aceh Tenggara, Aceh 24673";"Kec. Babul Makmur, Kabupaten Aceh Tenggara";"ACEH";"24673";"Indonesia";" 088263808937";"3.3027382";"97.9577749";"https://maps.google.com/?cid=0x0:0xd489293949e1a553"
"toko bangunan";"Toko Bahan Bangunan";"Sabilussalam";"8WCX+6C5, Jln. Kutacane-lawe pakam, Sabilussalam, Kec. Babul Makmur, Kabupaten Aceh Tenggara";"Kabupaten Aceh Tenggara, Aceh";"ACEH";"";"Indonesia";"";"3.3205243";"97.9485997";"https://maps.google.com/?cid=0x0:0xd797c9e0bac0a336"
"toko bangunan";"Toko Bahan Bangunan";"UD. Ahmad Rafif";"9V86+72J, Titi Mas, Kec. Babul Rahman, Kabupaten Aceh Tenggara, Aceh 24562";"Titi Mas, Kec. Babul Rahman, Kabupaten Aceh Tenggara";"ACEH";"24562";"Indonesia";" 085358320324";"3.3655017";"97.860937";"https://maps.google.com/?cid=0x0:0x60c6bcdce40d0d07"
"toko bangunan";"Toko Perlengkapan Rumah";"TOKO JIHAN";"46V5+GP9, Jl. Lintas Takengon - Blangkejeren, Cane Baru, Kec. Pantan Cuaca, Kabupaten Gayo Lues, Aceh 24661";"Jl. Lintas Takengon - Blangkejeren, Cane Baru, Kec. Pantan Cuaca, Kabupaten Gayo Lues";"ACEH";"24661";"Indonesia";"";"4.14378";"97.209362";"https://maps.google.com/?cid=0x0:0x8a162739da787c4c"
"toko bangunan";"Grosir";"TB.SUMBER REZEKI";"Ladang Tuha, Kec. Pasie Raja, Kabupaten Aceh Selatan, Aceh 23755";"Kec. Pasie Raja, Kabupaten Aceh Selatan";"ACEH";"23755";"Indonesia";" 081269590222";"3.2009136";"97.275665";"https://maps.google.com/?cid=0x0:0x52815b7d64982502"
"building materials";"building materials";"Kec. Babul Makmur";"Kabupaten Aceh Tenggara, Aceh";"Kabupaten Aceh Tenggara, Aceh";"ACEH";"";"Indonesia";"";"3.2886858";"97.9785032";"https://maps.google.com/?cid=0x0:0xa32290e982898875"
"building materials";"Sekolah";"UD. RIDHO";"Jl. Kutacane, Tanoh Alas, Kec. Babul Makmur, Kabupaten Aceh Tenggara, Aceh 24673";"Tanoh Alas, Kec. Babul Makmur, Kabupaten Aceh Tenggara";"ACEH";"24673";"Indonesia";" 083869524663";"3.2873604";"97.9789446";"https://maps.google.com/?cid=0x0:0xaf4f4e8b5a2edcfc"
"building materials";"Toko Bahan Bangunan";"UD. SELLA";"Lawe Deski Sabas, Kec. Babul Makmur, Kabupaten Aceh Tenggara, Aceh 24673";"Kec. Babul Makmur, Kabupaten Aceh Tenggara";"ACEH";"24673";"Indonesia";" 085297054443";"3.3148136";"97.9529359";"https://maps.google.com/?cid=0x0:0x71759b4359f9cb4a"
"building materials";"Toko bahan makanan";"Ud.toserba intan";"7XX7+JFJ, Jl. Kutacane, Pulo Sanggar, Kec. Babussalam, Kabupaten Aceh Tenggara, Aceh 24673";"Jl. Kutacane, Pulo Sanggar, Kec. Babussalam, Kabupaten Aceh Tenggara";"ACEH";"24673";"Indonesia";" 081288044241";"3.2990984";"97.9636348";"https://maps.google.com/?cid=0x0:0xe6f18e113e01e985"
"building materials";"Toko Perlengkapan Rumah";"Anugerah Jaya";"9W39+7X4, Lawe Sigala Tim., Kec. Lawe Sigala-Gala, Kabupaten Aceh Tenggara, Aceh 24673";"Lawe Sigala Tim., Kec. Lawe Sigala-Gala, Kabupaten Aceh Tenggara";"ACEH";"24673";"Indonesia";"";"3.3533158";"97.9198264";"https://maps.google.com/?cid=0x0:0x1b39a007fa63286c"
"building materials";"building materials";"Pencetakan batako";"";"";"ACEH";"";"Indonesia";" 085275504954";"3.3380285";"97.617301";"https://maps.google.com/?cid=0x0:0x631311e8e1c2e38d"
"building materials";"Sekolah";"UD. RIDHO";"Jl. Kutacane, Tanoh Alas, Kec. Babul Makmur, Kabupaten Aceh Tenggara, Aceh 24673";"Tanoh Alas, Kec. Babul Makmur, Kabupaten Aceh Tenggara";"ACEH";"24673";"Indonesia";" 083869524663";"3.2873604";"97.9789446";"https://maps.google.com/?cid=0x0:0xaf4f4e8b5a2edcfc"
"building materials";"Toko Bahan Bangunan";"UD. SELLA";"Lawe Deski Sabas, Kec. Babul Makmur, Kabupaten Aceh Tenggara, Aceh 24673";"Kec. Babul Makmur, Kabupaten Aceh Tenggara";"ACEH";"24673";"Indonesia";" 085297054443";"3.3148136";"97.9529359";"https://maps.google.com/?cid=0x0:0x71759b4359f9cb4a"
"building materials";"building materials";"Aceh 24673";"Kabupaten Aceh Tenggara, Aceh";"Kabupaten Aceh Tenggara, Aceh";"ACEH";"";"Indonesia";"";"3.0291759";"97.8286368";"https://maps.google.com/?cid=0x0:0x9e7ae9b803d7455"
"building materials";"Toko bahan makanan";"Ud.toserba intan";"7XX7+JFJ, Jl. Kutacane, Pulo Sanggar, Kec. Babussalam, Kabupaten Aceh Tenggara, Aceh 24673";"Jl. Kutacane, Pulo Sanggar, Kec. Babussalam, Kabupaten Aceh Tenggara";"ACEH";"24673";"Indonesia";" 081288044241";"3.2990984";"97.9636348";"https://maps.google.com/?cid=0x0:0xe6f18e113e01e985"
"building materials";"Toko Perlengkapan Rumah";"Toko Harapan Baru Keramik";"Jl. Blangkejeren - Kutacane No.10, Kota Kutacane, Kec. Babussalam, Kabupaten Aceh Tenggara, Aceh 24651";"Kota Kutacane, Kec. Babussalam, Kabupaten Aceh Tenggara";"ACEH";"24651";"Indonesia";" 08111522228";"3.4875132";"97.8115114";"https://maps.google.com/?cid=0x0:0x67030dcadd253e8d"
"building materials";"Toko Bahan Bangunan";"Sabilussalam";"8WCX+6C5, Jln. Kutacane-lawe pakam, Sabilussalam, Kec. Babul Makmur, Kabupaten Aceh Tenggara";"Kabupaten Aceh Tenggara, Aceh";"ACEH";"";"Indonesia";"";"3.3205243";"97.9485997";"https://maps.google.com/?cid=0x0:0xd797c9e0bac0a336"
"building materials";"Pusat Perbelanjaan";"UD.hanif bangunan";"4734+V2W, Ampa Kolak, Kec. Rikit Gaib, Kabupaten Gayo Lues, Aceh 24661";"Ampa Kolak, Kec. Rikit Gaib, Kabupaten Gayo Lues";"ACEH";"24661";"Indonesia";" 082298920035";"4.1047722";"97.2550933";"https://maps.google.com/?cid=0x0:0x1c6ebf78c8573664"
"building materials";"Grosir";"TB.SUMBER REZEKI";"Ladang Tuha, Kec. Pasie Raja, Kabupaten Aceh Selatan, Aceh 23755";"Kec. Pasie Raja, Kabupaten Aceh Selatan";"ACEH";"23755";"Indonesia";" 081269590222";"3.2009136";"97.275665";"https://maps.google.com/?cid=0x0:0x52815b7d64982502"
"building materials";"Toko Perlengkapan Rumah";"Toko Mandiri Bangunan";"282R+QP4, JL. Tgk M. Luddin, Kuta Lintang, Kec. Blangkejeren, Kabupaten Gayo Lues, Aceh 24655";"JL. Tgk M. Luddin, Kuta Lintang, Kec. Blangkejeren, Kabupaten Gayo Lues";"ACEH";"24655";"Indonesia";" 0818674274";"4.0018778";"97.3418272";"https://maps.google.com/?cid=0x0:0xf1bbd819fbfd1554"
"building materials";"Toko Perlengkapan Rumah";"Anugerah Jaya";"9W39+7X4, Lawe Sigala Tim., Kec. Lawe Sigala-Gala, Kabupaten Aceh Tenggara, Aceh 24673";"Lawe Sigala Tim., Kec. Lawe Sigala-Gala, Kabupaten Aceh Tenggara";"ACEH";"24673";"Indonesia";"";"3.3533158";"97.9198264";"https://maps.google.com/?cid=0x0:0x1b39a007fa63286c"
"building materials";"Toko Bahan Bangunan";"Toko Cahaya Baru";"Jl. Raya, Kerukunan Kuta Panjang, Kec. Kutapanjang, Kabupaten Gayo Lues, Aceh 24655";"Kerukunan Kuta Panjang, Kec. Kutapanjang, Kabupaten Gayo Lues";"ACEH";"24655";"Indonesia";" 085296662799";"4.0164994";"97.2780218";"https://maps.google.com/?cid=0x0:0x8b21297c68721e96"
"building materials";"Toko Bahan Bangunan";"UD. Putra Alas";"Bambel Gabungan, Kec. Bambel, Kabupaten Aceh Tenggara, Aceh 24651";"Kec. Bambel, Kabupaten Aceh Tenggara";"ACEH";"24651";"Indonesia";" 082251536584";"3.4580077";"97.8302665";"https://maps.google.com/?cid=0x0:0xaec2fd01ded4e13b"
"building materials";"Toko Bahan Bangunan";"Toko Sinar Bangunan";"Jl. Blangkejeren - Kutacane, Alas Merancar, Kec. Babussalam, Kabupaten Aceh Tenggara, Aceh 24651";"Alas Merancar, Kec. Babussalam, Kabupaten Aceh Tenggara";"ACEH";"24651";"Indonesia";" 081360194534";"3.505696";"97.805592";"https://maps.google.com/?cid=0x0:0x62b80c131958ab09"
"building materials";"Toko Bahan Bangunan";"UD. ILHAM BARONA";"Blang Gelinggang, Kec. Sawang, Kabupaten Aceh Selatan, Aceh 23752";"Kec. Sawang, Kabupaten Aceh Selatan";"ACEH";"23752";"Indonesia";" 085277730754";"3.4039282";"97.0953092";"https://maps.google.com/?cid=0x0:0x55cdb496c3cddfb3"
"building materials";"building materials";"Kec. Babussalam";"Kabupaten Aceh Tenggara, Aceh";"Kabupaten Aceh Tenggara, Aceh";"ACEH";"";"Indonesia";"";"3.4831986";"97.812801";"https://maps.google.com/?cid=0x0:0x585c8bae275f9877"
"building materials";"Toko Perlengkapan Rumah";"Toko Harapan Baru Keramik";"Jl. Blangkejeren - Kutacane No.10, Kota Kutacane, Kec. Babussalam, Kabupaten Aceh Tenggara, Aceh 24651";"Kota Kutacane, Kec. Babussalam, Kabupaten Aceh Tenggara";"ACEH";"24651";"Indonesia";" 08111522228";"3.4875132";"97.8115114";"https://maps.google.com/?cid=0x0:0x67030dcadd253e8d"
"building materials";"Toko Bahan Bangunan";"Toko Sinar Bangunan";"Jl. Blangkejeren - Kutacane, Alas Merancar, Kec. Babussalam, Kabupaten Aceh Tenggara, Aceh 24651";"Alas Merancar, Kec. Babussalam, Kabupaten Aceh Tenggara";"ACEH";"24651";"Indonesia";" 081360194534";"3.505696";"97.805592";"https://maps.google.com/?cid=0x0:0x62b80c131958ab09"
"building materials";"Toko Perlengkapan Rumah";"Toko UD BULEK kutacane";"FR6H+8CR, Jl. Kutacane-Tigabinanga, Bambel Gabungan, Kec. Klp. Gading, Kabupaten Aceh Tenggara, Aceh 24651";"Jl. Kutacane-Tigabinanga, Bambel Gabungan, Kec. Klp. Gading, Kabupaten Aceh Tenggara";"ACEH";"24651";"Indonesia";"";"3.4608744";"97.8285069";"https://maps.google.com/?cid=0x0:0xdb8b0462d5ac32a3"
"building materials";"Toko Bahan Bangunan";"UD. Putra Alas";"Bambel Gabungan, Kec. Bambel, Kabupaten Aceh Tenggara, Aceh 24651";"Kec. Bambel, Kabupaten Aceh Tenggara";"ACEH";"24651";"Indonesia";" 082251536584";"3.4580077";"97.8302665";"https://maps.google.com/?cid=0x0:0xaec2fd01ded4e13b"
"building materials";"Toko Bahan Bangunan";"Ud semban";"FRQ8+MHC, Lawe Rutung, Kec. Lawe Bulan, Kabupaten Aceh Tenggara, Aceh 24651";"Lawe Rutung, Kec. Lawe Bulan, Kabupaten Aceh Tenggara";"ACEH";"24651";"Indonesia";"";"3.4891877";"97.8164006";"https://maps.google.com/?cid=0x0:0x47089266d151d260"
"building materials";"Toko Bahan Bangunan";""UD.Kuah Ate"";"FRW4+2CP, Batu Bulan Asli, Kec. Babussalam, Kabupaten Aceh Tenggara, Aceh 24651";"Batu Bulan Asli, Kec. Babussalam, Kabupaten Aceh Tenggara";"ACEH";"24651";"Indonesia";"";"3.4955845";"97.8056822";"https://maps.google.com/?cid=0x0:0x293640f701f99e23"
"building materials";"Toko Bahan Bangunan";"ZHAFIRA KERAMIK";"GR93+52G, Jl. Blangkejeren - Kutacane, Kota Kutacane, Kec. Badar, Kabupaten Aceh Tenggara, Aceh 24651";"Jl. Blangkejeren - Kutacane, Kota Kutacane, Kec. Badar, Kabupaten Aceh Tenggara";"ACEH";"24651";"Indonesia";" 082211150669";"3.5179428";"97.8025742";"https://maps.google.com/?cid=0x0:0x2c029e8214e46bb3"
"building materials";"Toko Bahan Bangunan";"Toko besi ARI JAWA";"FRP7+JPP, Lawe Rutung, Kec. Lawe Bulan, Kabupaten Aceh Tenggara, Aceh 24651";"Lawe Rutung, Kec. Lawe Bulan, Kabupaten Aceh Tenggara";"ACEH";"24651";"Indonesia";" 081263838057";"3.4865877";"97.8143307";"https://maps.google.com/?cid=0x0:0x7f4eb195649120ba"
"building materials";"Toko";"Arkana kaca";"FRG9+3GF, Jl. Iskandar Muda, Kutacane Lama, Kec. Babussalam, Kabupaten Aceh Tenggara, Aceh 24651";"Jl. Iskandar Muda, Kutacane Lama, Kec. Babussalam, Kabupaten Aceh Tenggara";"ACEH";"24651";"Indonesia";" 082273304207";"3.4751822";"97.8188088";"https://maps.google.com/?cid=0x0:0x5b61e96e7e069a60"
"building materials";"Toko Bahan Bangunan";"SIDIN KERAWANGAN DAN LUBANG ANGIN";"Kp. Baru, Kec. Badar, Kabupaten Aceh Tenggara, Aceh 24651";"Kec. Badar, Kabupaten Aceh Tenggara";"ACEH";"24651";"Indonesia";" 082271362677";"3.5247963";"97.7926906";"https://maps.google.com/?cid=0x0:0x3061a766c2c5fa52"
"building materials";"Toko bahan makanan";"Toko Jotun Agara Warna";"Jl. Jend Ahmad Yani komplek ruko ABC No.18, Kota Kutacane, Kec. Babussalam, Kabupaten Aceh Tenggara, Aceh 24651";"Kota Kutacane, Kec. Babussalam, Kabupaten Aceh Tenggara";"ACEH";"24651";"Indonesia";" 081260049444";"3.4868713";"97.811434";"https://maps.google.com/?cid=0x0:0x4988d3201e8b79df"
"building materials";"Toko Bahan Bangunan";"Toko Besi Nabawi2";"depan alfamart, Jln.pajak pagi, Lawe Rutung, Kec. Lawe Bulan, Kabupaten Aceh Tenggara, Aceh 24651";"Jln.pajak pagi, Lawe Rutung, Kec. Lawe Bulan, Kabupaten Aceh Tenggara";"ACEH";"24651";"Indonesia";"";"3.4870822";"97.8135816";"https://maps.google.com/?cid=0x0:0xa2f72346d29994cf"
"building materials";"Toko";"Toko Marisa kaca";"FRJ7+CP9, Pulo Latong, Kec. Babussalam, Kabupaten Aceh Tenggara, Aceh 24651";"Pulo Latong, Kec. Babussalam, Kabupaten Aceh Tenggara";"ACEH";"24651";"Indonesia";"";"3.4809136";"97.8147518";"https://maps.google.com/?cid=0x0:0xa8b7b58ef4f0b040"
"building materials";"Toko";"Toko Marisa kaca";"FRJ7+CP9, Pulo Latong, Kec. Babussalam, Kabupaten Aceh Tenggara, Aceh 24651";"Pulo Latong, Kec. Babussalam, Kabupaten Aceh Tenggara";"ACEH";"24651";"Indonesia";"";"3.4809136";"97.8147518";"https://maps.google.com/?cid=0x0:0xa8b7b58ef4f0b040"
"building materials";"Toko Kaca";"Bintang Asia kaca";"Jl. Iskandar Muda No.28-16, Kota Kutacane, Kec. Babussalam, Kabupaten Aceh Tenggara, Aceh 24651";"Kota Kutacane, Kec. Babussalam, Kabupaten Aceh Tenggara";"ACEH";"24651";"Indonesia";" 085358092337";"3.4807557";"97.8137752";"https://maps.google.com/?cid=0x0:0x126ba494138e284f"
"building materials";"building materials";"Kec. Babussalam";"Kabupaten Aceh Tenggara, Aceh";"Kabupaten Aceh Tenggara, Aceh";"ACEH";"";"Indonesia";"";"3.4831986";"97.812801";"https://maps.google.com/?cid=0x0:0x585c8bae275f9877"
"building materials";"Toko Bahan Bangunan";"Toko Bangunan M. Zubaili";"Jl. Tgk. Glee Iniem No.1, Tungkob, Kec. Darussalam, Kabupaten Aceh Besar, Aceh 23373";"Tungkob, Kec. Darussalam, Kabupaten Aceh Besar";"ACEH";"23373";"Indonesia";" 087757645408";"5.5698462";"95.38426";"https://maps.google.com/?cid=0x0:0x916331985aff5682"
"building materials";"Toko Bahan Bangunan";"Construction Materials IBN";"Blang Reuling, Kec. Sawang, Kabupaten Aceh Utara, Aceh 24352";"Kec. Sawang, Kabupaten Aceh Utara";"ACEH";"24352";"Indonesia";" 081375777927";"5.18328";"96.9151938";"https://maps.google.com/?cid=0x0:0x1a0d40f586810d3d"
"building materials";"Toko bahan makanan";"Ud.toserba intan";"7XX7+JFJ, Jl. Kutacane, Pulo Sanggar, Kec. Babussalam, Kabupaten Aceh Tenggara, Aceh 24673";"Jl. Kutacane, Pulo Sanggar, Kec. Babussalam, Kabupaten Aceh Tenggara";"ACEH";"24673";"Indonesia";" 081288044241";"3.2990984";"97.9636348";"https://maps.google.com/?cid=0x0:0xe6f18e113e01e985"
"building materials";"Toko Bahan Bangunan";"Tb.Babussalam";"Mantang, Kec. Batukliang, Kabupaten Lombok Tengah, Nusa Tenggara Bar.";"Kabupaten Lombok Tengah, Nusa Tenggara Bar.";"ACEH";"";"Indonesia";"";"-8.6190891";"116.3212059";"https://maps.google.com/?cid=0x0:0x6385e23504df3db0"
"building materials";"Toko Bahan Bangunan";"Toko Babussalam/Darussalam Bangunan";"Jl. Raya Biaro - Lasi, Lasi, Kec. Candung, Kabupaten Agam, Sumatera Barat 26191";"Lasi, Kec. Candung, Kabupaten Agam";"ACEH";"26191";"Indonesia";" 082171748721";"-0.3157437";"100.4343164";"https://maps.google.com/?cid=0x0:0xc213cac4a5bf4a01"
"building materials";"Sekolah Agama";"Pondok Pesantren Babussalam";"Jl. Swadaya 3, RT.05/RW.11, Mekarsari, Kec. Cimanggis, Kota Depok, Jawa Barat 16452";"RT.05/RW.11, Mekarsari, Kec. Cimanggis, Kota Depok";"ACEH";"16452";"Indonesia";" 081322088910";"-6.3698172";"106.8821293";"https://maps.google.com/?cid=0x0:0xabdb503dbe5c785a"
"building materials";"Toko Bahan Bangunan";"Toko Bangunan Babusalam Jaya";"Jalan Sorek Satu, Kelurahan, Sorek Satu, Kec. Pangkalan Kuras, Kabupaten Pelalawan, Riau 28383";"Kelurahan, Sorek Satu, Kec. Pangkalan Kuras, Kabupaten Pelalawan";"ACEH";"28383";"Indonesia";" 081378922600";"0.1331927";"102.0730161";"https://maps.google.com/?cid=0x0:0x9beca5e09befa424"
"building materials";"Toko Bahan Bangunan";"SIDIN KERAWANGAN DAN LUBANG ANGIN";"Kp. Baru, Kec. Badar, Kabupaten Aceh Tenggara, Aceh 24651";"Kec. Badar, Kabupaten Aceh Tenggara";"ACEH";"24651";"Indonesia";" 082271362677";"3.5247963";"97.7926906";"https://maps.google.com/?cid=0x0:0x3061a766c2c5fa52"
"building materials";"building materials";"Aceh 24652";"Kabupaten Aceh Tenggara, Aceh";"Kabupaten Aceh Tenggara, Aceh";"ACEH";"";"Indonesia";"";"3.6699926";"97.654811";"https://maps.google.com/?cid=0x0:0xf321f2dc3f3b9295"
"building materials";"Toko Bahan Bangunan";"ZHAFIRA KERAMIK";"GR93+52G, Jl. Blangkejeren - Kutacane, Kota Kutacane, Kec. Badar, Kabupaten Aceh Tenggara, Aceh 24651";"Jl. Blangkejeren - Kutacane, Kota Kutacane, Kec. Badar, Kabupaten Aceh Tenggara";"ACEH";"24651";"Indonesia";" 082211150669";"3.5179428";"97.8025742";"https://maps.google.com/?cid=0x0:0x2c029e8214e46bb3"
"building materials";"Toko Perlengkapan Rumah";"Toko UD BULEK kutacane";"FR6H+8CR, Jl. Kutacane-Tigabinanga, Bambel Gabungan, Kec. Klp. Gading, Kabupaten Aceh Tenggara, Aceh 24651";"Jl. Kutacane-Tigabinanga, Bambel Gabungan, Kec. Klp. Gading, Kabupaten Aceh Tenggara";"ACEH";"24651";"Indonesia";"";"3.4608744";"97.8285069";"https://maps.google.com/?cid=0x0:0xdb8b0462d5ac32a3"
"building materials";"building materials";"U.D PERWIRA";"CVV9+F6G, Kuning II, Kec. Bambel, Kabupaten Aceh Tenggara, Aceh 24651";"Kuning II, Kec. Bambel, Kabupaten Aceh Tenggara";"ACEH";"24651";"Indonesia";"";"3.4436988";"97.8680786";"https://maps.google.com/?cid=0x0:0x5e0cf6169392d279"
"building materials";"Toko Bahan Bangunan";"UD. Putra Alas";"Bambel Gabungan, Kec. Bambel, Kabupaten Aceh Tenggara, Aceh 24651";"Kec. Bambel, Kabupaten Aceh Tenggara";"ACEH";"24651";"Indonesia";" 082251536584";"3.4580077";"97.8302665";"https://maps.google.com/?cid=0x0:0xaec2fd01ded4e13b"
"building materials";"Toko Kaca";"Arkana Group";"CVR8+R24, Jl. Kutacane, Pulo Sanggar, Kec. Babussalam, Kabupaten Aceh Tenggara, Aceh 24651";"Jl. Kutacane, Pulo Sanggar, Kec. Babussalam, Kabupaten Aceh Tenggara";"ACEH";"24651";"Indonesia";" 08116831273";"3.4420104";"97.8650824";"https://maps.google.com/?cid=0x0:0x234a6b0b966fbfe3"
"building materials";"Toko Bahan Bangunan";"Ud semban";"FRQ8+MHC, Lawe Rutung, Kec. Lawe Bulan, Kabupaten Aceh Tenggara, Aceh 24651";"Lawe Rutung, Kec. Lawe Bulan, Kabupaten Aceh Tenggara";"ACEH";"24651";"Indonesia";"";"3.4891877";"97.8164006";"https://maps.google.com/?cid=0x0:0x47089266d151d260"
"building materials";"Toko Perlengkapan Rumah";"Toko Harapan Baru Keramik";"Jl. Blangkejeren - Kutacane No.10, Kota Kutacane, Kec. Babussalam, Kabupaten Aceh Tenggara, Aceh 24651";"Kota Kutacane, Kec. Babussalam, Kabupaten Aceh Tenggara";"ACEH";"24651";"Indonesia";" 08111522228";"3.4875132";"97.8115114";"https://maps.google.com/?cid=0x0:0x67030dcadd253e8d"
"building materials";"Toko Bahan Bangunan";"Toko Sinar Bangunan";"Jl. Blangkejeren - Kutacane, Alas Merancar, Kec. Babussalam, Kabupaten Aceh Tenggara, Aceh 24651";"Alas Merancar, Kec. Babussalam, Kabupaten Aceh Tenggara";"ACEH";"24651";"Indonesia";" 081360194534";"3.505696";"97.805592";"https://maps.google.com/?cid=0x0:0x62b80c131958ab09"
"building materials";"Toko Bahan Bangunan";"Rikit bur 2";"CVMJ+54F, Jl. Kutacane, Tigabinanga, Kec. Bukit Tusam, Kabupaten Aceh Tenggara, Aceh 24671";"Jl. Kutacane, Tigabinanga, Kec. Bukit Tusam, Kabupaten Aceh Tenggara";"ACEH";"24671";"Indonesia";"";"3.4329274";"97.8802895";"https://maps.google.com/?cid=0x0:0x4fd8a9d77f965e70"
"building materials";"Toko Bahan Bangunan";"UD RIVANA";"CV9R+6QX, Amaliah, Kec. Bukit Tusam, Kabupaten Aceh Tenggara, Aceh 24671";"Amaliah, Kec. Bukit Tusam, Kabupaten Aceh Tenggara";"ACEH";"24671";"Indonesia";"";"3.4181237";"97.8919771";"https://maps.google.com/?cid=0x0:0x2bf0e4da9afaa0fc"
"building materials";"Toko Bahan Bangunan";"Tunas Muda";"Jl.jend.Ahmad Yani No.2, Pulo Latong, Kec. Babussalam, Kabupaten Aceh Tenggara, Aceh 24651";"Pulo Latong, Kec. Babussalam, Kabupaten Aceh Tenggara";"ACEH";"24651";"Indonesia";"";"3.4818925";"97.8129579";"https://maps.google.com/?cid=0x0:0x5eaddb385346e5a2"
"building materials";"Toko Bahan Bangunan";"Okabe Gallery Alam Sutera";"QM66+Q46, Jalur Sutera No.32A, Pakualam, Kec. Serpong Utara, Kota Tangerang Selatan, Banten 15320";"Jalur Sutera No.32A, Pakualam, Kec. Serpong Utara, Kota Tangerang Selatan";"ACEH";"15320";"Indonesia";" 082118888519";"-6.2381706";"106.6605396";"https://maps.google.com/?cid=0x0:0x685a953a8450fdbb"
"building materials";"Pemasok mebel sesuai pesanan";"Okabe Hardware Indonesia";"Jalur Sutera No.32A, Pakualam, Kec. Serpong Utara, Kota Tangerang Selatan, Banten 15320";"Pakualam, Kec. Serpong Utara, Kota Tangerang Selatan";"ACEH";"15320";"Indonesia";" 02122352581";"-6.2382287";"106.6604917";"https://maps.google.com/?cid=0x0:0x4be4305755e361e8"
"building materials";"building materials";"Aceh 24671";"Kabupaten Aceh Tenggara, Aceh";"Kabupaten Aceh Tenggara, Aceh";"ACEH";"";"Indonesia";"";"3.3974891";"97.8612767";"https://maps.google.com/?cid=0x0:0x2f1eb6944610f143"
"building materials";"Toko Bahan Bangunan";"UD. Putra Alas";"Bambel Gabungan, Kec. Bambel, Kabupaten Aceh Tenggara, Aceh 24651";"Kec. Bambel, Kabupaten Aceh Tenggara";"ACEH";"24651";"Indonesia";" 082251536584";"3.4580077";"97.8302665";"https://maps.google.com/?cid=0x0:0xaec2fd01ded4e13b"
"building materials";"Toko Bahan Bangunan";"UD.ZUNANDA";"9VXW+C2M, Simpang Semadam, Kec. Semadam, Kabupaten Aceh Tenggara, Aceh 24671";"Simpang Semadam, Kec. Semadam, Kabupaten Aceh Tenggara";"ACEH";"24671";"Indonesia";"";"3.3985922";"97.8950455";"https://maps.google.com/?cid=0x0:0x7d8807f8f52b4aeb"
"building materials";"Toko Bahan Bangunan";"UD RIVANA";"CV9R+6QX, Amaliah, Kec. Bukit Tusam, Kabupaten Aceh Tenggara, Aceh 24671";"Amaliah, Kec. Bukit Tusam, Kabupaten Aceh Tenggara";"ACEH";"24671";"Indonesia";"";"3.4181237";"97.8919771";"https://maps.google.com/?cid=0x0:0x2bf0e4da9afaa0fc"
"building materials";"Toko Bahan Bangunan";"Rikit bur 2";"CVMJ+54F, Jl. Kutacane, Tigabinanga, Kec. Bukit Tusam, Kabupaten Aceh Tenggara, Aceh 24671";"Jl. Kutacane, Tigabinanga, Kec. Bukit Tusam, Kabupaten Aceh Tenggara";"ACEH";"24671";"Indonesia";"";"3.4329274";"97.8802895";"https://maps.google.com/?cid=0x0:0x4fd8a9d77f965e70"
"building materials";"Toko Bahan Bangunan";"UD. Ahmad Rafif";"9V86+72J, Titi Mas, Kec. Babul Rahman, Kabupaten Aceh Tenggara, Aceh 24562";"Titi Mas, Kec. Babul Rahman, Kabupaten Aceh Tenggara";"ACEH";"24562";"Indonesia";" 085358320324";"3.3655017";"97.860937";"https://maps.google.com/?cid=0x0:0x60c6bcdce40d0d07"
"building materials";"Toko Perlengkapan Rumah";"Toko UD BULEK kutacane";"FR6H+8CR, Jl. Kutacane-Tigabinanga, Bambel Gabungan, Kec. Klp. Gading, Kabupaten Aceh Tenggara, Aceh 24651";"Jl. Kutacane-Tigabinanga, Bambel Gabungan, Kec. Klp. Gading, Kabupaten Aceh Tenggara";"ACEH";"24651";"Indonesia";"";"3.4608744";"97.8285069";"https://maps.google.com/?cid=0x0:0xdb8b0462d5ac32a3"
"building materials";"Toko Kaca";"Arkana Group";"CVR8+R24, Jl. Kutacane, Pulo Sanggar, Kec. Babussalam, Kabupaten Aceh Tenggara, Aceh 24651";"Jl. Kutacane, Pulo Sanggar, Kec. Babussalam, Kabupaten Aceh Tenggara";"ACEH";"24651";"Indonesia";" 08116831273";"3.4420104";"97.8650824";"https://maps.google.com/?cid=0x0:0x234a6b0b966fbfe3"
"building materials";"Toko Bahan Bangunan";"UD. SELLA";"Lawe Deski Sabas, Kec. Babul Makmur, Kabupaten Aceh Tenggara, Aceh 24673";"Kec. Babul Makmur, Kabupaten Aceh Tenggara";"ACEH";"24673";"Indonesia";" 085297054443";"3.3148136";"97.9529359";"https://maps.google.com/?cid=0x0:0x71759b4359f9cb4a"
"building materials";"Toko Bahan Bangunan";"Ud Alkautsar";"9RQQ+RG8, Lawe Tungkal, Tanoh Alas, Kabupaten Aceh Tenggara, Aceh 24671";"Lawe Tungkal, Tanoh Alas, Kabupaten Aceh Tenggara";"ACEH";"24671";"Indonesia";"";"3.3895484";"97.8388351";"https://maps.google.com/?cid=0x0:0x87e1a4c3d16bb19e"
"building materials";"Toko Perlengkapan Rumah";"Anugerah Jaya";"9W39+7X4, Lawe Sigala Tim., Kec. Lawe Sigala-Gala, Kabupaten Aceh Tenggara, Aceh 24673";"Lawe Sigala Tim., Kec. Lawe Sigala-Gala, Kabupaten Aceh Tenggara";"ACEH";"24673";"Indonesia";"";"3.3533158";"97.9198264";"https://maps.google.com/?cid=0x0:0x1b39a007fa63286c"
"building materials";"Pembangunan Perumahan";"Basecamp KPLM";"Jl. Laksamana Malahayati No.111, Kajhu, Kec. Baitussalam, Kabupaten Aceh Besar, Aceh";"Kabupaten Aceh Besar, Aceh";"ACEH";"";"Indonesia";" 085360032444";"5.5964727";"95.3730772";"https://maps.google.com/?cid=0x0:0x21c35720fb498891"
"building materials";"Toko Bahan Bangunan";"Sabilussalam";"8WCX+6C5, Jln. Kutacane-lawe pakam, Sabilussalam, Kec. Babul Makmur, Kabupaten Aceh Tenggara";"Kabupaten Aceh Tenggara, Aceh";"ACEH";"";"Indonesia";"";"3.3205243";"97.9485997";"https://maps.google.com/?cid=0x0:0xd797c9e0bac0a336"
"building materials";"building materials";"Pencetakan batako";"";"";"ACEH";"";"Indonesia";" 085275504954";"3.3380285";"97.617301";"https://maps.google.com/?cid=0x0:0x631311e8e1c2e38d"
"building materials";"Toko Bahan Bangunan";"UD RIVANA";"CV9R+6QX, Amaliah, Kec. Bukit Tusam, Kabupaten Aceh Tenggara, Aceh 24671";"Amaliah, Kec. Bukit Tusam, Kabupaten Aceh Tenggara";"ACEH";"24671";"Indonesia";"";"3.4181237";"97.8919771";"https://maps.google.com/?cid=0x0:0x2bf0e4da9afaa0fc"
"building materials";"Toko Bahan Bangunan";"UD.ZUNANDA";"9VXW+C2M, Simpang Semadam, Kec. Semadam, Kabupaten Aceh Tenggara, Aceh 24671";"Simpang Semadam, Kec. Semadam, Kabupaten Aceh Tenggara";"ACEH";"24671";"Indonesia";"";"3.3985922";"97.8950455";"https://maps.google.com/?cid=0x0:0x7d8807f8f52b4aeb"
"building materials";"building materials";"Kec. Bukit Tusam";"Kabupaten Aceh Tenggara, Aceh";"Kabupaten Aceh Tenggara, Aceh";"ACEH";"";"Indonesia";"";"3.4266977";"97.8877166";"https://maps.google.com/?cid=0x0:0xf9f3969c7ad2c2c1"
"building materials";"Toko Bahan Bangunan";"Ud Alkautsar";"9RQQ+RG8, Lawe Tungkal, Tanoh Alas, Kabupaten Aceh Tenggara, Aceh 24671";"Lawe Tungkal, Tanoh Alas, Kabupaten Aceh Tenggara";"ACEH";"24671";"Indonesia";"";"3.3895484";"97.8388351";"https://maps.google.com/?cid=0x0:0x87e1a4c3d16bb19e"
"building materials";"Toko Kaca";"Arkana Group";"CVR8+R24, Jl. Kutacane, Pulo Sanggar, Kec. Babussalam, Kabupaten Aceh Tenggara, Aceh 24651";"Jl. Kutacane, Pulo Sanggar, Kec. Babussalam, Kabupaten Aceh Tenggara";"ACEH";"24651";"Indonesia";" 08116831273";"3.4420104";"97.8650824";"https://maps.google.com/?cid=0x0:0x234a6b0b966fbfe3"
"building materials";"Toko Bahan Bangunan";"UD.Maulida mandiri";"9VG2+8F8, Salim Pinim, Tanoh Alas, Kabupaten Aceh Tenggara, Aceh 24671";"Salim Pinim, Tanoh Alas, Kabupaten Aceh Tenggara";"ACEH";"24671";"Indonesia";" 085296019972";"3.3759465";"97.8522351";"https://maps.google.com/?cid=0x0:0xe92c4457f7694c91"
"building materials";"building materials";"Bata mas gani";"CVGR+JQR, Empat Lima, Kec. Bukit Tusam, Kabupaten Aceh Tenggara, Aceh 24671";"Empat Lima, Kec. Bukit Tusam, Kabupaten Aceh Tenggara";"ACEH";"24671";"Indonesia";"";"3.4266165";"97.8918903";"https://maps.google.com/?cid=0x0:0xa7f46c9562e4b221"
"building materials";"Toko Perlengkapan Rumah";"Toko Mandiri Bangunan";"282R+QP4, JL. Tgk M. Luddin, Kuta Lintang, Kec. Blangkejeren, Kabupaten Gayo Lues, Aceh 24655";"JL. Tgk M. Luddin, Kuta Lintang, Kec. Blangkejeren, Kabupaten Gayo Lues";"ACEH";"24655";"Indonesia";" 0818674274";"4.0018778";"97.3418272";"https://maps.google.com/?cid=0x0:0xf1bbd819fbfd1554"
"building materials";"Pusat Perbelanjaan";"toko alat bangunan UD.Usaha Baru";"X8RV+25V, Rak Lunung, Kec. Blangkejeren, Kabupaten Gayo Lues, Aceh 24653";"Rak Lunung, Kec. Blangkejeren, Kabupaten Gayo Lues";"ACEH";"24653";"Indonesia";"";"3.9901214";"97.3429091";"https://maps.google.com/?cid=0x0:0xf60dc2da87a6f48d"
"building materials";"building materials";"Aceh 24653";"Aceh";"Aceh";"ACEH";"";"Indonesia";"";"3.510025";"97.5680595";"https://maps.google.com/?cid=0x0:0xfbadf244defba520"
"building materials";"Pusat Perbelanjaan";"Distributor Semen ANDALAS";"X8WR+7M6, Kota Blangkejeren, Kec. Blangkejeren, Kabupaten Gayo Lues, Aceh 24653";"Kota Blangkejeren, Kec. Blangkejeren, Kabupaten Gayo Lues";"ACEH";"24653";"Indonesia";" 085260006789";"3.9956742";"97.3416433";"https://maps.google.com/?cid=0x0:0x7d42033644d29292"
"building materials";"Toko Bahan Bangunan";"SIGMA Toko Bangunan";"Gantung Geluni, Kec. Blangpegayon, Kabupaten Gayo Lues, Aceh 24653";"Kec. Blangpegayon, Kabupaten Gayo Lues";"ACEH";"24653";"Indonesia";" 085362353530";"3.9851952";"97.3183733";"https://maps.google.com/?cid=0x0:0x3f1d5d441b9a5b49"
"building materials";"Toko Bahan Bangunan";"Toko Jotun Dicky Jaya";"Jl. Blangkejeren - Kutacane No.17, Penampaan Uken, Kec. Blangkejeren, Kabupaten Gayo Lues, Aceh 24653";"Penampaan Uken, Kec. Blangkejeren, Kabupaten Gayo Lues";"ACEH";"24653";"Indonesia";"";"3.9914169";"97.3425236";"https://maps.google.com/?cid=0x0:0x56cb6e81e264829c"
"building materials";"Pusat Perbelanjaan";"UD.hanif bangunan";"4734+V2W, Ampa Kolak, Kec. Rikit Gaib, Kabupaten Gayo Lues, Aceh 24661";"Ampa Kolak, Kec. Rikit Gaib, Kabupaten Gayo Lues";"ACEH";"24661";"Indonesia";" 082298920035";"4.1047722";"97.2550933";"https://maps.google.com/?cid=0x0:0x1c6ebf78c8573664"
"building materials";"Toko Bahan Bangunan";"Construction Materials IBN";"Blang Reuling, Kec. Sawang, Kabupaten Aceh Utara, Aceh 24352";"Kec. Sawang, Kabupaten Aceh Utara";"ACEH";"24352";"Indonesia";" 081375777927";"5.18328";"96.9151938";"https://maps.google.com/?cid=0x0:0x1a0d40f586810d3d"
"building materials";"Toko Bahan Bangunan";"Toko ADI JAYA bahan bangunan";"X8MV+MV4, Rak Lunung, Kec. Blangkejeren, Kabupaten Gayo Lues, Aceh";"Kabupaten Gayo Lues, Aceh";"ACEH";"";"Indonesia";"";"3.9840233";"97.3447483";"https://maps.google.com/?cid=0x0:0xf60409899c4f023c"
"building materials";"Toko Bahan Bangunan";"Toko Bangunan Cangduri";"279P+43G, Tampeng Musara, Kec. Kutapanjang, Kabupaten Gayo Lues, Aceh 24655";"Tampeng Musara, Kec. Kutapanjang, Kabupaten Gayo Lues";"ACEH";"24655";"Indonesia";"";"4.0178068";"97.2851982";"https://maps.google.com/?cid=0x0:0xdfcddd08dd537a81"
"building materials";"Toko Perlengkapan Rumah";"toko kaca Ilham aluminium";"X8WR+VXM, Kuta Lintang, Kec. Blangkejeren, Kabupaten Gayo Lues, Aceh 24653";"Kuta Lintang, Kec. Blangkejeren, Kabupaten Gayo Lues";"ACEH";"24653";"Indonesia";"";"3.9972125";"97.3424219";"https://maps.google.com/?cid=0x0:0xb6e39e0002ecc22c"
"building materials";"Toko Bahan Bangunan";"UD. NAGOYA";"Tampang, Kec. Samadua, Kabupaten Aceh Selatan, Aceh 23711";"Kec. Samadua, Kabupaten Aceh Selatan";"ACEH";"23711";"Indonesia";" 085260805243";"3.3078438";"97.1472889";"https://maps.google.com/?cid=0x0:0xe43cb99ad81a5632"
