Category;Real Category;Business Name;Address;City;State;Postal Code;Country;Phone;Latitude;Longitude;Map Link
"perumahan";"Perhimpunan Pengembang Perumahan";"KANTOR PUSAT CV. AIRA PUTRI PRATAMA";"MCCX+XH2, Indonesiana, Tidore, Kota Tidore Kepulauan, Maluku Utara";"Kota Tidore Kepulauan, Maluku Utara";"MALUKU UTARA";"";"Indonesia";"";"0.6723882";"127.4489024";"https://maps.google.com/?cid=0x0:0x98a9a7533abe3d76"
"perumahan";"Komplek perumahan";"ARY";"M9MJ+MRR, Sirongo Folaraha, Kec. Tidore Utara, Kota Tidore Kepulauan, Maluku Utara";"Kota Tidore Kepulauan, Maluku Utara";"MALUKU UTARA";"";"Indonesia";"";"0.6844479";"127.381996";"https://maps.google.com/?cid=0x0:0x66b94bfb5c8d0969"
"perumahan";"perumahan";"Maluku Utara 97811";"Tomagoba, Tidore, Kota Tidore Kepulauan, Maluku Utara";"Kota Tidore Kepulauan, Maluku Utara";"MALUKU UTARA";"";"Indonesia";"";"0.672015";"127.4476026";"https://maps.google.com/?cid=0x0:0xa12ca31bbe90e0c1"
"perumahan";"perumahan";"Tidore";"Kota Tidore Kepulauan, Maluku Utara";"Kota Tidore Kepulauan, Maluku Utara";"MALUKU UTARA";"";"Indonesia";"";"0.659078";"127.4475867";"https://maps.google.com/?cid=0x0:0xee8f70bb2aa00f2e"
"perumahan";"Komplek perumahan";"Perumahan Pengadilan";"MFF2+2JW, Jl. A. Malawat, Tuguwaji, Tidore, Kota Tidore Kepulauan, Maluku Utara 97813";"Jl. A. Malawat, Tuguwaji, Tidore, Kota Tidore Kepulauan";"MALUKU UTARA";"97813";"Indonesia";"";"0.6726211";"127.4515656";"https://maps.google.com/?cid=0x0:0xb028f86d1a6508f1"
"perumahan";"Pembangunan Perumahan";"Rumah Dinas KP2KP";"MCCX+JX7, Jl. Ahmad Yani, Indonesiana, Tidore, Kota Tidore Kepulauan, Maluku Utara 97813";"Jl. Ahmad Yani, Indonesiana, Tidore, Kota Tidore Kepulauan";"MALUKU UTARA";"97813";"Indonesia";"";"0.6715464";"127.4499231";"https://maps.google.com/?cid=0x0:0xd5e8dfb31d7a0882"
"perumahan";"Komplek perumahan";"Nitha";"MCFW+Q89, Indonesiana, Tidore, Kota Tidore Kepulauan, Maluku Utara";"Kota Tidore Kepulauan, Maluku Utara";"MALUKU UTARA";"";"Indonesia";"";"0.6744081";"127.445845";"https://maps.google.com/?cid=0x0:0xec456b7055d14aaa"
"perumahan";"Komplek perumahan";"AREA GNKPRS";"MFG4+687, Indonesiana, Tidore, Kota Tidore Kepulauan, Maluku Utara";"Kota Tidore Kepulauan, Maluku Utara";"MALUKU UTARA";"";"Indonesia";"";"0.6754103";"127.4557724";"https://maps.google.com/?cid=0x0:0x36e01a46399e51ce"
"perumahan";"Komplek perumahan";"Rumah Bpk WAHID HADI";"MC2R+M6P, Topo Tiga, Tidore, Kota Tidore Kepulauan, Maluku Utara";"Kota Tidore Kepulauan, Maluku Utara";"MALUKU UTARA";"";"Indonesia";"";"0.651642";"127.44027";"https://maps.google.com/?cid=0x0:0x339e3bbe72b4407"
"perumahan";"Komplek perumahan";"Rumah Hi. Ishak Mustafa";"MC2V+5CQ, Soa Sio, Tidore, Kota Tidore Kepulauan, Maluku Utara";"Kota Tidore Kepulauan, Maluku Utara";"MALUKU UTARA";"";"Indonesia";"";"0.6504593";"127.4435987";"https://maps.google.com/?cid=0x0:0x45437a0d398e81cd"
"perumahan";"Pembangunan Perumahan";"Sekretariat K2SI";"MFJ2+6RR, Jl. Jenderal Ahmad Yani, Goto, Tidore, Kota Tidore Kepulauan, Maluku Utara";"Kota Tidore Kepulauan, Maluku Utara";"MALUKU UTARA";"";"Indonesia";" 085240151503";"0.680617";"127.452001";"https://maps.google.com/?cid=0x0:0xee603fc0074e286c"
"perumahan";"Pembangunan Perumahan";"Hahah";"MC6V+WGJ, Gamtufkange, Tidore, Kota Tidore Kepulauan, Maluku Utara";"Kota Tidore Kepulauan, Maluku Utara";"MALUKU UTARA";"";"Indonesia";"";"0.6623427";"127.4437775";"https://maps.google.com/?cid=0x0:0x2c6a4e4bc5155a4d"
"perumahan";"Komplek perumahan";"Nur's home";"MFP3+72V, Goto, Tidore, Kota Tidore Kepulauan, Maluku Utara";"Kota Tidore Kepulauan, Maluku Utara";"MALUKU UTARA";"";"Indonesia";"";"0.6857265";"127.4525361";"https://maps.google.com/?cid=0x0:0x88074fe9281ba63d"
"perumahan";"Komplek perumahan";"Tidore";"MC7W+XFJ, Jl. Sultan Mansur, Tomagoba, Tidore, Kota Tidore Kepulauan, Maluku Utara";"Kota Tidore Kepulauan, Maluku Utara";"MALUKU UTARA";"";"Indonesia";"";"0.6649605";"127.4461446";"https://maps.google.com/?cid=0x0:0x83e2ec1649dc3b8e"
"perumahan";"Komplek perumahan";"Afifa";"MFR3+VV9, Dowora, Kec. Tidore Tim., Kota Tidore Kepulauan, Maluku Utara";"Kota Tidore Kepulauan, Maluku Utara";"MALUKU UTARA";"";"Indonesia";"";"0.6922573";"127.4550966";"https://maps.google.com/?cid=0x0:0xa72ab5b99e25eab2"
"perumahan";"Pembangunan Perumahan";"Maulana";"MCJX+F57, Goto, Tidore, Kota Tidore Kepulauan, Maluku Utara";"Kota Tidore Kepulauan, Maluku Utara";"MALUKU UTARA";"";"Indonesia";"";"0.6811541";"127.4479351";"https://maps.google.com/?cid=0x0:0xc44a0fc6a5b4bbd6"
"perumahan";"Komplek perumahan";"RUMAH RIZAL BAKRI";"MFX3+33W, Dowora, Kec. Tidore Tim., Kota Tidore Kepulauan, Maluku Utara";"Kota Tidore Kepulauan, Maluku Utara";"MALUKU UTARA";"";"Indonesia";"";"0.6977418";"127.4527153";"https://maps.google.com/?cid=0x0:0x7d3ec825a443d795"
"perumahan";"perumahan";"Maluku Utara 97813";"Tomagoba, Tidore, Kota Tidore Kepulauan, Maluku Utara";"Kota Tidore Kepulauan, Maluku Utara";"MALUKU UTARA";"";"Indonesia";"";"0.6695081";"127.4491185";"https://maps.google.com/?cid=0x0:0x546e6a7c69e552a0"
"perumahan";"Vila";"Cymot Maradjabessy";"MC9X+FR8, Jl. Sulatn Nuku, Tomagoba, Tidore, Kota Tidore Kepulauan, Maluku Utara";"Kota Tidore Kepulauan, Maluku Utara";"MALUKU UTARA";"";"Indonesia";"";"0.6682431";"127.4492634";"https://maps.google.com/?cid=0x0:0xeb67f9d6b0ad4b0c"
"perumahan";"Komplek perumahan";"Abujajan";"MC9X+GF7, Jl. Ahmad Yani, Tomagoba, Tidore, Kota Tidore Kepulauan, Maluku Utara";"Kota Tidore Kepulauan, Maluku Utara";"MALUKU UTARA";"";"Indonesia";"";"0.6687944";"127.4486668";"https://maps.google.com/?cid=0x0:0x45f25385ce1f0dcd"
"perumahan";"Komplek perumahan";"Rumah Dahri wali";"MC9X+CQM, Tomagoba, Tidore, Kota Tidore Kepulauan, Maluku Utara";"Kota Tidore Kepulauan, Maluku Utara";"MALUKU UTARA";"";"Indonesia";"";"0.668576";"127.4494274";"https://maps.google.com/?cid=0x0:0x69ba1c41a20490a2"
"perumahan";"Komplek perumahan";"Abdurrahman ahmad";"MC9X+FR8, Jl. Raya Sultan Nuku, Tomagoba, Tidore, Kota Tidore Kepulauan, Maluku Utara";"Kota Tidore Kepulauan, Maluku Utara";"MALUKU UTARA";"";"Indonesia";"";"0.6686261";"127.4494368";"https://maps.google.com/?cid=0x0:0x867cc74bf7985d7a"
"perumahan";"Komplek perumahan";"Randy ojja";"MC9V+CCG, Tomagoba, Tidore, Kota Tidore Kepulauan, Maluku Utara";"Kota Tidore Kepulauan, Maluku Utara";"MALUKU UTARA";"";"Indonesia";"";"0.6663872";"127.4445065";"https://maps.google.com/?cid=0x0:0xadacbb0d3ac2344e"
"perumahan";"Perumahan";"Chymot Maradjabessy";"J9W9+Q8F, Toloa, Kec. Tidore Sel., Kota Tidore Kepulauan, Maluku Utara";"Kota Tidore Kepulauan, Maluku Utara";"MALUKU UTARA";"";"Indonesia";"";"0.6462564";"127.3678184";"https://maps.google.com/?cid=0x0:0x5fdd041242d21750"
"perumahan";"Pengembang Realestat";"Griya Marimoi Indah";"Sofifi, Oba Utara, Kota Tidore Kepulauan, Maluku Utara";"Kota Tidore Kepulauan, Maluku Utara";"MALUKU UTARA";"";"Indonesia";" 081329410808";"0.7288403";"127.5593276";"https://maps.google.com/?cid=0x0:0xdf90dea77337aa07"
"perumahan";"Pengembang Realestat";"Marimoi Property";"Jl. Balbar Jl. Trans Halmahera No.1, Sofifi, Oba Utara, Kota Tidore Kepulauan, Maluku Utara 97852";"Sofifi, Oba Utara, Kota Tidore Kepulauan";"MALUKU UTARA";"97852";"Indonesia";" 081329410808";"0.7314723";"127.5677902";"https://maps.google.com/?cid=0x0:0xb15eb5506d2bd7e9"
"perumahan";"perumahan";"Maluku Utara 97852";"Sofifi, Oba Utara, Kota Tidore Kepulauan, Maluku Utara";"Kota Tidore Kepulauan, Maluku Utara";"MALUKU UTARA";"";"Indonesia";"";"0.7379173";"127.5706308";"https://maps.google.com/?cid=0x0:0xb05522de48530924"
"perumahan";"Pengembang Realestat";"Marimoi Property";"Jl. Balbar Jl. Trans Halmahera No.1, Sofifi, Oba Utara, Kota Tidore Kepulauan, Maluku Utara 97852";"Sofifi, Oba Utara, Kota Tidore Kepulauan";"MALUKU UTARA";"97852";"Indonesia";" 081329410808";"0.7314723";"127.5677902";"https://maps.google.com/?cid=0x0:0xb15eb5506d2bd7e9"
"perumahan";"Pengembang Realestat";"Griya Marimoi Indah";"Sofifi, Oba Utara, Kota Tidore Kepulauan, Maluku Utara";"Kota Tidore Kepulauan, Maluku Utara";"MALUKU UTARA";"";"Indonesia";" 081329410808";"0.7288403";"127.5593276";"https://maps.google.com/?cid=0x0:0xdf90dea77337aa07"
"perumahan";"perumahan";"Perumahan ASN 2";"PHM7+76P, Jl. Trans Halmahera, Sofifi, Oba Utara, Kota Tidore Kepulauan, Maluku Utara";"Kota Tidore Kepulauan, Maluku Utara";"MALUKU UTARA";"";"Indonesia";"";"0.7378791";"127.5658131";"https://maps.google.com/?cid=0x0:0x7a10a94849f6ff80"
"perumahan";"perumahan";"Gaia Hotel Ternate";"Jl. Sultan M. Djabir Sjah, Gamalama, Kec. Kota Ternate Utara, Kota Ternate, Maluku Utara 97721";"Gamalama, Kec. Kota Ternate Utara, Kota Ternate";"MALUKU UTARA";"97721";"Indonesia";" 0811433446";"0.792091";"127.3896633";"https://maps.google.com/?cid=0x0:0xc34d900beeadb45b"
"perumahan";"perumahan";"Maluku Utara 97813";"Tomagoba, Tidore, Kota Tidore Kepulauan, Maluku Utara";"Kota Tidore Kepulauan, Maluku Utara";"MALUKU UTARA";"";"Indonesia";"";"0.6695081";"127.4491185";"https://maps.google.com/?cid=0x0:0x546e6a7c69e552a0"
"perumahan";"Vila";"Cymot Maradjabessy";"MC9X+FR8, Jl. Sulatn Nuku, Tomagoba, Tidore, Kota Tidore Kepulauan, Maluku Utara";"Kota Tidore Kepulauan, Maluku Utara";"MALUKU UTARA";"";"Indonesia";"";"0.6682431";"127.4492634";"https://maps.google.com/?cid=0x0:0xeb67f9d6b0ad4b0c"
"perumahan";"Komplek perumahan";"Abujajan";"MC9X+GF7, Jl. Ahmad Yani, Tomagoba, Tidore, Kota Tidore Kepulauan, Maluku Utara";"Kota Tidore Kepulauan, Maluku Utara";"MALUKU UTARA";"";"Indonesia";"";"0.6687944";"127.4486668";"https://maps.google.com/?cid=0x0:0x45f25385ce1f0dcd"
"perumahan";"Komplek perumahan";"Abdurrahman ahmad";"MC9X+FR8, Jl. Raya Sultan Nuku, Tomagoba, Tidore, Kota Tidore Kepulauan, Maluku Utara";"Kota Tidore Kepulauan, Maluku Utara";"MALUKU UTARA";"";"Indonesia";"";"0.6686261";"127.4494368";"https://maps.google.com/?cid=0x0:0x867cc74bf7985d7a"
"perumahan";"Kantor Pemerintah";"Dinas Pendidikan Kota Tidore Kepulauan";"MF82+38F, Jl. A. Malwat No.10, Tomagoba, Tidore, Kota Tidore Kepulauan, Maluku Utara";"Kota Tidore Kepulauan, Maluku Utara";"MALUKU UTARA";"";"Indonesia";" 09213161010";"0.6673001";"127.4490975";"https://maps.google.com/?cid=0x0:0x38d9f45fc097907c"
"perumahan";"Rumah wisata";"PENGINAPAN DAN KOS-KOSAN BAROKAH ABADI";"MC9X+WMH, Tomagoba, Tidore, Kota Tidore Kepulauan, Maluku Utara";"Kota Tidore Kepulauan, Maluku Utara";"MALUKU UTARA";"";"Indonesia";" 082311906496";"0.6698121";"127.449246";"https://maps.google.com/?cid=0x0:0x713500e5f50e2c9f"
"perumahan";"perumahan";"Maluku Utara 97813";"Tomagoba, Tidore, Kota Tidore Kepulauan, Maluku Utara";"Kota Tidore Kepulauan, Maluku Utara";"MALUKU UTARA";"";"Indonesia";"";"0.6695081";"127.4491185";"https://maps.google.com/?cid=0x0:0x546e6a7c69e552a0"
"perumahan";"Komplek perumahan";"Abujajan";"MC9X+GF7, Jl. Ahmad Yani, Tomagoba, Tidore, Kota Tidore Kepulauan, Maluku Utara";"Kota Tidore Kepulauan, Maluku Utara";"MALUKU UTARA";"";"Indonesia";"";"0.6687944";"127.4486668";"https://maps.google.com/?cid=0x0:0x45f25385ce1f0dcd"
"perumahan";"Komplek perumahan";"Abdurrahman ahmad";"MC9X+FR8, Jl. Raya Sultan Nuku, Tomagoba, Tidore, Kota Tidore Kepulauan, Maluku Utara";"Kota Tidore Kepulauan, Maluku Utara";"MALUKU UTARA";"";"Indonesia";"";"0.6686261";"127.4494368";"https://maps.google.com/?cid=0x0:0x867cc74bf7985d7a"
"perumahan";"Vila";"Cymot Maradjabessy";"MC9X+FR8, Jl. Sulatn Nuku, Tomagoba, Tidore, Kota Tidore Kepulauan, Maluku Utara";"Kota Tidore Kepulauan, Maluku Utara";"MALUKU UTARA";"";"Indonesia";"";"0.6682431";"127.4492634";"https://maps.google.com/?cid=0x0:0xeb67f9d6b0ad4b0c"
"perumahan";"Rumah wisata";"PENGINAPAN DAN KOS-KOSAN BAROKAH ABADI";"MC9X+WMH, Tomagoba, Tidore, Kota Tidore Kepulauan, Maluku Utara";"Kota Tidore Kepulauan, Maluku Utara";"MALUKU UTARA";"";"Indonesia";" 082311906496";"0.6698121";"127.449246";"https://maps.google.com/?cid=0x0:0x713500e5f50e2c9f"
"perumahan";"perumahan";"Maluku Utara 97852";"Sofifi, Oba Utara, Kota Tidore Kepulauan, Maluku Utara";"Kota Tidore Kepulauan, Maluku Utara";"MALUKU UTARA";"";"Indonesia";"";"0.7379173";"127.5706308";"https://maps.google.com/?cid=0x0:0xb05522de48530924"
"perumahan";"Pembangunan Perumahan";"PERUMAHAN DAGYMOI GREEN VILLAGE - SOA PUNCAK";"Soa Puncak, Kec. Kota Ternate Utara, Kota Ternate, Maluku Utara";"Kota Ternate, Maluku Utara";"MALUKU UTARA";"";"Indonesia";" 082190066007";"0.8014446";"127.3738425";"https://maps.google.com/?cid=0x0:0x9cc9734035a1d90d"
"perumahan";"Komplek perumahan";"PERUMAHAN DAGYMOI GREEN PARK - TUBO";"Lingkungan Jl. Raya Tubo, Tubo, Kec. Kota Ternate Utara, Kota Ternate, Maluku Utara 97751";"Tubo, Kec. Kota Ternate Utara, Kota Ternate";"MALUKU UTARA";"97751";"Indonesia";" 082190066007";"0.8260622";"127.3732749";"https://maps.google.com/?cid=0x0:0x5d85e692a0357dae"
"perumahan";"Komplek perumahan";"Dagymoi Residence";"R9GF+F34, Jl. Dagymoi Residen, Tubo, Kec. Kota Ternate Utara, Kota Ternate, Maluku Utara";"Kota Ternate, Maluku Utara";"MALUKU UTARA";"";"Indonesia";"";"0.8261396";"127.3726913";"https://maps.google.com/?cid=0x0:0x2520b67664e0b3a"
"perumahan";"Toko Perlengkapan Rumah";"Perumahan";"3FP8+H55, Hatebicara, Kec. Jailolo, Kabupaten Halmahera Barat, Maluku Utara";"Kabupaten Halmahera Barat, Maluku Utara";"MALUKU UTARA";"";"Indonesia";"";"1.0863839";"127.4654719";"https://maps.google.com/?cid=0x0:0xcc8c1599bfa68868"
"perumahan";"Komplek perumahan";"Lokasi Perumahan Griya Hatebicara";"3FMC+6V3, Hatebicara, Kec. Jailolo, Kabupaten Halmahera Barat, Maluku Utara";"Kabupaten Halmahera Barat, Maluku Utara";"MALUKU UTARA";"";"Indonesia";" 081340120908";"1.0830233";"127.472164";"https://maps.google.com/?cid=0x0:0x8c84cc47f590a00a"
"perumahan";"Agen Properti";"Jual tanah";"Tarau, Kec. Kota Ternate Utara, Kota Ternate, Maluku Utara";"Kota Ternate, Maluku Utara";"MALUKU UTARA";"";"Indonesia";"";"0.8416412";"127.3714237";"https://maps.google.com/?cid=0x0:0xb33331329d0deede"
"perumahan";"Komplek perumahan";"Dagymoi Green Park II Tubo";"R9GG+MC3, Tubo, Kec. Kota Ternate Utara, Kota Ternate, Maluku Utara";"Kota Ternate, Maluku Utara";"MALUKU UTARA";"";"Indonesia";"";"0.8267311";"127.3757076";"https://maps.google.com/?cid=0x0:0x860609859476973"
"perumahan";"Komplek perumahan";"Rumah BTN";"Q9QF+6QG, Marikurubu, Kec. Ternate Tengah, Kota Ternate, Maluku Utara";"Kota Ternate, Maluku Utara";"MALUKU UTARA";"";"Indonesia";"";"0.7880625";"127.3744531";"https://maps.google.com/?cid=0x0:0x7c8c8307bfd450f7"
"perumahan";"Komplek perumahan";"Desa Tagalaya";"2PV7+74, Tagalaya, Kec. Oba Sel., Kota Tidore Kepulauan, Maluku Utara";"Kota Tidore Kepulauan, Maluku Utara";"MALUKU UTARA";"";"Indonesia";"";"0.0409895";"127.7145004";"https://maps.google.com/?cid=0x0:0x62f4bbcf706e5d54"
"perumahan";"perumahan";"Maluku Utara 97852";"Sofifi, Oba Utara, Kota Tidore Kepulauan, Maluku Utara";"Kota Tidore Kepulauan, Maluku Utara";"MALUKU UTARA";"";"Indonesia";"";"0.7379173";"127.5706308";"https://maps.google.com/?cid=0x0:0xb05522de48530924"
"perumahan";"Komplek perumahan";"Lembah asri";"5PV7+M9C, Kusu Sinopa, Kec. Oba, Kota Tidore Kepulauan, Maluku Utara";"Kota Tidore Kepulauan, Maluku Utara";"MALUKU UTARA";"";"Indonesia";"";"0.1941814";"127.7133825";"https://maps.google.com/?cid=0x0:0x1a9654a95f2ea272"
"perumahan";"Komplek perumahan";"SAMSUL ARIFIN";"4PGF+HF4, Maidi, Kec. Oba Sel., Kota Tidore Kepulauan, Maluku Utara";"Kota Tidore Kepulauan, Maluku Utara";"MALUKU UTARA";"";"Indonesia";"";"0.1263859";"127.7237128";"https://maps.google.com/?cid=0x0:0xec975f4c8e7b9b74"
"perumahan";"Komplek perumahan";"M Sahil Ali";"3PR7+WF8, Wama, Kec. Oba Sel., Kota Tidore Kepulauan, Maluku Utara";"Kota Tidore Kepulauan, Maluku Utara";"MALUKU UTARA";"";"Indonesia";"";"0.0922961";"127.7137169";"https://maps.google.com/?cid=0x0:0x59b75fec4bc36f8a"
"perumahan";"perumahan";"Kec. Oba Sel.";"Kota Tidore Kepulauan, Maluku Utara";"Kota Tidore Kepulauan, Maluku Utara";"MALUKU UTARA";"";"Indonesia";"";"0.1136623";"127.7329973";"https://maps.google.com/?cid=0x0:0x98be6acd572d2bd7"
"perumahan";"Komplek perumahan";"Brams";"3PR7+GHV, Wama, Kec. Oba Sel., Kota Tidore Kepulauan, Maluku Utara";"Kota Tidore Kepulauan, Maluku Utara";"MALUKU UTARA";"";"Indonesia";"";"0.091324";"127.7138604";"https://maps.google.com/?cid=0x0:0x79a518935d78f892"
"perumahan";"Pembangunan Perumahan";"Rumah Irsal";"3PHC+JF, Lifofa, Kec. Oba Sel., Kota Tidore Kepulauan, Maluku Utara";"Kota Tidore Kepulauan, Maluku Utara";"MALUKU UTARA";"";"Indonesia";"";"0.0790558";"127.7211844";"https://maps.google.com/?cid=0x0:0x2cf44691b6e43d94"
"perumahan";"perumahan";"Maluku Utara 97813";"Tomagoba, Tidore, Kota Tidore Kepulauan, Maluku Utara";"Kota Tidore Kepulauan, Maluku Utara";"MALUKU UTARA";"";"Indonesia";"";"0.6695081";"127.4491185";"https://maps.google.com/?cid=0x0:0x546e6a7c69e552a0"
"perumahan";"perumahan";"Kec. Tidore Tim.";"Kota Tidore Kepulauan, Maluku Utara";"Kota Tidore Kepulauan, Maluku Utara";"MALUKU UTARA";"";"Indonesia";"";"0.6991758";"127.4554598";"https://maps.google.com/?cid=0x0:0x832cfd30aa51faba"
"perumahan";"Pembangunan Perumahan";"Perumahan Graha Acacia 3";"PHGJ+X2M, Bukit Durian, Oba Utara, Kota Tidore Kepulauan, Maluku Utara";"Kota Tidore Kepulauan, Maluku Utara";"MALUKU UTARA";"";"Indonesia";"";"0.7274639";"127.5800545";"https://maps.google.com/?cid=0x0:0x72d6b8f90fd84ae6"
"perumahan";"Vila";"Cymot Maradjabessy";"MC9X+FR8, Jl. Sulatn Nuku, Tomagoba, Tidore, Kota Tidore Kepulauan, Maluku Utara";"Kota Tidore Kepulauan, Maluku Utara";"MALUKU UTARA";"";"Indonesia";"";"0.6682431";"127.4492634";"https://maps.google.com/?cid=0x0:0xeb67f9d6b0ad4b0c"
"perumahan";"Komplek perumahan";"Abujajan";"MC9X+GF7, Jl. Ahmad Yani, Tomagoba, Tidore, Kota Tidore Kepulauan, Maluku Utara";"Kota Tidore Kepulauan, Maluku Utara";"MALUKU UTARA";"";"Indonesia";"";"0.6687944";"127.4486668";"https://maps.google.com/?cid=0x0:0x45f25385ce1f0dcd"
"perumahan";"Komplek perumahan";"Rumah Dahri wali";"MC9X+CQM, Tomagoba, Tidore, Kota Tidore Kepulauan, Maluku Utara";"Kota Tidore Kepulauan, Maluku Utara";"MALUKU UTARA";"";"Indonesia";"";"0.668576";"127.4494274";"https://maps.google.com/?cid=0x0:0x69ba1c41a20490a2"
"perumahan";"Komplek perumahan";"Abdurrahman ahmad";"MC9X+FR8, Jl. Raya Sultan Nuku, Tomagoba, Tidore, Kota Tidore Kepulauan, Maluku Utara";"Kota Tidore Kepulauan, Maluku Utara";"MALUKU UTARA";"";"Indonesia";"";"0.6686261";"127.4494368";"https://maps.google.com/?cid=0x0:0x867cc74bf7985d7a"
"perumahan";"Pengembang Realestat";"Griya Marimoi Indah";"Sofifi, Oba Utara, Kota Tidore Kepulauan, Maluku Utara";"Kota Tidore Kepulauan, Maluku Utara";"MALUKU UTARA";"";"Indonesia";" 081329410808";"0.7288403";"127.5593276";"https://maps.google.com/?cid=0x0:0xdf90dea77337aa07"
"perumahan";"Pembangunan Perumahan";"Perum Adigraha Sofifi";"PH79+9GW, Ampera, Oba Utara, Kota Tidore Kepulauan, Maluku Utara";"Kota Tidore Kepulauan, Maluku Utara";"MALUKU UTARA";"";"Indonesia";" 081333129988";"0.713479";"127.568822";"https://maps.google.com/?cid=0x0:0x8129b86c83c4e645"
"perumahan";"Kantor Pemerintah";"Kantor Walikota Tidore Kepulauan";"MCCW+JMG, Tomagoba, Tidore, Kota Tidore Kepulauan, Maluku Utara";"Kota Tidore Kepulauan, Maluku Utara";"MALUKU UTARA";"";"Indonesia";"";"0.6715522";"127.4467118";"https://maps.google.com/?cid=0x0:0xab3f6ce43c48e5e4"
"perumahan";"Rumah wisata";"PENGINAPAN DAN KOS-KOSAN BAROKAH ABADI";"MC9X+WMH, Tomagoba, Tidore, Kota Tidore Kepulauan, Maluku Utara";"Kota Tidore Kepulauan, Maluku Utara";"MALUKU UTARA";"";"Indonesia";" 082311906496";"0.6698121";"127.449246";"https://maps.google.com/?cid=0x0:0x713500e5f50e2c9f"
"housing complex";"housing complex";"Maluku Utara 97811";"Tomagoba, Tidore, Kota Tidore Kepulauan, Maluku Utara";"Kota Tidore Kepulauan, Maluku Utara";"MALUKU UTARA";"";"Indonesia";"";"0.672015";"127.4476026";"https://maps.google.com/?cid=0x0:0xa12ca31bbe90e0c1"
"housing complex";"Perhimpunan Pengembang Perumahan";"KANTOR PUSAT CV. AIRA PUTRI PRATAMA";"MCCX+XH2, Indonesiana, Tidore, Kota Tidore Kepulauan, Maluku Utara";"Kota Tidore Kepulauan, Maluku Utara";"MALUKU UTARA";"";"Indonesia";"";"0.6723882";"127.4489024";"https://maps.google.com/?cid=0x0:0x98a9a7533abe3d76"
"housing complex";"housing complex";"rumahhh";"P99M+MFQ, Jl. Raya Rum, Rum, Kec. Tidore Utara, Kota Tidore Kepulauan, Maluku Utara";"Kota Tidore Kepulauan, Maluku Utara";"MALUKU UTARA";"";"Indonesia";"";"0.7194364";"127.3843537";"https://maps.google.com/?cid=0x0:0xf9fd767d903eed35"
"housing complex";"housing complex";"Tidore";"Kota Tidore Kepulauan, Maluku Utara";"Kota Tidore Kepulauan, Maluku Utara";"MALUKU UTARA";"";"Indonesia";"";"0.659078";"127.4475867";"https://maps.google.com/?cid=0x0:0xee8f70bb2aa00f2e"
"housing complex";"Pembangunan Perumahan";"Perum Adigraha Sofifi";"PH79+9GW, Ampera, Oba Utara, Kota Tidore Kepulauan, Maluku Utara";"Kota Tidore Kepulauan, Maluku Utara";"MALUKU UTARA";"";"Indonesia";" 081333129988";"0.713479";"127.568822";"https://maps.google.com/?cid=0x0:0x8129b86c83c4e645"
"housing complex";"housing complex";"Rumah Fikram Mahifa";"MC5X+C8J, Jl. Ahmad Yani, Gamtufkange, Tidore, Kota Tidore Kepulauan, Maluku Utara";"Kota Tidore Kepulauan, Maluku Utara";"MALUKU UTARA";"";"Indonesia";"";"0.6585768";"127.4482727";"https://maps.google.com/?cid=0x0:0x6ca41b4ee4e6e91d"
"housing complex";"Komplek perumahan";"Abujajan";"MC9X+GF7, Jl. Ahmad Yani, Tomagoba, Tidore, Kota Tidore Kepulauan, Maluku Utara";"Kota Tidore Kepulauan, Maluku Utara";"MALUKU UTARA";"";"Indonesia";"";"0.6687944";"127.4486668";"https://maps.google.com/?cid=0x0:0x45f25385ce1f0dcd"
"housing complex";"Komplek perumahan";"Randy ojja";"MC9V+CCG, Tomagoba, Tidore, Kota Tidore Kepulauan, Maluku Utara";"Kota Tidore Kepulauan, Maluku Utara";"MALUKU UTARA";"";"Indonesia";"";"0.6663872";"127.4445065";"https://maps.google.com/?cid=0x0:0xadacbb0d3ac2344e"
"housing complex";"housing complex";"Maluku Utara 97852";"Sofifi, Oba Utara, Kota Tidore Kepulauan, Maluku Utara";"Kota Tidore Kepulauan, Maluku Utara";"MALUKU UTARA";"";"Indonesia";"";"0.7379173";"127.5706308";"https://maps.google.com/?cid=0x0:0xb05522de48530924"
"housing complex";"housing complex";"Gaia Hotel Ternate";"Jl. Sultan M. Djabir Sjah, Gamalama, Kec. Kota Ternate Utara, Kota Ternate, Maluku Utara 97721";"Gamalama, Kec. Kota Ternate Utara, Kota Ternate";"MALUKU UTARA";"97721";"Indonesia";" 0811433446";"0.792091";"127.3896633";"https://maps.google.com/?cid=0x0:0xc34d900beeadb45b"
"housing complex";"housing complex";"Maluku Utara 97852";"Sofifi, Oba Utara, Kota Tidore Kepulauan, Maluku Utara";"Kota Tidore Kepulauan, Maluku Utara";"MALUKU UTARA";"";"Indonesia";"";"0.7379173";"127.5706308";"https://maps.google.com/?cid=0x0:0xb05522de48530924"
"housing complex";"housing complex";"Gaia Hotel Ternate";"Jl. Sultan M. Djabir Sjah, Gamalama, Kec. Kota Ternate Utara, Kota Ternate, Maluku Utara 97721";"Gamalama, Kec. Kota Ternate Utara, Kota Ternate";"MALUKU UTARA";"97721";"Indonesia";" 0811433446";"0.792091";"127.3896633";"https://maps.google.com/?cid=0x0:0xc34d900beeadb45b"
"housing complex";"Komplek perumahan";"Abujajan";"MC9X+GF7, Jl. Ahmad Yani, Tomagoba, Tidore, Kota Tidore Kepulauan, Maluku Utara";"Kota Tidore Kepulauan, Maluku Utara";"MALUKU UTARA";"";"Indonesia";"";"0.6687944";"127.4486668";"https://maps.google.com/?cid=0x0:0x45f25385ce1f0dcd"
"housing complex";"Komplek perumahan";"Abdurrahman ahmad";"MC9X+FR8, Jl. Raya Sultan Nuku, Tomagoba, Tidore, Kota Tidore Kepulauan, Maluku Utara";"Kota Tidore Kepulauan, Maluku Utara";"MALUKU UTARA";"";"Indonesia";"";"0.6686261";"127.4494368";"https://maps.google.com/?cid=0x0:0x867cc74bf7985d7a"
"housing complex";"housing complex";"Maluku Utara 97813";"Tomagoba, Tidore, Kota Tidore Kepulauan, Maluku Utara";"Kota Tidore Kepulauan, Maluku Utara";"MALUKU UTARA";"";"Indonesia";"";"0.6695081";"127.4491185";"https://maps.google.com/?cid=0x0:0x546e6a7c69e552a0"
"housing complex";"Komplek perumahan";"Abujajan";"MC9X+GF7, Jl. Ahmad Yani, Tomagoba, Tidore, Kota Tidore Kepulauan, Maluku Utara";"Kota Tidore Kepulauan, Maluku Utara";"MALUKU UTARA";"";"Indonesia";"";"0.6687944";"127.4486668";"https://maps.google.com/?cid=0x0:0x45f25385ce1f0dcd"
"housing complex";"housing complex";"Maluku Utara 97813";"Tomagoba, Tidore, Kota Tidore Kepulauan, Maluku Utara";"Kota Tidore Kepulauan, Maluku Utara";"MALUKU UTARA";"";"Indonesia";"";"0.6695081";"127.4491185";"https://maps.google.com/?cid=0x0:0x546e6a7c69e552a0"
"housing complex";"Komplek perumahan";"Abdurrahman ahmad";"MC9X+FR8, Jl. Raya Sultan Nuku, Tomagoba, Tidore, Kota Tidore Kepulauan, Maluku Utara";"Kota Tidore Kepulauan, Maluku Utara";"MALUKU UTARA";"";"Indonesia";"";"0.6686261";"127.4494368";"https://maps.google.com/?cid=0x0:0x867cc74bf7985d7a"
"housing complex";"housing complex";"Gaia Hotel Ternate";"Jl. Sultan M. Djabir Sjah, Gamalama, Kec. Kota Ternate Utara, Kota Ternate, Maluku Utara 97721";"Gamalama, Kec. Kota Ternate Utara, Kota Ternate";"MALUKU UTARA";"97721";"Indonesia";" 0811433446";"0.792091";"127.3896633";"https://maps.google.com/?cid=0x0:0xc34d900beeadb45b"
"housing complex";"housing complex";"Maluku Utara 97852";"Sofifi, Oba Utara, Kota Tidore Kepulauan, Maluku Utara";"Kota Tidore Kepulauan, Maluku Utara";"MALUKU UTARA";"";"Indonesia";"";"0.7379173";"127.5706308";"https://maps.google.com/?cid=0x0:0xb05522de48530924"
"housing complex";"housing complex";"Maluku Utara 97852";"Sofifi, Oba Utara, Kota Tidore Kepulauan, Maluku Utara";"Kota Tidore Kepulauan, Maluku Utara";"MALUKU UTARA";"";"Indonesia";"";"0.7379173";"127.5706308";"https://maps.google.com/?cid=0x0:0xb05522de48530924"
"housing complex";"housing complex";"Kec. Oba Sel.";"Kota Tidore Kepulauan, Maluku Utara";"Kota Tidore Kepulauan, Maluku Utara";"MALUKU UTARA";"";"Indonesia";"";"0.1136623";"127.7329973";"https://maps.google.com/?cid=0x0:0x98be6acd572d2bd7"
"housing complex";"Komplek perumahan";"Abujajan";"MC9X+GF7, Jl. Ahmad Yani, Tomagoba, Tidore, Kota Tidore Kepulauan, Maluku Utara";"Kota Tidore Kepulauan, Maluku Utara";"MALUKU UTARA";"";"Indonesia";"";"0.6687944";"127.4486668";"https://maps.google.com/?cid=0x0:0x45f25385ce1f0dcd"
"housing complex";"Komplek perumahan";"Randy ojja";"MC9V+CCG, Tomagoba, Tidore, Kota Tidore Kepulauan, Maluku Utara";"Kota Tidore Kepulauan, Maluku Utara";"MALUKU UTARA";"";"Indonesia";"";"0.6663872";"127.4445065";"https://maps.google.com/?cid=0x0:0xadacbb0d3ac2344e"
"housing complex";"housing complex";"rumahhh";"P99M+MFQ, Jl. Raya Rum, Rum, Kec. Tidore Utara, Kota Tidore Kepulauan, Maluku Utara";"Kota Tidore Kepulauan, Maluku Utara";"MALUKU UTARA";"";"Indonesia";"";"0.7194364";"127.3843537";"https://maps.google.com/?cid=0x0:0xf9fd767d903eed35"
"toko bangunan";"toko bangunan";"Maluku Utara 97811";"Tomagoba, Tidore, Kota Tidore Kepulauan, Maluku Utara";"Kota Tidore Kepulauan, Maluku Utara";"MALUKU UTARA";"";"Indonesia";"";"0.672015";"127.4476026";"https://maps.google.com/?cid=0x0:0xa12ca31bbe90e0c1"
"toko bangunan";"Pasar bahan bangunan";"Toko Intisari2";"PHRH+XHX, Jl. Hijra, Galala, Oba Utara, Kota Tidore Kepulauan, Maluku Utara";"Kota Tidore Kepulauan, Maluku Utara";"MALUKU UTARA";"";"Indonesia";" 08124751378";"0.7424771";"127.5789924";"https://maps.google.com/?cid=0x0:0x25129a2cfa046c97"
"toko bangunan";"Toko Bahan Bangunan";"toko tiga sudara";"Sofifi, Oba Utara, Kota Tidore Kepulauan, Maluku Utara 97827";"Oba Utara, Kota Tidore Kepulauan";"MALUKU UTARA";"97827";"Indonesia";" 081254754924";"0.736746";"127.5616839";"https://maps.google.com/?cid=0x0:0xf8fcda3f079eaf0c"
"toko bangunan";"Toko Bahan Bangunan";"TOKO INTISARI";"MFG3+QW5, Jl. Kemakmuran, Indonesiana, Tidore, Kota Tidore Kepulauan, Maluku Utara";"Kota Tidore Kepulauan, Maluku Utara";"MALUKU UTARA";"";"Indonesia";"";"0.6770543";"127.4547754";"https://maps.google.com/?cid=0x0:0xe2a1d601500af094"
"toko bangunan";"Toko Bahan Bangunan";"Toko bangunan Jaya Sofifi";"PHP6+868, Jl. Trans Halmahera, Sofifi, Oba Utara, Kota Tidore Kepulauan, Maluku Utara";"Kota Tidore Kepulauan, Maluku Utara";"MALUKU UTARA";"";"Indonesia";"";"0.7359648";"127.5607535";"https://maps.google.com/?cid=0x0:0x918381d7d5a8aa2a"
"toko bangunan";"Toko Bahan Bangunan";"UD. BINTANG UTARA";"P95H+GW2, Ome, Kec. Tidore Utara, Kota Tidore Kepulauan, Maluku Utara 97813";"Ome, Kec. Tidore Utara, Kota Tidore Kepulauan";"MALUKU UTARA";"97813";"Indonesia";" 082190642103";"0.7087554";"127.3797693";"https://maps.google.com/?cid=0x0:0xe1b539aaf2e09f0b"
"toko bangunan";"";"TOKO KARYA MATERIAL";"TOKO KARYA MATERIAL, Oba, Oba Utara, Kota Tidore Kepulauan, Maluku Utara";"Kota Tidore Kepulauan, Maluku Utara";"MALUKU UTARA";"";"Indonesia";"";"0.721457";"127.560901";"https://maps.google.com/?cid=0x0:0xcd9869875aa14ce1"
"toko bangunan";"Toko Bahan Bangunan";"Toko Murah Jaya";"MFJ3+CG9, Goto, Tidore, Kota Tidore Kepulauan, Maluku Utara";"Kota Tidore Kepulauan, Maluku Utara";"MALUKU UTARA";"";"Indonesia";"";"0.6807938";"127.4539007";"https://maps.google.com/?cid=0x0:0x3bf53d7f0b6883c2"
"toko bangunan";"Komplek perumahan";"TOKO NURU";"MFR3+FFM, Jl. Frans Kaisepo, Dowora, Kec. Tidore Tim., Kota Tidore Kepulauan, Maluku Utara";"Kota Tidore Kepulauan, Maluku Utara";"MALUKU UTARA";"";"Indonesia";"";"0.6912412";"127.453673";"https://maps.google.com/?cid=0x0:0x9110a87b0c100e37"
"toko bangunan";"toko bangunan";"Tidore";"Kota Tidore Kepulauan, Maluku Utara";"Kota Tidore Kepulauan, Maluku Utara";"MALUKU UTARA";"";"Indonesia";"";"0.659078";"127.4475867";"https://maps.google.com/?cid=0x0:0xee8f70bb2aa00f2e"
"toko bangunan";"Toko Bahan Bangunan";"ISTANA EDDY";"MFM3+XG3, Jl. Kemakmuran, Dowora, Tidore, Kota Tidore Kepulauan, Maluku Utara";"Kota Tidore Kepulauan, Maluku Utara";"MALUKU UTARA";"";"Indonesia";" 082349925370";"0.6848855";"127.4538034";"https://maps.google.com/?cid=0x0:0xebb2f5d3106ea4df"
"toko bangunan";"toko bangunan";"Tidore";"Kota Tidore Kepulauan, Maluku Utara";"Kota Tidore Kepulauan, Maluku Utara";"MALUKU UTARA";"";"Indonesia";"";"0.659078";"127.4475867";"https://maps.google.com/?cid=0x0:0xee8f70bb2aa00f2e"
"toko bangunan";"Komplek perumahan";"TOKO NURU";"MFR3+FFM, Jl. Frans Kaisepo, Dowora, Kec. Tidore Tim., Kota Tidore Kepulauan, Maluku Utara";"Kota Tidore Kepulauan, Maluku Utara";"MALUKU UTARA";"";"Indonesia";"";"0.6912412";"127.453673";"https://maps.google.com/?cid=0x0:0x9110a87b0c100e37"
"toko bangunan";"Toko Bahan Bangunan";"Toko AA Tidore";"MFG3+CXG, Indonesiana, Tidore, Kota Tidore Kepulauan, Maluku Utara";"Kota Tidore Kepulauan, Maluku Utara";"MALUKU UTARA";"";"Indonesia";"";"0.6760502";"127.4549474";"https://maps.google.com/?cid=0x0:0x42df8bb39f5ce3f"
"toko bangunan";"Toko Bahan Bangunan";"TOKO INTISARI";"MFG3+QW5, Jl. Kemakmuran, Indonesiana, Tidore, Kota Tidore Kepulauan, Maluku Utara";"Kota Tidore Kepulauan, Maluku Utara";"MALUKU UTARA";"";"Indonesia";"";"0.6770543";"127.4547754";"https://maps.google.com/?cid=0x0:0xe2a1d601500af094"
"toko bangunan";"Toko Bahan Bangunan";"ISTANA EDDY";"MFM3+XG3, Jl. Kemakmuran, Dowora, Tidore, Kota Tidore Kepulauan, Maluku Utara";"Kota Tidore Kepulauan, Maluku Utara";"MALUKU UTARA";"";"Indonesia";" 082349925370";"0.6848855";"127.4538034";"https://maps.google.com/?cid=0x0:0xebb2f5d3106ea4df"
"toko bangunan";"Toko Bahan Bangunan";"Toko Murah Jaya";"MFJ3+CG9, Goto, Tidore, Kota Tidore Kepulauan, Maluku Utara";"Kota Tidore Kepulauan, Maluku Utara";"MALUKU UTARA";"";"Indonesia";"";"0.6807938";"127.4539007";"https://maps.google.com/?cid=0x0:0x3bf53d7f0b6883c2"
"toko bangunan";"Toko Bahan Bangunan";"Toko bangunan Jaya Sofifi";"PHP6+868, Jl. Trans Halmahera, Sofifi, Oba Utara, Kota Tidore Kepulauan, Maluku Utara";"Kota Tidore Kepulauan, Maluku Utara";"MALUKU UTARA";"";"Indonesia";"";"0.7359648";"127.5607535";"https://maps.google.com/?cid=0x0:0x918381d7d5a8aa2a"
"toko bangunan";"Toko Bahan Bangunan";"toko tiga sudara";"Sofifi, Oba Utara, Kota Tidore Kepulauan, Maluku Utara 97827";"Oba Utara, Kota Tidore Kepulauan";"MALUKU UTARA";"97827";"Indonesia";" 081254754924";"0.736746";"127.5616839";"https://maps.google.com/?cid=0x0:0xf8fcda3f079eaf0c"
"toko bangunan";"toko bangunan";"Pulau Tidore";"Kota Tidore Kepulauan, Maluku Utara";"Kota Tidore Kepulauan, Maluku Utara";"MALUKU UTARA";"";"Indonesia";"";"0.6740044";"127.4040871";"https://maps.google.com/?cid=0x0:0xa1475cfd7b0f2a9"
"toko bangunan";"Toko Bahan Bangunan";"Toko AA Tidore";"MFG3+CXG, Indonesiana, Tidore, Kota Tidore Kepulauan, Maluku Utara";"Kota Tidore Kepulauan, Maluku Utara";"MALUKU UTARA";"";"Indonesia";"";"0.6760502";"127.4549474";"https://maps.google.com/?cid=0x0:0x42df8bb39f5ce3f"
"toko bangunan";"Toko Bahan Bangunan";"Toko Murah Jaya";"MFJ3+CG9, Goto, Tidore, Kota Tidore Kepulauan, Maluku Utara";"Kota Tidore Kepulauan, Maluku Utara";"MALUKU UTARA";"";"Indonesia";"";"0.6807938";"127.4539007";"https://maps.google.com/?cid=0x0:0x3bf53d7f0b6883c2"
"toko bangunan";"toko bangunan";"Maluku Utara 97813";"Tomagoba, Tidore, Kota Tidore Kepulauan, Maluku Utara";"Kota Tidore Kepulauan, Maluku Utara";"MALUKU UTARA";"";"Indonesia";"";"0.6695081";"127.4491185";"https://maps.google.com/?cid=0x0:0x546e6a7c69e552a0"
"toko bangunan";"Toko Bahan Bangunan";"toko tiga sudara";"Sofifi, Oba Utara, Kota Tidore Kepulauan, Maluku Utara 97827";"Oba Utara, Kota Tidore Kepulauan";"MALUKU UTARA";"97827";"Indonesia";" 081254754924";"0.736746";"127.5616839";"https://maps.google.com/?cid=0x0:0xf8fcda3f079eaf0c"
"toko bangunan";"Toko Bahan Bangunan";"UD. BINTANG UTARA";"P95H+GW2, Ome, Kec. Tidore Utara, Kota Tidore Kepulauan, Maluku Utara 97813";"Ome, Kec. Tidore Utara, Kota Tidore Kepulauan";"MALUKU UTARA";"97813";"Indonesia";" 082190642103";"0.7087554";"127.3797693";"https://maps.google.com/?cid=0x0:0xe1b539aaf2e09f0b"
"toko bangunan";"Pasar bahan bangunan";"Toko Intisari2";"PHRH+XHX, Jl. Hijra, Galala, Oba Utara, Kota Tidore Kepulauan, Maluku Utara";"Kota Tidore Kepulauan, Maluku Utara";"MALUKU UTARA";"";"Indonesia";" 08124751378";"0.7424771";"127.5789924";"https://maps.google.com/?cid=0x0:0x25129a2cfa046c97"
"toko bangunan";"toko bangunan";"Maluku Utara 97852";"Sofifi, Oba Utara, Kota Tidore Kepulauan, Maluku Utara";"Kota Tidore Kepulauan, Maluku Utara";"MALUKU UTARA";"";"Indonesia";"";"0.7379173";"127.5706308";"https://maps.google.com/?cid=0x0:0xb05522de48530924"
"toko bangunan";"Toko Bahan Bangunan";"Toko EKA JAYA BAKTI";"PH57+2QM, Jl. Trans Halmahera, Akekolano, Oba Utara, Kota Tidore Kepulauan, Maluku Utara";"Kota Tidore Kepulauan, Maluku Utara";"MALUKU UTARA";"";"Indonesia";" 082182834356";"0.7075776";"127.5644127";"https://maps.google.com/?cid=0x0:0x13da7c508ebe70c7"
"toko bangunan";"";"TOKO KARYA MATERIAL";"TOKO KARYA MATERIAL, Oba, Oba Utara, Kota Tidore Kepulauan, Maluku Utara";"Kota Tidore Kepulauan, Maluku Utara";"MALUKU UTARA";"";"Indonesia";"";"0.721457";"127.560901";"https://maps.google.com/?cid=0x0:0xcd9869875aa14ce1"
"toko bangunan";"Toko Bahan Bangunan";"Toko bangunan Jaya Sofifi";"PHP6+868, Jl. Trans Halmahera, Sofifi, Oba Utara, Kota Tidore Kepulauan, Maluku Utara";"Kota Tidore Kepulauan, Maluku Utara";"MALUKU UTARA";"";"Indonesia";"";"0.7359648";"127.5607535";"https://maps.google.com/?cid=0x0:0x918381d7d5a8aa2a"
"toko bangunan";"Toko Bahan Bangunan";"Makmur Utama Supermarket Bahan Bangunan";"Jambula, Kec. Pulau Ternate, Kota Ternate, Maluku Utara";"Kota Ternate, Maluku Utara";"MALUKU UTARA";"";"Indonesia";" 08114313899";"0.7581804";"127.3220409";"https://maps.google.com/?cid=0x0:0xe3a01731f7851efa"
"toko bangunan";"Toko Bahan Bangunan";"Toko AA Tidore";"MFG3+CXG, Indonesiana, Tidore, Kota Tidore Kepulauan, Maluku Utara";"Kota Tidore Kepulauan, Maluku Utara";"MALUKU UTARA";"";"Indonesia";"";"0.6760502";"127.4549474";"https://maps.google.com/?cid=0x0:0x42df8bb39f5ce3f"
"toko bangunan";"Toko Bahan Bangunan";"Toko Mitra Bangunan";"Jl. Pahlawan Revolusi No.3, Muhajirin, Kec. Ternate Tengah, Kota Ternate, Maluku Utara 97721";"Muhajirin, Kec. Ternate Tengah, Kota Ternate";"MALUKU UTARA";"97721";"Indonesia";" 08124217777";"0.7863051";"127.3886452";"https://maps.google.com/?cid=0x0:0x182c1f07e66842a"
"toko bangunan";"Toko Bahan Bangunan";"Pierre marth bangunan";"PH67+XHV, Akekolano, Oba Utara, Kota Tidore Kepulauan, Maluku Utara";"Kota Tidore Kepulauan, Maluku Utara";"MALUKU UTARA";"";"Indonesia";"";"0.7124937";"127.56391";"https://maps.google.com/?cid=0x0:0x1193436e8fda575c"
"toko bangunan";"toko bangunan";"Toko karya bangunan";"PH68+5WW, Akekolano, Oba Utara, Kota Tidore Kepulauan, Maluku Utara";"Kota Tidore Kepulauan, Maluku Utara";"MALUKU UTARA";"";"Indonesia";"";"0.7104775";"127.56734";"https://maps.google.com/?cid=0x0:0xb1398007e7ca17e4"
"toko bangunan";"toko bangunan";"Maluku Utara 97852";"Sofifi, Oba Utara, Kota Tidore Kepulauan, Maluku Utara";"Kota Tidore Kepulauan, Maluku Utara";"MALUKU UTARA";"";"Indonesia";"";"0.7379173";"127.5706308";"https://maps.google.com/?cid=0x0:0xb05522de48530924"
"toko bangunan";"Toko Bahan Bangunan";"toko tiga sudara";"Sofifi, Oba Utara, Kota Tidore Kepulauan, Maluku Utara 97827";"Oba Utara, Kota Tidore Kepulauan";"MALUKU UTARA";"97827";"Indonesia";" 081254754924";"0.736746";"127.5616839";"https://maps.google.com/?cid=0x0:0xf8fcda3f079eaf0c"
"toko bangunan";"Pasar bahan bangunan";"Toko Intisari2";"PHRH+XHX, Jl. Hijra, Galala, Oba Utara, Kota Tidore Kepulauan, Maluku Utara";"Kota Tidore Kepulauan, Maluku Utara";"MALUKU UTARA";"";"Indonesia";" 08124751378";"0.7424771";"127.5789924";"https://maps.google.com/?cid=0x0:0x25129a2cfa046c97"
"toko bangunan";"Toko Bahan Bangunan";"Toko EKA JAYA BAKTI";"PH57+2QM, Jl. Trans Halmahera, Akekolano, Oba Utara, Kota Tidore Kepulauan, Maluku Utara";"Kota Tidore Kepulauan, Maluku Utara";"MALUKU UTARA";"";"Indonesia";" 082182834356";"0.7075776";"127.5644127";"https://maps.google.com/?cid=0x0:0x13da7c508ebe70c7"
"toko bangunan";"";"TOKO KARYA MATERIAL";"TOKO KARYA MATERIAL, Oba, Oba Utara, Kota Tidore Kepulauan, Maluku Utara";"Kota Tidore Kepulauan, Maluku Utara";"MALUKU UTARA";"";"Indonesia";"";"0.721457";"127.560901";"https://maps.google.com/?cid=0x0:0xcd9869875aa14ce1"
"toko bangunan";"Toko Bahan Bangunan";"Makmur Utama Supermarket Bahan Bangunan";"Jambula, Kec. Pulau Ternate, Kota Ternate, Maluku Utara";"Kota Ternate, Maluku Utara";"MALUKU UTARA";"";"Indonesia";" 08114313899";"0.7581804";"127.3220409";"https://maps.google.com/?cid=0x0:0xe3a01731f7851efa"
"toko bangunan";"Toko Bahan Bangunan";"Makmur Utama Supermarket Bahan Bangunan";"Jl. Yasin Gamsungi No.2 Kec. ternate tengah, Kel, Makassar Tim., Makassar Timur, Kota Ternate, Maluku Utara 97724";"Kel, Makassar Tim., Makassar Timur, Kota Ternate";"MALUKU UTARA";"97724";"Indonesia";" 08114313799";"0.7940352";"127.3876695";"https://maps.google.com/?cid=0x0:0x2f492ae87bf64247"
"toko bangunan";"Toko Bahan Bangunan";"Toko Mitra Bangunan";"Jl. Pahlawan Revolusi No.3, Muhajirin, Kec. Ternate Tengah, Kota Ternate, Maluku Utara 97721";"Muhajirin, Kec. Ternate Tengah, Kota Ternate";"MALUKU UTARA";"97721";"Indonesia";" 08124217777";"0.7863051";"127.3886452";"https://maps.google.com/?cid=0x0:0x182c1f07e66842a"
"toko bangunan";"Toko Bahan Bangunan";"Pierre marth bangunan";"PH67+XHV, Akekolano, Oba Utara, Kota Tidore Kepulauan, Maluku Utara";"Kota Tidore Kepulauan, Maluku Utara";"MALUKU UTARA";"";"Indonesia";"";"0.7124937";"127.56391";"https://maps.google.com/?cid=0x0:0x1193436e8fda575c"
"toko bangunan";"Toko Bahan Bangunan";"Toko Bangunan Hari-hari";"Jl. Mandala Utara No.21, RT.17/RW.4, Tomang, Kec. Grogol petamburan, Kota Jakarta Barat, Daerah Khusus Ibukota Jakarta 11440";"RT.17/RW.4, Tomang, Kec. Grogol petamburan, Kota Jakarta Barat";"MALUKU UTARA";"11440";"Indonesia";" 0215642893";"-6.1721247";"106.7983298";"https://maps.google.com/?cid=0x0:0x91aa30314dd11ef"
"toko bangunan";"Toko Bahan Bangunan";"Toko Bangunan Mahkota Jaya";"13, Jl. Tomang Tinggi Raya No.43, RT.13/RW.7, Tomang, Kec. Grogol petamburan, Kota Jakarta Barat, Daerah Khusus Ibukota Jakarta 11440";"Jl. Tomang Tinggi Raya No.43, RT.13/RW.7, Tomang, Kec. Grogol petamburan, Kota Jakarta Barat";"MALUKU UTARA";"11440";"Indonesia";" 0215606769";"-6.171893";"106.7957951";"https://maps.google.com/?cid=0x0:0xdf91e3e0700c97ca"
"toko bangunan";"Toko bahan makanan";"Agen cemerlang";"Jl. Tomang Utara No.2, RT.5/RW.10, Tomang, Kec. Grogol petamburan, Kota Jakarta Barat, Daerah Khusus Ibukota Jakarta 11440";"RT.5/RW.10, Tomang, Kec. Grogol petamburan, Kota Jakarta Barat";"MALUKU UTARA";"11440";"Indonesia";"";"-6.1700008";"106.8002348";"https://maps.google.com/?cid=0x0:0xe897532a4a150b49"
"toko bangunan";"toko bangunan";"Maluku Utara 97813";"Tomagoba, Tidore, Kota Tidore Kepulauan, Maluku Utara";"Kota Tidore Kepulauan, Maluku Utara";"MALUKU UTARA";"";"Indonesia";"";"0.6695081";"127.4491185";"https://maps.google.com/?cid=0x0:0x546e6a7c69e552a0"
"toko bangunan";"Pasar bahan bangunan";"Toko Intisari2";"PHRH+XHX, Jl. Hijra, Galala, Oba Utara, Kota Tidore Kepulauan, Maluku Utara";"Kota Tidore Kepulauan, Maluku Utara";"MALUKU UTARA";"";"Indonesia";" 08124751378";"0.7424771";"127.5789924";"https://maps.google.com/?cid=0x0:0x25129a2cfa046c97"
"toko bangunan";"Toko Bahan Bangunan";"Toko AA Tidore";"MFG3+CXG, Indonesiana, Tidore, Kota Tidore Kepulauan, Maluku Utara";"Kota Tidore Kepulauan, Maluku Utara";"MALUKU UTARA";"";"Indonesia";"";"0.6760502";"127.4549474";"https://maps.google.com/?cid=0x0:0x42df8bb39f5ce3f"
"toko bangunan";"Toko Bahan Bangunan";"Toko bangunan Jaya Sofifi";"PHP6+868, Jl. Trans Halmahera, Sofifi, Oba Utara, Kota Tidore Kepulauan, Maluku Utara";"Kota Tidore Kepulauan, Maluku Utara";"MALUKU UTARA";"";"Indonesia";"";"0.7359648";"127.5607535";"https://maps.google.com/?cid=0x0:0x918381d7d5a8aa2a"
"toko bangunan";"Toko Bahan Bangunan";"UD. BINTANG UTARA";"P95H+GW2, Ome, Kec. Tidore Utara, Kota Tidore Kepulauan, Maluku Utara 97813";"Ome, Kec. Tidore Utara, Kota Tidore Kepulauan";"MALUKU UTARA";"97813";"Indonesia";" 082190642103";"0.7087554";"127.3797693";"https://maps.google.com/?cid=0x0:0xe1b539aaf2e09f0b"
"toko bangunan";"Toko Bahan Bangunan";"Toko Bangunan "MITRA BANGUNAN"";"8VMJ+P37, Fidi Jaya, Kec. Weda Tengah, Kabupaten Halmahera Tengah, Maluku Utara";"Kabupaten Halmahera Tengah, Maluku Utara";"MALUKU UTARA";"";"Indonesia";"";"0.334292";"127.8801666";"https://maps.google.com/?cid=0x0:0x6db8eb4715256fc8"
"toko bangunan";"Toko Bahan Bangunan";"Toko Mitra Bangunan";"Jl. Pahlawan Revolusi No.3, Muhajirin, Kec. Ternate Tengah, Kota Ternate, Maluku Utara 97721";"Muhajirin, Kec. Ternate Tengah, Kota Ternate";"MALUKU UTARA";"97721";"Indonesia";" 08124217777";"0.7863051";"127.3886452";"https://maps.google.com/?cid=0x0:0x182c1f07e66842a"
"toko bangunan";"Toko Bahan Bangunan";"Makmur Utama Supermarket Bahan Bangunan";"Jambula, Kec. Pulau Ternate, Kota Ternate, Maluku Utara";"Kota Ternate, Maluku Utara";"MALUKU UTARA";"";"Indonesia";" 08114313899";"0.7581804";"127.3220409";"https://maps.google.com/?cid=0x0:0xe3a01731f7851efa"
"toko bangunan";"Pasar bahan bangunan";"Toko Sumber Bangunan";"P2G6+2MM, Gamsungi, Kec. Tobelo, Kabupaten Halmahera Utara, Maluku Utara";"Kabupaten Halmahera Utara, Maluku Utara";"MALUKU UTARA";"";"Indonesia";" 09242621455";"1.7250967";"128.0116677";"https://maps.google.com/?cid=0x0:0x14835095227102f4"
"toko bangunan";"Toko Bahan Bangunan";"Makmur Utama Supermarket Bahan Bangunan";"Jl. Yasin Gamsungi No.2 Kec. ternate tengah, Kel, Makassar Tim., Makassar Timur, Kota Ternate, Maluku Utara 97724";"Kel, Makassar Tim., Makassar Timur, Kota Ternate";"MALUKU UTARA";"97724";"Indonesia";" 08114313799";"0.7940352";"127.3876695";"https://maps.google.com/?cid=0x0:0x2f492ae87bf64247"
"toko bangunan";"Toko Bahan Bangunan";"Sumber Bangunan Toko";"Q9QQ+6G6, Jl. Pahlawan Revolusi, Gamalama, Kec. Ternate Tengah, Kota Ternate, Maluku Utara 97721";"Jl. Pahlawan Revolusi, Gamalama, Kec. Ternate Tengah, Kota Ternate";"MALUKU UTARA";"97721";"Indonesia";" 085236820531";"0.7880369";"127.3887754";"https://maps.google.com/?cid=0x0:0x7a0cc1ba5ffa9416"
"toko bangunan";"Toko Swalayan";"intisari store";"Jl. Ps. Inpres Bastiong, Bastiong Talangame, Kec. Ternate Sel., Kota Ternate, Maluku Utara";"Kota Ternate, Maluku Utara";"MALUKU UTARA";"";"Indonesia";"";"0.7662427";"127.3764876";"https://maps.google.com/?cid=0x0:0xb5fca1232cdd4082"
"toko bangunan";"Toko Bahan Bangunan";"Toko Sejati Bangunan";"Jalan Raya Wosia, Depan Saro Nifero, Samping Dealer Honda CV.Lion, Mahia, Kec. Tobelo, Maluku Utara 97762";"Depan Saro Nifero, Samping Dealer Honda CV.Lion, Mahia, Kec. Tobelo";"MALUKU UTARA";"97762";"Indonesia";" 082195215789";"1.7063845";"128.0084905";"https://maps.google.com/?cid=0x0:0xe07acc47d25781c8"
"toko bangunan";"Toko Bahan Bangunan";"Pierre marth bangunan";"PH67+XHV, Akekolano, Oba Utara, Kota Tidore Kepulauan, Maluku Utara";"Kota Tidore Kepulauan, Maluku Utara";"MALUKU UTARA";"";"Indonesia";"";"0.7124937";"127.56391";"https://maps.google.com/?cid=0x0:0x1193436e8fda575c"
"toko bangunan";"toko bangunan";"Maluku Utara 97813";"Tomagoba, Tidore, Kota Tidore Kepulauan, Maluku Utara";"Kota Tidore Kepulauan, Maluku Utara";"MALUKU UTARA";"";"Indonesia";"";"0.6695081";"127.4491185";"https://maps.google.com/?cid=0x0:0x546e6a7c69e552a0"
"toko bangunan";"Toko Bahan Bangunan";"Toko AA Tidore";"MFG3+CXG, Indonesiana, Tidore, Kota Tidore Kepulauan, Maluku Utara";"Kota Tidore Kepulauan, Maluku Utara";"MALUKU UTARA";"";"Indonesia";"";"0.6760502";"127.4549474";"https://maps.google.com/?cid=0x0:0x42df8bb39f5ce3f"
"toko bangunan";"Pasar bahan bangunan";"Toko Intisari2";"PHRH+XHX, Jl. Hijra, Galala, Oba Utara, Kota Tidore Kepulauan, Maluku Utara";"Kota Tidore Kepulauan, Maluku Utara";"MALUKU UTARA";"";"Indonesia";" 08124751378";"0.7424771";"127.5789924";"https://maps.google.com/?cid=0x0:0x25129a2cfa046c97"
"toko bangunan";"Komplek perumahan";"TOKO NURU";"MFR3+FFM, Jl. Frans Kaisepo, Dowora, Kec. Tidore Tim., Kota Tidore Kepulauan, Maluku Utara";"Kota Tidore Kepulauan, Maluku Utara";"MALUKU UTARA";"";"Indonesia";"";"0.6912412";"127.453673";"https://maps.google.com/?cid=0x0:0x9110a87b0c100e37"
"toko bangunan";"Toko Bahan Bangunan";"toko tiga sudara";"Sofifi, Oba Utara, Kota Tidore Kepulauan, Maluku Utara 97827";"Oba Utara, Kota Tidore Kepulauan";"MALUKU UTARA";"97827";"Indonesia";" 081254754924";"0.736746";"127.5616839";"https://maps.google.com/?cid=0x0:0xf8fcda3f079eaf0c"
"toko bangunan";"Toko Bahan Bangunan";"Toko bangunan Jaya Sofifi";"PHP6+868, Jl. Trans Halmahera, Sofifi, Oba Utara, Kota Tidore Kepulauan, Maluku Utara";"Kota Tidore Kepulauan, Maluku Utara";"MALUKU UTARA";"";"Indonesia";"";"0.7359648";"127.5607535";"https://maps.google.com/?cid=0x0:0x918381d7d5a8aa2a"
"toko bangunan";"Toko Bahan Bangunan";"UD. BINTANG UTARA";"P95H+GW2, Ome, Kec. Tidore Utara, Kota Tidore Kepulauan, Maluku Utara 97813";"Ome, Kec. Tidore Utara, Kota Tidore Kepulauan";"MALUKU UTARA";"97813";"Indonesia";" 082190642103";"0.7087554";"127.3797693";"https://maps.google.com/?cid=0x0:0xe1b539aaf2e09f0b"
"toko bangunan";"Toko Bahan Bangunan";"Toko Mitra Bangunan";"Jl. Pahlawan Revolusi No.3, Muhajirin, Kec. Ternate Tengah, Kota Ternate, Maluku Utara 97721";"Muhajirin, Kec. Ternate Tengah, Kota Ternate";"MALUKU UTARA";"97721";"Indonesia";" 08124217777";"0.7863051";"127.3886452";"https://maps.google.com/?cid=0x0:0x182c1f07e66842a"
"toko bangunan";"Toko Bahan Bangunan";"Toko EKA JAYA BAKTI";"PH57+2QM, Jl. Trans Halmahera, Akekolano, Oba Utara, Kota Tidore Kepulauan, Maluku Utara";"Kota Tidore Kepulauan, Maluku Utara";"MALUKU UTARA";"";"Indonesia";" 082182834356";"0.7075776";"127.5644127";"https://maps.google.com/?cid=0x0:0x13da7c508ebe70c7"
"toko bangunan";"Toko Bahan Bangunan";"Toko Murah Jaya";"MFJ3+CG9, Goto, Tidore, Kota Tidore Kepulauan, Maluku Utara";"Kota Tidore Kepulauan, Maluku Utara";"MALUKU UTARA";"";"Indonesia";"";"0.6807938";"127.4539007";"https://maps.google.com/?cid=0x0:0x3bf53d7f0b6883c2"
"toko bangunan";"Toko Bahan Bangunan";"Toko Bangunan "MITRA BANGUNAN"";"8VMJ+P37, Fidi Jaya, Kec. Weda Tengah, Kabupaten Halmahera Tengah, Maluku Utara";"Kabupaten Halmahera Tengah, Maluku Utara";"MALUKU UTARA";"";"Indonesia";"";"0.334292";"127.8801666";"https://maps.google.com/?cid=0x0:0x6db8eb4715256fc8"
"toko bangunan";"Toko Bahan Bangunan";"Makmur Utama Supermarket Bahan Bangunan";"Jambula, Kec. Pulau Ternate, Kota Ternate, Maluku Utara";"Kota Ternate, Maluku Utara";"MALUKU UTARA";"";"Indonesia";" 08114313899";"0.7581804";"127.3220409";"https://maps.google.com/?cid=0x0:0xe3a01731f7851efa"
"toko bangunan";"Toko Bahan Bangunan";"Makmur Utama Supermarket Bahan Bangunan";"Jl. Yasin Gamsungi No.2 Kec. ternate tengah, Kel, Makassar Tim., Makassar Timur, Kota Ternate, Maluku Utara 97724";"Kel, Makassar Tim., Makassar Timur, Kota Ternate";"MALUKU UTARA";"97724";"Indonesia";" 08114313799";"0.7940352";"127.3876695";"https://maps.google.com/?cid=0x0:0x2f492ae87bf64247"
"toko bangunan";"Pasar bahan bangunan";"Toko Sumber Bangunan";"P2G6+2MM, Gamsungi, Kec. Tobelo, Kabupaten Halmahera Utara, Maluku Utara";"Kabupaten Halmahera Utara, Maluku Utara";"MALUKU UTARA";"";"Indonesia";" 09242621455";"1.7250967";"128.0116677";"https://maps.google.com/?cid=0x0:0x14835095227102f4"
"toko bangunan";"Pasar bahan bangunan";"Toko Intisari2";"PHRH+XHX, Jl. Hijra, Galala, Oba Utara, Kota Tidore Kepulauan, Maluku Utara";"Kota Tidore Kepulauan, Maluku Utara";"MALUKU UTARA";"";"Indonesia";" 08124751378";"0.7424771";"127.5789924";"https://maps.google.com/?cid=0x0:0x25129a2cfa046c97"
"toko bangunan";"toko bangunan";"Maluku Utara 97852";"Sofifi, Oba Utara, Kota Tidore Kepulauan, Maluku Utara";"Kota Tidore Kepulauan, Maluku Utara";"MALUKU UTARA";"";"Indonesia";"";"0.7379173";"127.5706308";"https://maps.google.com/?cid=0x0:0xb05522de48530924"
"toko bangunan";"Toko Bahan Bangunan";"toko tiga sudara";"Sofifi, Oba Utara, Kota Tidore Kepulauan, Maluku Utara 97827";"Oba Utara, Kota Tidore Kepulauan";"MALUKU UTARA";"97827";"Indonesia";" 081254754924";"0.736746";"127.5616839";"https://maps.google.com/?cid=0x0:0xf8fcda3f079eaf0c"
"toko bangunan";"Toko Bahan Bangunan";"Toko EKA JAYA BAKTI";"PH57+2QM, Jl. Trans Halmahera, Akekolano, Oba Utara, Kota Tidore Kepulauan, Maluku Utara";"Kota Tidore Kepulauan, Maluku Utara";"MALUKU UTARA";"";"Indonesia";" 082182834356";"0.7075776";"127.5644127";"https://maps.google.com/?cid=0x0:0x13da7c508ebe70c7"
"toko bangunan";"";"TOKO KARYA MATERIAL";"TOKO KARYA MATERIAL, Oba, Oba Utara, Kota Tidore Kepulauan, Maluku Utara";"Kota Tidore Kepulauan, Maluku Utara";"MALUKU UTARA";"";"Indonesia";"";"0.721457";"127.560901";"https://maps.google.com/?cid=0x0:0xcd9869875aa14ce1"
"toko bangunan";"Toko Bahan Bangunan";"Makmur Utama Supermarket Bahan Bangunan";"Jambula, Kec. Pulau Ternate, Kota Ternate, Maluku Utara";"Kota Ternate, Maluku Utara";"MALUKU UTARA";"";"Indonesia";" 08114313899";"0.7581804";"127.3220409";"https://maps.google.com/?cid=0x0:0xe3a01731f7851efa"
"toko bangunan";"Toko Bahan Bangunan";"Makmur Utama Supermarket Bahan Bangunan";"Jl. Yasin Gamsungi No.2 Kec. ternate tengah, Kel, Makassar Tim., Makassar Timur, Kota Ternate, Maluku Utara 97724";"Kel, Makassar Tim., Makassar Timur, Kota Ternate";"MALUKU UTARA";"97724";"Indonesia";" 08114313799";"0.7940352";"127.3876695";"https://maps.google.com/?cid=0x0:0x2f492ae87bf64247"
"toko bangunan";"Toko Bahan Bangunan";"Toko Mitra Bangunan";"Jl. Pahlawan Revolusi No.3, Muhajirin, Kec. Ternate Tengah, Kota Ternate, Maluku Utara 97721";"Muhajirin, Kec. Ternate Tengah, Kota Ternate";"MALUKU UTARA";"97721";"Indonesia";" 08124217777";"0.7863051";"127.3886452";"https://maps.google.com/?cid=0x0:0x182c1f07e66842a"
"toko bangunan";"Toko Bahan Bangunan";"Toko Bangunan "MITRA BANGUNAN"";"8VMJ+P37, Fidi Jaya, Kec. Weda Tengah, Kabupaten Halmahera Tengah, Maluku Utara";"Kabupaten Halmahera Tengah, Maluku Utara";"MALUKU UTARA";"";"Indonesia";"";"0.334292";"127.8801666";"https://maps.google.com/?cid=0x0:0x6db8eb4715256fc8"
"toko bangunan";"toko bangunan";"Kec. Oba Tengah";"Kota Tidore Kepulauan, Maluku Utara";"Kota Tidore Kepulauan, Maluku Utara";"MALUKU UTARA";"";"Indonesia";"";"0.4315598";"127.58354";"https://maps.google.com/?cid=0x0:0x93a2969898adae26"
"toko bangunan";"Toko Bahan Bangunan";"Toko AA Tidore";"MFG3+CXG, Indonesiana, Tidore, Kota Tidore Kepulauan, Maluku Utara";"Kota Tidore Kepulauan, Maluku Utara";"MALUKU UTARA";"";"Indonesia";"";"0.6760502";"127.4549474";"https://maps.google.com/?cid=0x0:0x42df8bb39f5ce3f"
"toko bangunan";"Pusat Perbelanjaan";"percetakan batu angin dan loster "BERLIAN MEBEL"";"Akedotilou, Kec. Oba Tengah, Kota Tidore Kepulauan, Maluku Utara 97852";"Kec. Oba Tengah, Kota Tidore Kepulauan";"MALUKU UTARA";"97852";"Indonesia";"";"0.5894326";"127.5355812";"https://maps.google.com/?cid=0x0:0x8f2758cf555a1733"
"toko bangunan";"toko bangunan";"Maluku Utara 97852";"Sofifi, Oba Utara, Kota Tidore Kepulauan, Maluku Utara";"Kota Tidore Kepulauan, Maluku Utara";"MALUKU UTARA";"";"Indonesia";"";"0.7379173";"127.5706308";"https://maps.google.com/?cid=0x0:0xb05522de48530924"
"toko bangunan";"Pasar bahan bangunan";"Toko Intisari2";"PHRH+XHX, Jl. Hijra, Galala, Oba Utara, Kota Tidore Kepulauan, Maluku Utara";"Kota Tidore Kepulauan, Maluku Utara";"MALUKU UTARA";"";"Indonesia";" 08124751378";"0.7424771";"127.5789924";"https://maps.google.com/?cid=0x0:0x25129a2cfa046c97"
"toko bangunan";"Toko Bahan Bangunan";"toko tiga sudara";"Sofifi, Oba Utara, Kota Tidore Kepulauan, Maluku Utara 97827";"Oba Utara, Kota Tidore Kepulauan";"MALUKU UTARA";"97827";"Indonesia";" 081254754924";"0.736746";"127.5616839";"https://maps.google.com/?cid=0x0:0xf8fcda3f079eaf0c"
"toko bangunan";"toko bangunan";"Kec. Oba Sel.";"Kota Tidore Kepulauan, Maluku Utara";"Kota Tidore Kepulauan, Maluku Utara";"MALUKU UTARA";"";"Indonesia";"";"0.1136623";"127.7329973";"https://maps.google.com/?cid=0x0:0x98be6acd572d2bd7"
"toko bangunan";"Toko Bahan Bangunan";"Toko bangunan Jaya Sofifi";"PHP6+868, Jl. Trans Halmahera, Sofifi, Oba Utara, Kota Tidore Kepulauan, Maluku Utara";"Kota Tidore Kepulauan, Maluku Utara";"MALUKU UTARA";"";"Indonesia";"";"0.7359648";"127.5607535";"https://maps.google.com/?cid=0x0:0x918381d7d5a8aa2a"
"toko bangunan";"Toko Bahan Bangunan";"Toko EKA JAYA BAKTI";"PH57+2QM, Jl. Trans Halmahera, Akekolano, Oba Utara, Kota Tidore Kepulauan, Maluku Utara";"Kota Tidore Kepulauan, Maluku Utara";"MALUKU UTARA";"";"Indonesia";" 082182834356";"0.7075776";"127.5644127";"https://maps.google.com/?cid=0x0:0x13da7c508ebe70c7"
"toko bangunan";"Toko Bahan Bangunan";"Makmur Utama Supermarket Bahan Bangunan";"Jambula, Kec. Pulau Ternate, Kota Ternate, Maluku Utara";"Kota Ternate, Maluku Utara";"MALUKU UTARA";"";"Indonesia";" 08114313899";"0.7581804";"127.3220409";"https://maps.google.com/?cid=0x0:0xe3a01731f7851efa"
"toko bangunan";"Toko Bahan Bangunan";"Toko Bangunan "MITRA BANGUNAN"";"8VMJ+P37, Fidi Jaya, Kec. Weda Tengah, Kabupaten Halmahera Tengah, Maluku Utara";"Kabupaten Halmahera Tengah, Maluku Utara";"MALUKU UTARA";"";"Indonesia";"";"0.334292";"127.8801666";"https://maps.google.com/?cid=0x0:0x6db8eb4715256fc8"
"toko bangunan";"Toko Bahan Bangunan";"Toko Mitra Bangunan";"Jl. Pahlawan Revolusi No.3, Muhajirin, Kec. Ternate Tengah, Kota Ternate, Maluku Utara 97721";"Muhajirin, Kec. Ternate Tengah, Kota Ternate";"MALUKU UTARA";"97721";"Indonesia";" 08124217777";"0.7863051";"127.3886452";"https://maps.google.com/?cid=0x0:0x182c1f07e66842a"
"toko bangunan";"Toko Bahan Bangunan";"Makmur Utama Supermarket Bahan Bangunan";"Jl. Yasin Gamsungi No.2 Kec. ternate tengah, Kel, Makassar Tim., Makassar Timur, Kota Ternate, Maluku Utara 97724";"Kel, Makassar Tim., Makassar Timur, Kota Ternate";"MALUKU UTARA";"97724";"Indonesia";" 08114313799";"0.7940352";"127.3876695";"https://maps.google.com/?cid=0x0:0x2f492ae87bf64247"
"toko bangunan";"Toko Bahan Bangunan";"Sumber Bangunan Toko";"Q9QQ+6G6, Jl. Pahlawan Revolusi, Gamalama, Kec. Ternate Tengah, Kota Ternate, Maluku Utara 97721";"Jl. Pahlawan Revolusi, Gamalama, Kec. Ternate Tengah, Kota Ternate";"MALUKU UTARA";"97721";"Indonesia";" 085236820531";"0.7880369";"127.3887754";"https://maps.google.com/?cid=0x0:0x7a0cc1ba5ffa9416"
"toko bangunan";"Toko Bahan Bangunan";"Toko AA Tidore";"MFG3+CXG, Indonesiana, Tidore, Kota Tidore Kepulauan, Maluku Utara";"Kota Tidore Kepulauan, Maluku Utara";"MALUKU UTARA";"";"Indonesia";"";"0.6760502";"127.4549474";"https://maps.google.com/?cid=0x0:0x42df8bb39f5ce3f"
"toko bangunan";"Toko";"Toko Logam Abadi";"Jl. Pahlawan Revolusi No.3, Muhajirin, Kec. Ternate Tengah, Kota Ternate, Maluku Utara 97721";"Muhajirin, Kec. Ternate Tengah, Kota Ternate";"MALUKU UTARA";"97721";"Indonesia";"";"0.7865166";"127.3887295";"https://maps.google.com/?cid=0x0:0x6b838f312cd7af92"
"toko bangunan";"Pasar bahan bangunan";"Toko Intisari2";"PHRH+XHX, Jl. Hijra, Galala, Oba Utara, Kota Tidore Kepulauan, Maluku Utara";"Kota Tidore Kepulauan, Maluku Utara";"MALUKU UTARA";"";"Indonesia";" 08124751378";"0.7424771";"127.5789924";"https://maps.google.com/?cid=0x0:0x25129a2cfa046c97"
"toko bangunan";"toko bangunan";"Maluku Utara 97813";"Tomagoba, Tidore, Kota Tidore Kepulauan, Maluku Utara";"Kota Tidore Kepulauan, Maluku Utara";"MALUKU UTARA";"";"Indonesia";"";"0.6695081";"127.4491185";"https://maps.google.com/?cid=0x0:0x546e6a7c69e552a0"
"toko bangunan";"Komplek perumahan";"TOKO NURU";"MFR3+FFM, Jl. Frans Kaisepo, Dowora, Kec. Tidore Tim., Kota Tidore Kepulauan, Maluku Utara";"Kota Tidore Kepulauan, Maluku Utara";"MALUKU UTARA";"";"Indonesia";"";"0.6912412";"127.453673";"https://maps.google.com/?cid=0x0:0x9110a87b0c100e37"
"toko bangunan";"Toko Bahan Bangunan";"toko tiga sudara";"Sofifi, Oba Utara, Kota Tidore Kepulauan, Maluku Utara 97827";"Oba Utara, Kota Tidore Kepulauan";"MALUKU UTARA";"97827";"Indonesia";" 081254754924";"0.736746";"127.5616839";"https://maps.google.com/?cid=0x0:0xf8fcda3f079eaf0c"
"toko bangunan";"Toko Bahan Bangunan";"Toko bangunan Jaya Sofifi";"PHP6+868, Jl. Trans Halmahera, Sofifi, Oba Utara, Kota Tidore Kepulauan, Maluku Utara";"Kota Tidore Kepulauan, Maluku Utara";"MALUKU UTARA";"";"Indonesia";"";"0.7359648";"127.5607535";"https://maps.google.com/?cid=0x0:0x918381d7d5a8aa2a"
"toko bangunan";"Toko Bahan Bangunan";"Toko Murah Jaya";"MFJ3+CG9, Goto, Tidore, Kota Tidore Kepulauan, Maluku Utara";"Kota Tidore Kepulauan, Maluku Utara";"MALUKU UTARA";"";"Indonesia";"";"0.6807938";"127.4539007";"https://maps.google.com/?cid=0x0:0x3bf53d7f0b6883c2"
"building materials";"Toko Bahan Bangunan";"Toko Murah Jaya";"MFJ3+CG9, Goto, Tidore, Kota Tidore Kepulauan, Maluku Utara";"Kota Tidore Kepulauan, Maluku Utara";"MALUKU UTARA";"";"Indonesia";"";"0.6807938";"127.4539007";"https://maps.google.com/?cid=0x0:0x3bf53d7f0b6883c2"
"building materials";"Toko Bahan Bangunan";"Toko AA Tidore";"MFG3+CXG, Indonesiana, Tidore, Kota Tidore Kepulauan, Maluku Utara";"Kota Tidore Kepulauan, Maluku Utara";"MALUKU UTARA";"";"Indonesia";"";"0.6760502";"127.4549474";"https://maps.google.com/?cid=0x0:0x42df8bb39f5ce3f"
"building materials";"Toko Bahan Bangunan";"Toko Murah Jaya";"MFJ3+CG9, Goto, Tidore, Kota Tidore Kepulauan, Maluku Utara";"Kota Tidore Kepulauan, Maluku Utara";"MALUKU UTARA";"";"Indonesia";"";"0.6807938";"127.4539007";"https://maps.google.com/?cid=0x0:0x3bf53d7f0b6883c2"
"building materials";"building materials";"Tidore";"Kota Tidore Kepulauan, Maluku Utara";"Kota Tidore Kepulauan, Maluku Utara";"MALUKU UTARA";"";"Indonesia";"";"0.659078";"127.4475867";"https://maps.google.com/?cid=0x0:0xee8f70bb2aa00f2e"
"building materials";"Toko Bahan Bangunan";"Toko AA Tidore";"MFG3+CXG, Indonesiana, Tidore, Kota Tidore Kepulauan, Maluku Utara";"Kota Tidore Kepulauan, Maluku Utara";"MALUKU UTARA";"";"Indonesia";"";"0.6760502";"127.4549474";"https://maps.google.com/?cid=0x0:0x42df8bb39f5ce3f"
"building materials";"building materials";"Pulau Tidore";"Kota Tidore Kepulauan, Maluku Utara";"Kota Tidore Kepulauan, Maluku Utara";"MALUKU UTARA";"";"Indonesia";"";"0.6740044";"127.4040871";"https://maps.google.com/?cid=0x0:0xa1475cfd7b0f2a9"
"building materials";"Toko Bahan Bangunan";"UD. BINTANG UTARA";"P95H+GW2, Ome, Kec. Tidore Utara, Kota Tidore Kepulauan, Maluku Utara 97813";"Ome, Kec. Tidore Utara, Kota Tidore Kepulauan";"MALUKU UTARA";"97813";"Indonesia";" 082190642103";"0.7087554";"127.3797693";"https://maps.google.com/?cid=0x0:0xe1b539aaf2e09f0b"
"building materials";"Toko Bahan Bangunan";"Toko AA Tidore";"MFG3+CXG, Indonesiana, Tidore, Kota Tidore Kepulauan, Maluku Utara";"Kota Tidore Kepulauan, Maluku Utara";"MALUKU UTARA";"";"Indonesia";"";"0.6760502";"127.4549474";"https://maps.google.com/?cid=0x0:0x42df8bb39f5ce3f"
"building materials";"Toko Bahan Bangunan";"Toko Murah Jaya";"MFJ3+CG9, Goto, Tidore, Kota Tidore Kepulauan, Maluku Utara";"Kota Tidore Kepulauan, Maluku Utara";"MALUKU UTARA";"";"Indonesia";"";"0.6807938";"127.4539007";"https://maps.google.com/?cid=0x0:0x3bf53d7f0b6883c2"
"building materials";"building materials";"Tidore";"Kota Tidore Kepulauan, Maluku Utara";"Kota Tidore Kepulauan, Maluku Utara";"MALUKU UTARA";"";"Indonesia";"";"0.659078";"127.4475867";"https://maps.google.com/?cid=0x0:0xee8f70bb2aa00f2e"
"building materials";"building materials";"Maluku Utara 97813";"Tomagoba, Tidore, Kota Tidore Kepulauan, Maluku Utara";"Kota Tidore Kepulauan, Maluku Utara";"MALUKU UTARA";"";"Indonesia";"";"0.6695081";"127.4491185";"https://maps.google.com/?cid=0x0:0x546e6a7c69e552a0"
"building materials";"Pasar bahan bangunan";"Toko Intisari2";"PHRH+XHX, Jl. Hijra, Galala, Oba Utara, Kota Tidore Kepulauan, Maluku Utara";"Kota Tidore Kepulauan, Maluku Utara";"MALUKU UTARA";"";"Indonesia";" 08124751378";"0.7424771";"127.5789924";"https://maps.google.com/?cid=0x0:0x25129a2cfa046c97"
"building materials";"Toko Gorden";"TOKO KARYA GORDEN";"PH6C+W3H, Jl. Trans Halmahera, Ampera, Oba Utara, Kota Tidore Kepulauan, Maluku Utara";"Kota Tidore Kepulauan, Maluku Utara";"MALUKU UTARA";"";"Indonesia";"";"0.7123075";"127.570248";"https://maps.google.com/?cid=0x0:0x9a49c998087cbb42"
"building materials";"";"TOKO KARYA MATERIAL";"TOKO KARYA MATERIAL, Oba, Oba Utara, Kota Tidore Kepulauan, Maluku Utara";"Kota Tidore Kepulauan, Maluku Utara";"MALUKU UTARA";"";"Indonesia";"";"0.721457";"127.560901";"https://maps.google.com/?cid=0x0:0xcd9869875aa14ce1"
"building materials";"building materials";"Maluku Utara 97852";"Sofifi, Oba Utara, Kota Tidore Kepulauan, Maluku Utara";"Kota Tidore Kepulauan, Maluku Utara";"MALUKU UTARA";"";"Indonesia";"";"0.7379173";"127.5706308";"https://maps.google.com/?cid=0x0:0xb05522de48530924"
"building materials";"";"TOKO KARYA MATERIAL";"TOKO KARYA MATERIAL, Oba, Oba Utara, Kota Tidore Kepulauan, Maluku Utara";"Kota Tidore Kepulauan, Maluku Utara";"MALUKU UTARA";"";"Indonesia";"";"0.721457";"127.560901";"https://maps.google.com/?cid=0x0:0xcd9869875aa14ce1"
"building materials";"Toko Gorden";"TOKO KARYA GORDEN";"PH6C+W3H, Jl. Trans Halmahera, Ampera, Oba Utara, Kota Tidore Kepulauan, Maluku Utara";"Kota Tidore Kepulauan, Maluku Utara";"MALUKU UTARA";"";"Indonesia";"";"0.7123075";"127.570248";"https://maps.google.com/?cid=0x0:0x9a49c998087cbb42"
"building materials";"Toko Bahan Bangunan";"Toko AA Tidore";"MFG3+CXG, Indonesiana, Tidore, Kota Tidore Kepulauan, Maluku Utara";"Kota Tidore Kepulauan, Maluku Utara";"MALUKU UTARA";"";"Indonesia";"";"0.6760502";"127.4549474";"https://maps.google.com/?cid=0x0:0x42df8bb39f5ce3f"
"building materials";"building materials";"Maluku Utara 97813";"Tomagoba, Tidore, Kota Tidore Kepulauan, Maluku Utara";"Kota Tidore Kepulauan, Maluku Utara";"MALUKU UTARA";"";"Indonesia";"";"0.6695081";"127.4491185";"https://maps.google.com/?cid=0x0:0x546e6a7c69e552a0"
"building materials";"Toko Bahan Bangunan";"UD. BINTANG UTARA";"P95H+GW2, Ome, Kec. Tidore Utara, Kota Tidore Kepulauan, Maluku Utara 97813";"Ome, Kec. Tidore Utara, Kota Tidore Kepulauan";"MALUKU UTARA";"97813";"Indonesia";" 082190642103";"0.7087554";"127.3797693";"https://maps.google.com/?cid=0x0:0xe1b539aaf2e09f0b"
"building materials";"Pasar bahan bangunan";"Toko Intisari2";"PHRH+XHX, Jl. Hijra, Galala, Oba Utara, Kota Tidore Kepulauan, Maluku Utara";"Kota Tidore Kepulauan, Maluku Utara";"MALUKU UTARA";"";"Indonesia";" 08124751378";"0.7424771";"127.5789924";"https://maps.google.com/?cid=0x0:0x25129a2cfa046c97"
"building materials";"Toko Perlengkapan Rumah";"MR.DIY";"Jl. Taman Siswa, Indonesiana, Tidore, Kota Tidore Kepulauan, Maluku Utara 97813";"Indonesiana, Tidore, Kota Tidore Kepulauan";"MALUKU UTARA";"97813";"Indonesia";"";"0.6738373";"127.4545546";"https://maps.google.com/?cid=0x0:0x736eaca7f4108e2f"
"building materials";"Toko Bahan Bangunan";"UD. BINTANG UTARA";"P95H+GW2, Ome, Kec. Tidore Utara, Kota Tidore Kepulauan, Maluku Utara 97813";"Ome, Kec. Tidore Utara, Kota Tidore Kepulauan";"MALUKU UTARA";"97813";"Indonesia";" 082190642103";"0.7087554";"127.3797693";"https://maps.google.com/?cid=0x0:0xe1b539aaf2e09f0b"
"building materials";"building materials";"Maluku Utara 97813";"Tomagoba, Tidore, Kota Tidore Kepulauan, Maluku Utara";"Kota Tidore Kepulauan, Maluku Utara";"MALUKU UTARA";"";"Indonesia";"";"0.6695081";"127.4491185";"https://maps.google.com/?cid=0x0:0x546e6a7c69e552a0"
"building materials";"Toko Bahan Bangunan";"Toko AA Tidore";"MFG3+CXG, Indonesiana, Tidore, Kota Tidore Kepulauan, Maluku Utara";"Kota Tidore Kepulauan, Maluku Utara";"MALUKU UTARA";"";"Indonesia";"";"0.6760502";"127.4549474";"https://maps.google.com/?cid=0x0:0x42df8bb39f5ce3f"
"building materials";"Toko Bahan Bangunan";"Pierre marth bangunan";"PH67+XHV, Akekolano, Oba Utara, Kota Tidore Kepulauan, Maluku Utara";"Kota Tidore Kepulauan, Maluku Utara";"MALUKU UTARA";"";"Indonesia";"";"0.7124937";"127.56391";"https://maps.google.com/?cid=0x0:0x1193436e8fda575c"
"building materials";"building materials";"Kec. Tidore Utara";"Kota Tidore Kepulauan, Maluku Utara";"Kota Tidore Kepulauan, Maluku Utara";"MALUKU UTARA";"";"Indonesia";"";"0.6861314";"127.3670819";"https://maps.google.com/?cid=0x0:0xffe1d8113bcd2de8"
"building materials";"Komplek perumahan";"TOKO NURU";"MFR3+FFM, Jl. Frans Kaisepo, Dowora, Kec. Tidore Tim., Kota Tidore Kepulauan, Maluku Utara";"Kota Tidore Kepulauan, Maluku Utara";"MALUKU UTARA";"";"Indonesia";"";"0.6912412";"127.453673";"https://maps.google.com/?cid=0x0:0x9110a87b0c100e37"
"building materials";"Pasar bahan bangunan";"Toko Intisari2";"PHRH+XHX, Jl. Hijra, Galala, Oba Utara, Kota Tidore Kepulauan, Maluku Utara";"Kota Tidore Kepulauan, Maluku Utara";"MALUKU UTARA";"";"Indonesia";" 08124751378";"0.7424771";"127.5789924";"https://maps.google.com/?cid=0x0:0x25129a2cfa046c97"
"building materials";"Toko Bahan Bangunan";"TOKO INTISARI";"MFG3+QW5, Jl. Kemakmuran, Indonesiana, Tidore, Kota Tidore Kepulauan, Maluku Utara";"Kota Tidore Kepulauan, Maluku Utara";"MALUKU UTARA";"";"Indonesia";"";"0.6770543";"127.4547754";"https://maps.google.com/?cid=0x0:0xe2a1d601500af094"
"building materials";"building materials";"Kec. Oba Tengah";"Kota Tidore Kepulauan, Maluku Utara";"Kota Tidore Kepulauan, Maluku Utara";"MALUKU UTARA";"";"Indonesia";"";"0.4315598";"127.58354";"https://maps.google.com/?cid=0x0:0x93a2969898adae26"
"building materials";"";"TOKO KARYA MATERIAL";"TOKO KARYA MATERIAL, Oba, Oba Utara, Kota Tidore Kepulauan, Maluku Utara";"Kota Tidore Kepulauan, Maluku Utara";"MALUKU UTARA";"";"Indonesia";"";"0.721457";"127.560901";"https://maps.google.com/?cid=0x0:0xcd9869875aa14ce1"
"building materials";"Pasar bahan bangunan";"Batu Angin Proling Jaya";"PH8F+C97, Ampera, Oba Utara, Kota Tidore Kepulauan, Maluku Utara";"Kota Tidore Kepulauan, Maluku Utara";"MALUKU UTARA";"";"Indonesia";"";"0.7160374";"127.5734164";"https://maps.google.com/?cid=0x0:0xa160347509d8311a"
"building materials";"building materials";"Maluku Utara 97852";"Sofifi, Oba Utara, Kota Tidore Kepulauan, Maluku Utara";"Kota Tidore Kepulauan, Maluku Utara";"MALUKU UTARA";"";"Indonesia";"";"0.7379173";"127.5706308";"https://maps.google.com/?cid=0x0:0xb05522de48530924"
"building materials";"Toko Bahan Bangunan";"Toko Surya Jaya - Labuha";"9FCJ+69H, Unnamed Road, Labuha, Kec. Bacan, Kabupaten Halmahera Selatan, Maluku Utara";"Kabupaten Halmahera Selatan, Maluku Utara";"MALUKU UTARA";"";"Indonesia";" 09272321732";"-0.6294262";"127.4809969";"https://maps.google.com/?cid=0x0:0xdad7b98c88e223e3"
"building materials";"building materials";"UD. Bobanedana";"9MRM+2MM, Talagamori, Kec. Oba, Kota Tidore Kepulauan, Maluku Utara";"Kota Tidore Kepulauan, Maluku Utara";"MALUKU UTARA";"";"Indonesia";"";"0.3900948";"127.6841864";"https://maps.google.com/?cid=0x0:0xb8fa5e3b6ca59a6d"
"building materials";"building materials";"Toko bangunan";"FPQF+JGJ, Pulau, Obi Sel., Kabupaten Halmahera Selatan, Maluku Utara";"Kabupaten Halmahera Selatan, Maluku Utara";"MALUKU UTARA";"";"Indonesia";"";"-1.5109015";"127.7237678";"https://maps.google.com/?cid=0x0:0xbd7517ef81383967"
"building materials";"building materials";"Kec. Oba Sel.";"Kota Tidore Kepulauan, Maluku Utara";"Kota Tidore Kepulauan, Maluku Utara";"MALUKU UTARA";"";"Indonesia";"";"0.1136623";"127.7329973";"https://maps.google.com/?cid=0x0:0x98be6acd572d2bd7"
"building materials";"Toko Bahan Bangunan";"Toko Murah Jaya";"MFJ3+CG9, Goto, Tidore, Kota Tidore Kepulauan, Maluku Utara";"Kota Tidore Kepulauan, Maluku Utara";"MALUKU UTARA";"";"Indonesia";"";"0.6807938";"127.4539007";"https://maps.google.com/?cid=0x0:0x3bf53d7f0b6883c2"
"building materials";"Toko Bahan Bangunan";"Toko AA Tidore";"MFG3+CXG, Indonesiana, Tidore, Kota Tidore Kepulauan, Maluku Utara";"Kota Tidore Kepulauan, Maluku Utara";"MALUKU UTARA";"";"Indonesia";"";"0.6760502";"127.4549474";"https://maps.google.com/?cid=0x0:0x42df8bb39f5ce3f"
"building materials";"Toko Bahan Bangunan";"UD. BINTANG UTARA";"P95H+GW2, Ome, Kec. Tidore Utara, Kota Tidore Kepulauan, Maluku Utara 97813";"Ome, Kec. Tidore Utara, Kota Tidore Kepulauan";"MALUKU UTARA";"97813";"Indonesia";" 082190642103";"0.7087554";"127.3797693";"https://maps.google.com/?cid=0x0:0xe1b539aaf2e09f0b"
"hardware store";"Toko Perlengkapan Rumah";"Toko Junior Meubel";"MFF4+F5M, Indonesiana, Tidore, Kota Tidore Kepulauan, Maluku Utara";"Kota Tidore Kepulauan, Maluku Utara";"MALUKU UTARA";"";"Indonesia";" 082189080832";"0.6737071";"127.4554205";"https://maps.google.com/?cid=0x0:0x90a6bb751bb4da87"
"hardware store";"Toko Perlengkapan Rumah";"MR.DIY";"Jl. Taman Siswa, Indonesiana, Tidore, Kota Tidore Kepulauan, Maluku Utara 97813";"Indonesiana, Tidore, Kota Tidore Kepulauan";"MALUKU UTARA";"97813";"Indonesia";"";"0.6738373";"127.4545546";"https://maps.google.com/?cid=0x0:0x736eaca7f4108e2f"
"hardware store";"hardware store";"Tidore";"Kota Tidore Kepulauan, Maluku Utara";"Kota Tidore Kepulauan, Maluku Utara";"MALUKU UTARA";"";"Indonesia";"";"0.659078";"127.4475867";"https://maps.google.com/?cid=0x0:0xee8f70bb2aa00f2e"
"hardware store";"Toko Perlengkapan Rumah";"MR.DIY";"Jl. Taman Siswa, Indonesiana, Tidore, Kota Tidore Kepulauan, Maluku Utara 97813";"Indonesiana, Tidore, Kota Tidore Kepulauan";"MALUKU UTARA";"97813";"Indonesia";"";"0.6738373";"127.4545546";"https://maps.google.com/?cid=0x0:0x736eaca7f4108e2f"
"hardware store";"Toko Bahan Bangunan";"Toko AA Tidore";"MFG3+CXG, Indonesiana, Tidore, Kota Tidore Kepulauan, Maluku Utara";"Kota Tidore Kepulauan, Maluku Utara";"MALUKU UTARA";"";"Indonesia";"";"0.6760502";"127.4549474";"https://maps.google.com/?cid=0x0:0x42df8bb39f5ce3f"
"hardware store";"Toko Perlengkapan Rumah";"Toko Junior Meubel";"MFF4+F5M, Indonesiana, Tidore, Kota Tidore Kepulauan, Maluku Utara";"Kota Tidore Kepulauan, Maluku Utara";"MALUKU UTARA";"";"Indonesia";" 082189080832";"0.6737071";"127.4554205";"https://maps.google.com/?cid=0x0:0x90a6bb751bb4da87"
"hardware store";"Toko Perlengkapan Rumah";"MR.DIY";"Jl. Taman Siswa, Indonesiana, Tidore, Kota Tidore Kepulauan, Maluku Utara 97813";"Indonesiana, Tidore, Kota Tidore Kepulauan";"MALUKU UTARA";"97813";"Indonesia";"";"0.6738373";"127.4545546";"https://maps.google.com/?cid=0x0:0x736eaca7f4108e2f"
"hardware store";"hardware store";"Tidore";"Kota Tidore Kepulauan, Maluku Utara";"Kota Tidore Kepulauan, Maluku Utara";"MALUKU UTARA";"";"Indonesia";"";"0.659078";"127.4475867";"https://maps.google.com/?cid=0x0:0xee8f70bb2aa00f2e"
"hardware store";"hardware store";"Hardware Galala";"PHVH+PHG, galala Sofifi, Galala, Oba Utara, Kota Tidore Kepulauan, Maluku Utara";"Kota Tidore Kepulauan, Maluku Utara";"MALUKU UTARA";"";"Indonesia";"";"0.7443129";"127.5789647";"https://maps.google.com/?cid=0x0:0x77ec4e639a04a77"
"hardware store";"Toko Bahan Bangunan";"Shanbhag Enterprises";"Bank Rd, Honnavar, Karnataka 581334, India";"Honnavar, Karnataka";"MALUKU UTARA";"581334";"Indonesia";" +918105595959";"14.2794401";"74.4450306";"https://maps.google.com/?cid=0x0:0xeefdc913d3f13e88"
"hardware store";"Toko Bahan Bangunan";"BHAKTA HARDWARES";"Jogmath Rd, Kasaba Gundibail, Honnavar, Karnataka 581334, India";"Kasaba Gundibail, Honnavar, Karnataka";"MALUKU UTARA";"581334";"Indonesia";" +919448408866";"14.2843653";"74.4518348";"https://maps.google.com/?cid=0x0:0x5f294a534196464f"
"hardware store";"hardware store";"Hardware Galala";"PHVH+PHG, galala Sofifi, Galala, Oba Utara, Kota Tidore Kepulauan, Maluku Utara";"Kota Tidore Kepulauan, Maluku Utara";"MALUKU UTARA";"";"Indonesia";"";"0.7443129";"127.5789647";"https://maps.google.com/?cid=0x0:0x77ec4e639a04a77"
"hardware store";"hardware store";"Maluku Utara 97852";"Sofifi, Oba Utara, Kota Tidore Kepulauan, Maluku Utara";"Kota Tidore Kepulauan, Maluku Utara";"MALUKU UTARA";"";"Indonesia";"";"0.7379173";"127.5706308";"https://maps.google.com/?cid=0x0:0xb05522de48530924"
"hardware store";"hardware store";"Gaia Hotel Ternate";"Jl. Sultan M. Djabir Sjah, Gamalama, Kec. Kota Ternate Utara, Kota Ternate, Maluku Utara 97721";"Gamalama, Kec. Kota Ternate Utara, Kota Ternate";"MALUKU UTARA";"97721";"Indonesia";" 0811433446";"0.792091";"127.3896633";"https://maps.google.com/?cid=0x0:0xc34d900beeadb45b"
"hardware store";"Toko Bahan Bangunan";"Toko Murah Jaya";"MFJ3+CG9, Goto, Tidore, Kota Tidore Kepulauan, Maluku Utara";"Kota Tidore Kepulauan, Maluku Utara";"MALUKU UTARA";"";"Indonesia";"";"0.6807938";"127.4539007";"https://maps.google.com/?cid=0x0:0x3bf53d7f0b6883c2"
"hardware store";"hardware store";"Maluku Utara 97813";"Tomagoba, Tidore, Kota Tidore Kepulauan, Maluku Utara";"Kota Tidore Kepulauan, Maluku Utara";"MALUKU UTARA";"";"Indonesia";"";"0.6695081";"127.4491185";"https://maps.google.com/?cid=0x0:0x546e6a7c69e552a0"
"hardware store";"Toko Bahan Bangunan";"Toko AA Tidore";"MFG3+CXG, Indonesiana, Tidore, Kota Tidore Kepulauan, Maluku Utara";"Kota Tidore Kepulauan, Maluku Utara";"MALUKU UTARA";"";"Indonesia";"";"0.6760502";"127.4549474";"https://maps.google.com/?cid=0x0:0x42df8bb39f5ce3f"
"hardware store";"Toko Perlengkapan Rumah";"MR.DIY";"Jl. Taman Siswa, Indonesiana, Tidore, Kota Tidore Kepulauan, Maluku Utara 97813";"Indonesiana, Tidore, Kota Tidore Kepulauan";"MALUKU UTARA";"97813";"Indonesia";"";"0.6738373";"127.4545546";"https://maps.google.com/?cid=0x0:0x736eaca7f4108e2f"
"hardware store";"Toko Perlengkapan Rumah";"Toko Junior Meubel";"MFF4+F5M, Indonesiana, Tidore, Kota Tidore Kepulauan, Maluku Utara";"Kota Tidore Kepulauan, Maluku Utara";"MALUKU UTARA";"";"Indonesia";" 082189080832";"0.6737071";"127.4554205";"https://maps.google.com/?cid=0x0:0x90a6bb751bb4da87"
"hardware store";"Toko Perlengkapan Rumah";"MR.DIY";"Jl. Taman Siswa, Indonesiana, Tidore, Kota Tidore Kepulauan, Maluku Utara 97813";"Indonesiana, Tidore, Kota Tidore Kepulauan";"MALUKU UTARA";"97813";"Indonesia";"";"0.6738373";"127.4545546";"https://maps.google.com/?cid=0x0:0x736eaca7f4108e2f"
"hardware store";"Toko Bahan Bangunan";"Toko AA Tidore";"MFG3+CXG, Indonesiana, Tidore, Kota Tidore Kepulauan, Maluku Utara";"Kota Tidore Kepulauan, Maluku Utara";"MALUKU UTARA";"";"Indonesia";"";"0.6760502";"127.4549474";"https://maps.google.com/?cid=0x0:0x42df8bb39f5ce3f"
"hardware store";"hardware store";"Maluku Utara 97813";"Tomagoba, Tidore, Kota Tidore Kepulauan, Maluku Utara";"Kota Tidore Kepulauan, Maluku Utara";"MALUKU UTARA";"";"Indonesia";"";"0.6695081";"127.4491185";"https://maps.google.com/?cid=0x0:0x546e6a7c69e552a0"
"hardware store";"Toko";"Toko Hidup Baru Tidore";"Jl. Kemakmuran, Indonesiana, Tidore, Kota Tidore Kepulauan, Maluku Utara";"Kota Tidore Kepulauan, Maluku Utara";"MALUKU UTARA";"";"Indonesia";"";"0.6733408";"127.4551264";"https://maps.google.com/?cid=0x0:0x3e59cb1696da6c5c"
"hardware store";"Toko Swalayan";"QueenShop Supera";"doyado, Kec. Tidore Tim., Kota Tidore Kepulauan, Maluku Utara 97813";"Kec. Tidore Tim., Kota Tidore Kepulauan";"MALUKU UTARA";"97813";"Indonesia";" 082317411034";"0.7123099";"127.456932";"https://maps.google.com/?cid=0x0:0x702803c036df2e93"
"hardware store";"Toko Percetakan";"dprint";"Dowora, Kec. Tidore Tim., Kota Tidore Kepulauan, Maluku Utara 97813";"Kec. Tidore Tim., Kota Tidore Kepulauan";"MALUKU UTARA";"97813";"Indonesia";" 081323500800";"0.6943366";"127.4552217";"https://maps.google.com/?cid=0x0:0x21758c1cc4e60c5a"
"hardware store";"Toko Perlengkapan Rumah";"KEISHA GORDEN";"MFG4+789, Indonesiana, Tidore, Kota Tidore Kepulauan, Maluku Utara";"Kota Tidore Kepulauan, Maluku Utara";"MALUKU UTARA";"";"Indonesia";" 082292297977";"0.6756616";"127.4558489";"https://maps.google.com/?cid=0x0:0x9c4fe1532b5f942e"
"hardware store";"Toko Swalayan";"intisari store";"Jl. Ps. Inpres Bastiong, Bastiong Talangame, Kec. Ternate Sel., Kota Ternate, Maluku Utara";"Kota Ternate, Maluku Utara";"MALUKU UTARA";"";"Indonesia";"";"0.7662427";"127.3764876";"https://maps.google.com/?cid=0x0:0xb5fca1232cdd4082"
"hardware store";"Toko";"ATK FAMILY";"depan sekolah tk citra umat, Jl. Ahmad Yani No.183, Tomagoba, Tidore, Kota Tidore Kepulauan, Maluku Utara 97813";"Jl. Ahmad Yani No.183, Tomagoba, Tidore, Kota Tidore Kepulauan";"MALUKU UTARA";"97813";"Indonesia";" 081355111332";"0.6769746";"127.4517242";"https://maps.google.com/?cid=0x0:0xca34dc7434c80ce8"
"hardware store";"hardware store";"Hardware Galala";"PHVH+PHG, galala Sofifi, Galala, Oba Utara, Kota Tidore Kepulauan, Maluku Utara";"Kota Tidore Kepulauan, Maluku Utara";"MALUKU UTARA";"";"Indonesia";"";"0.7443129";"127.5789647";"https://maps.google.com/?cid=0x0:0x77ec4e639a04a77"
"hardware store";"Pasar bahan bangunan";"Toko Intisari2";"PHRH+XHX, Jl. Hijra, Galala, Oba Utara, Kota Tidore Kepulauan, Maluku Utara";"Kota Tidore Kepulauan, Maluku Utara";"MALUKU UTARA";"";"Indonesia";" 08124751378";"0.7424771";"127.5789924";"https://maps.google.com/?cid=0x0:0x25129a2cfa046c97"
"hardware store";"hardware store";"Hardware Galala";"PHVH+PHG, galala Sofifi, Galala, Oba Utara, Kota Tidore Kepulauan, Maluku Utara";"Kota Tidore Kepulauan, Maluku Utara";"MALUKU UTARA";"";"Indonesia";"";"0.7443129";"127.5789647";"https://maps.google.com/?cid=0x0:0x77ec4e639a04a77"
"hardware store";"hardware store";"Maluku Utara 97852";"Sofifi, Oba Utara, Kota Tidore Kepulauan, Maluku Utara";"Kota Tidore Kepulauan, Maluku Utara";"MALUKU UTARA";"";"Indonesia";"";"0.7379173";"127.5706308";"https://maps.google.com/?cid=0x0:0xb05522de48530924"
"hardware store";"hardware store";"Kec. Oba Sel.";"Kota Tidore Kepulauan, Maluku Utara";"Kota Tidore Kepulauan, Maluku Utara";"MALUKU UTARA";"";"Indonesia";"";"0.1136623";"127.7329973";"https://maps.google.com/?cid=0x0:0x98be6acd572d2bd7"
"hardware store";"hardware store";"Maluku Utara 97852";"Sofifi, Oba Utara, Kota Tidore Kepulauan, Maluku Utara";"Kota Tidore Kepulauan, Maluku Utara";"MALUKU UTARA";"";"Indonesia";"";"0.7379173";"127.5706308";"https://maps.google.com/?cid=0x0:0xb05522de48530924"
"hardware store";"Toko Perlengkapan Rumah";"Toko Junior Meubel";"MFF4+F5M, Indonesiana, Tidore, Kota Tidore Kepulauan, Maluku Utara";"Kota Tidore Kepulauan, Maluku Utara";"MALUKU UTARA";"";"Indonesia";" 082189080832";"0.6737071";"127.4554205";"https://maps.google.com/?cid=0x0:0x90a6bb751bb4da87"
"hardware store";"Toko Bahan Bangunan";"Toko AA Tidore";"MFG3+CXG, Indonesiana, Tidore, Kota Tidore Kepulauan, Maluku Utara";"Kota Tidore Kepulauan, Maluku Utara";"MALUKU UTARA";"";"Indonesia";"";"0.6760502";"127.4549474";"https://maps.google.com/?cid=0x0:0x42df8bb39f5ce3f"
"hardware store";"Toko Perlengkapan Rumah";"MR.DIY";"Jl. Taman Siswa, Indonesiana, Tidore, Kota Tidore Kepulauan, Maluku Utara 97813";"Indonesiana, Tidore, Kota Tidore Kepulauan";"MALUKU UTARA";"97813";"Indonesia";"";"0.6738373";"127.4545546";"https://maps.google.com/?cid=0x0:0x736eaca7f4108e2f"
"hardware store";"hardware store";"Kec. Tidore Tim.";"Kota Tidore Kepulauan, Maluku Utara";"Kota Tidore Kepulauan, Maluku Utara";"MALUKU UTARA";"";"Indonesia";"";"0.6991758";"127.4554598";"https://maps.google.com/?cid=0x0:0x832cfd30aa51faba"
"hardware store";"Pasar bahan bangunan";"Toko Intisari2";"PHRH+XHX, Jl. Hijra, Galala, Oba Utara, Kota Tidore Kepulauan, Maluku Utara";"Kota Tidore Kepulauan, Maluku Utara";"MALUKU UTARA";"";"Indonesia";" 08124751378";"0.7424771";"127.5789924";"https://maps.google.com/?cid=0x0:0x25129a2cfa046c97"
"hardware store";"Toko Swalayan";"QueenShop Supera";"doyado, Kec. Tidore Tim., Kota Tidore Kepulauan, Maluku Utara 97813";"Kec. Tidore Tim., Kota Tidore Kepulauan";"MALUKU UTARA";"97813";"Indonesia";" 082317411034";"0.7123099";"127.456932";"https://maps.google.com/?cid=0x0:0x702803c036df2e93"
"hardware store";"Toko Percetakan";"dprint";"Dowora, Kec. Tidore Tim., Kota Tidore Kepulauan, Maluku Utara 97813";"Kec. Tidore Tim., Kota Tidore Kepulauan";"MALUKU UTARA";"97813";"Indonesia";" 081323500800";"0.6943366";"127.4552217";"https://maps.google.com/?cid=0x0:0x21758c1cc4e60c5a"
"supermarket bangunan";"Pasar bahan bangunan";"Toko Intisari2";"PHRH+XHX, Jl. Hijra, Galala, Oba Utara, Kota Tidore Kepulauan, Maluku Utara";"Kota Tidore Kepulauan, Maluku Utara";"MALUKU UTARA";"";"Indonesia";" 08124751378";"0.7424771";"127.5789924";"https://maps.google.com/?cid=0x0:0x25129a2cfa046c97"
"supermarket bangunan";"Toko Bahan Bangunan";"TOKO INTISARI";"MFG3+QW5, Jl. Kemakmuran, Indonesiana, Tidore, Kota Tidore Kepulauan, Maluku Utara";"Kota Tidore Kepulauan, Maluku Utara";"MALUKU UTARA";"";"Indonesia";"";"0.6770543";"127.4547754";"https://maps.google.com/?cid=0x0:0xe2a1d601500af094"
"supermarket bangunan";"supermarket bangunan";"Maluku Utara 97811";"Tomagoba, Tidore, Kota Tidore Kepulauan, Maluku Utara";"Kota Tidore Kepulauan, Maluku Utara";"MALUKU UTARA";"";"Indonesia";"";"0.672015";"127.4476026";"https://maps.google.com/?cid=0x0:0xa12ca31bbe90e0c1"
"supermarket bangunan";"Toko Bahan Bangunan";"TOKO INTISARI";"MFG3+QW5, Jl. Kemakmuran, Indonesiana, Tidore, Kota Tidore Kepulauan, Maluku Utara";"Kota Tidore Kepulauan, Maluku Utara";"MALUKU UTARA";"";"Indonesia";"";"0.6770543";"127.4547754";"https://maps.google.com/?cid=0x0:0xe2a1d601500af094"
"supermarket bangunan";"Pasar bahan bangunan";"Toko Intisari2";"PHRH+XHX, Jl. Hijra, Galala, Oba Utara, Kota Tidore Kepulauan, Maluku Utara";"Kota Tidore Kepulauan, Maluku Utara";"MALUKU UTARA";"";"Indonesia";" 08124751378";"0.7424771";"127.5789924";"https://maps.google.com/?cid=0x0:0x25129a2cfa046c97"
"supermarket bangunan";"supermarket bangunan";"Tidore";"Kota Tidore Kepulauan, Maluku Utara";"Kota Tidore Kepulauan, Maluku Utara";"MALUKU UTARA";"";"Indonesia";"";"0.659078";"127.4475867";"https://maps.google.com/?cid=0x0:0xee8f70bb2aa00f2e"
"supermarket bangunan";"supermarket bangunan";"Maluku Utara 97813";"Tomagoba, Tidore, Kota Tidore Kepulauan, Maluku Utara";"Kota Tidore Kepulauan, Maluku Utara";"MALUKU UTARA";"";"Indonesia";"";"0.6695081";"127.4491185";"https://maps.google.com/?cid=0x0:0x546e6a7c69e552a0"
"supermarket bangunan";"Pasar bahan bangunan";"Toko Intisari2";"PHRH+XHX, Jl. Hijra, Galala, Oba Utara, Kota Tidore Kepulauan, Maluku Utara";"Kota Tidore Kepulauan, Maluku Utara";"MALUKU UTARA";"";"Indonesia";" 08124751378";"0.7424771";"127.5789924";"https://maps.google.com/?cid=0x0:0x25129a2cfa046c97"
"supermarket bangunan";"Toko Bahan Bangunan";"TOKO INTISARI";"MFG3+QW5, Jl. Kemakmuran, Indonesiana, Tidore, Kota Tidore Kepulauan, Maluku Utara";"Kota Tidore Kepulauan, Maluku Utara";"MALUKU UTARA";"";"Indonesia";"";"0.6770543";"127.4547754";"https://maps.google.com/?cid=0x0:0xe2a1d601500af094"
"supermarket bangunan";"Toko Bahan Bangunan";"Toko Murah Jaya";"MFJ3+CG9, Goto, Tidore, Kota Tidore Kepulauan, Maluku Utara";"Kota Tidore Kepulauan, Maluku Utara";"MALUKU UTARA";"";"Indonesia";"";"0.6807938";"127.4539007";"https://maps.google.com/?cid=0x0:0x3bf53d7f0b6883c2"
"supermarket bangunan";"supermarket bangunan";"Maluku Utara 97852";"Sofifi, Oba Utara, Kota Tidore Kepulauan, Maluku Utara";"Kota Tidore Kepulauan, Maluku Utara";"MALUKU UTARA";"";"Indonesia";"";"0.7379173";"127.5706308";"https://maps.google.com/?cid=0x0:0xb05522de48530924"
"supermarket bangunan";"Pasar bahan bangunan";"Toko Intisari2";"PHRH+XHX, Jl. Hijra, Galala, Oba Utara, Kota Tidore Kepulauan, Maluku Utara";"Kota Tidore Kepulauan, Maluku Utara";"MALUKU UTARA";"";"Indonesia";" 08124751378";"0.7424771";"127.5789924";"https://maps.google.com/?cid=0x0:0x25129a2cfa046c97"
"supermarket bangunan";"Toko Bahan Bangunan";"Makmur Utama Supermarket Bahan Bangunan";"Jambula, Kec. Pulau Ternate, Kota Ternate, Maluku Utara";"Kota Ternate, Maluku Utara";"MALUKU UTARA";"";"Indonesia";" 08114313899";"0.7581804";"127.3220409";"https://maps.google.com/?cid=0x0:0xe3a01731f7851efa"
"supermarket bangunan";"Toko Bahan Bangunan";"Toko bangunan Jaya Sofifi";"PHP6+868, Jl. Trans Halmahera, Sofifi, Oba Utara, Kota Tidore Kepulauan, Maluku Utara";"Kota Tidore Kepulauan, Maluku Utara";"MALUKU UTARA";"";"Indonesia";"";"0.7359648";"127.5607535";"https://maps.google.com/?cid=0x0:0x918381d7d5a8aa2a"
"supermarket bangunan";"Toko Bahan Bangunan";"toko tiga sudara";"Sofifi, Oba Utara, Kota Tidore Kepulauan, Maluku Utara 97827";"Oba Utara, Kota Tidore Kepulauan";"MALUKU UTARA";"97827";"Indonesia";" 081254754924";"0.736746";"127.5616839";"https://maps.google.com/?cid=0x0:0xf8fcda3f079eaf0c"
"supermarket bangunan";"Toko Swalayan";"Toko Abadi";"PHJ8+JJ7, Jl. Raya Sultan Nuku, Bukit Durian, Oba Utara, Kota Tidore Kepulauan, Maluku Utara";"Kota Tidore Kepulauan, Maluku Utara";"MALUKU UTARA";"";"Indonesia";"";"0.7315277";"127.5665599";"https://maps.google.com/?cid=0x0:0x3fd21e5364d26f2d"
"supermarket bangunan";"supermarket bangunan";"Maluku Utara 97852";"Sofifi, Oba Utara, Kota Tidore Kepulauan, Maluku Utara";"Kota Tidore Kepulauan, Maluku Utara";"MALUKU UTARA";"";"Indonesia";"";"0.7379173";"127.5706308";"https://maps.google.com/?cid=0x0:0xb05522de48530924"
"supermarket bangunan";"Pasar bahan bangunan";"Toko Intisari2";"PHRH+XHX, Jl. Hijra, Galala, Oba Utara, Kota Tidore Kepulauan, Maluku Utara";"Kota Tidore Kepulauan, Maluku Utara";"MALUKU UTARA";"";"Indonesia";" 08124751378";"0.7424771";"127.5789924";"https://maps.google.com/?cid=0x0:0x25129a2cfa046c97"
"supermarket bangunan";"Toko Bahan Bangunan";"Makmur Utama Supermarket Bahan Bangunan";"Jambula, Kec. Pulau Ternate, Kota Ternate, Maluku Utara";"Kota Ternate, Maluku Utara";"MALUKU UTARA";"";"Indonesia";" 08114313899";"0.7581804";"127.3220409";"https://maps.google.com/?cid=0x0:0xe3a01731f7851efa"
"supermarket bangunan";"Toko Bahan Bangunan";"toko tiga sudara";"Sofifi, Oba Utara, Kota Tidore Kepulauan, Maluku Utara 97827";"Oba Utara, Kota Tidore Kepulauan";"MALUKU UTARA";"97827";"Indonesia";" 081254754924";"0.736746";"127.5616839";"https://maps.google.com/?cid=0x0:0xf8fcda3f079eaf0c"
"supermarket bangunan";"Toko Bahan Bangunan";"Toko bangunan Jaya Sofifi";"PHP6+868, Jl. Trans Halmahera, Sofifi, Oba Utara, Kota Tidore Kepulauan, Maluku Utara";"Kota Tidore Kepulauan, Maluku Utara";"MALUKU UTARA";"";"Indonesia";"";"0.7359648";"127.5607535";"https://maps.google.com/?cid=0x0:0x918381d7d5a8aa2a"
"supermarket bangunan";"Pemasok Bahan Bangunan";"Supermarket Bangunan Abadi ( Bangunan Abadi ) Meruya";"Jl. Meruya Ilir Raya No.13 3, RT.3/RW.2, Meruya Utara, Kec. Kembangan, Kota Jakarta Barat, Daerah Khusus Ibukota Jakarta 11610";"RT.3/RW.2, Meruya Utara, Kec. Kembangan, Kota Jakarta Barat";"MALUKU UTARA";"11610";"Indonesia";" 0215856801";"-6.1976477";"106.7425118";"https://maps.google.com/?cid=0x0:0x13872e6ebcfc2cac"
"supermarket bangunan";"Toko Swalayan";"Toko Abadi";"PHJ8+JJ7, Jl. Raya Sultan Nuku, Bukit Durian, Oba Utara, Kota Tidore Kepulauan, Maluku Utara";"Kota Tidore Kepulauan, Maluku Utara";"MALUKU UTARA";"";"Indonesia";"";"0.7315277";"127.5665599";"https://maps.google.com/?cid=0x0:0x3fd21e5364d26f2d"
"supermarket bangunan";"Toko bahan makanan";"SBA (Supermarket Bangunan Abadi)";"Jl. Pd. Kacang No.88B, Pd. Kacang Bar., Kec. Pd. Aren, Kota Tangerang Selatan, Banten 15226";"Pd. Kacang Bar., Kec. Pd. Aren, Kota Tangerang Selatan";"MALUKU UTARA";"15226";"Indonesia";" 02173460185";"-6.254577";"106.688324";"https://maps.google.com/?cid=0x0:0x370ec3ee4dda53b"
"supermarket bangunan";"Toko Bahan Bangunan";"Supermarket Bahan Bangunan Tirta Bangunan";"Jl. Raya Babakan Madang, Sentul, Kec. Babakan Madang, Kabupaten Bogor, Jawa Barat 16810";"Sentul, Kec. Babakan Madang, Kabupaten Bogor";"MALUKU UTARA";"16810";"Indonesia";" 08881300271";"-6.5601203";"106.8537161";"https://maps.google.com/?cid=0x0:0xc9e77a7f8f9d2f66"
"supermarket bangunan";"Toko Bahan Bangunan";"Tb. Sumber Bangunan";"RQQR+3H5, Jalan Muwardi Raya, RT.7/RW.4, Grogol, Kec. Grogol petamburan, Kota Jakarta Barat, Daerah Khusus Ibukota Jakarta 11450";"Jalan Muwardi Raya, RT.7/RW.4, Grogol, Kec. Grogol petamburan, Kota Jakarta Barat";"MALUKU UTARA";"11450";"Indonesia";"";"-6.1623597";"106.7914743";"https://maps.google.com/?cid=0x0:0x79cb481b82be867d"
"supermarket bangunan";"Toko Bahan Bangunan";"Toko Bahan Bangunan Bintang Grogol";"Jl. Semeru Raya No.15A, RT.10/RW.10, Grogol, Kec. Grogol petamburan, Kota Jakarta Barat, Daerah Khusus Ibukota Jakarta 11450";"RT.10/RW.10, Grogol, Kec. Grogol petamburan, Kota Jakarta Barat";"MALUKU UTARA";"11450";"Indonesia";"";"-6.1578466";"106.7959537";"https://maps.google.com/?cid=0x0:0x91413f2405aee327"
"supermarket bangunan";"Toko Bahan Bangunan";"Toko Bangunan Hari-hari";"Jl. Mandala Utara No.21, RT.17/RW.4, Tomang, Kec. Grogol petamburan, Kota Jakarta Barat, Daerah Khusus Ibukota Jakarta 11440";"RT.17/RW.4, Tomang, Kec. Grogol petamburan, Kota Jakarta Barat";"MALUKU UTARA";"11440";"Indonesia";" 0215642893";"-6.1721247";"106.7983298";"https://maps.google.com/?cid=0x0:0x91aa30314dd11ef"
"supermarket bangunan";"supermarket bangunan";"N/A";"";"";"MALUKU UTARA";"";"Indonesia";" 085947000018";"-6.2297465";"106.829518";"https://maps.google.com/?cid=0x0:0xa1da7ae6dc5969f4"
"supermarket bangunan";"Pasar bahan bangunan";"Toko Intisari2";"PHRH+XHX, Jl. Hijra, Galala, Oba Utara, Kota Tidore Kepulauan, Maluku Utara";"Kota Tidore Kepulauan, Maluku Utara";"MALUKU UTARA";"";"Indonesia";" 08124751378";"0.7424771";"127.5789924";"https://maps.google.com/?cid=0x0:0x25129a2cfa046c97"
"supermarket bangunan";"Toko Bahan Bangunan";"TOKO INTISARI";"MFG3+QW5, Jl. Kemakmuran, Indonesiana, Tidore, Kota Tidore Kepulauan, Maluku Utara";"Kota Tidore Kepulauan, Maluku Utara";"MALUKU UTARA";"";"Indonesia";"";"0.6770543";"127.4547754";"https://maps.google.com/?cid=0x0:0xe2a1d601500af094"
"supermarket bangunan";"supermarket bangunan";"Maluku Utara 97813";"Tomagoba, Tidore, Kota Tidore Kepulauan, Maluku Utara";"Kota Tidore Kepulauan, Maluku Utara";"MALUKU UTARA";"";"Indonesia";"";"0.6695081";"127.4491185";"https://maps.google.com/?cid=0x0:0x546e6a7c69e552a0"
"supermarket bangunan";"Toko Bahan Bangunan";"Makmur Utama Supermarket Bahan Bangunan";"Jambula, Kec. Pulau Ternate, Kota Ternate, Maluku Utara";"Kota Ternate, Maluku Utara";"MALUKU UTARA";"";"Indonesia";" 08114313899";"0.7581804";"127.3220409";"https://maps.google.com/?cid=0x0:0xe3a01731f7851efa"
"supermarket bangunan";"Toko Bahan Bangunan";"toko tiga sudara";"Sofifi, Oba Utara, Kota Tidore Kepulauan, Maluku Utara 97827";"Oba Utara, Kota Tidore Kepulauan";"MALUKU UTARA";"97827";"Indonesia";" 081254754924";"0.736746";"127.5616839";"https://maps.google.com/?cid=0x0:0xf8fcda3f079eaf0c"
"supermarket bangunan";"Toko Bahan Bangunan";"Makmur Utama Supermarket Bahan Bangunan";"Jl. Yasin Gamsungi No.2 Kec. ternate tengah, Kel, Makassar Tim., Makassar Timur, Kota Ternate, Maluku Utara 97724";"Kel, Makassar Tim., Makassar Timur, Kota Ternate";"MALUKU UTARA";"97724";"Indonesia";" 08114313799";"0.7940352";"127.3876695";"https://maps.google.com/?cid=0x0:0x2f492ae87bf64247"
"supermarket bangunan";"Toko Bahan Bangunan";"Toko bangunan Jaya Sofifi";"PHP6+868, Jl. Trans Halmahera, Sofifi, Oba Utara, Kota Tidore Kepulauan, Maluku Utara";"Kota Tidore Kepulauan, Maluku Utara";"MALUKU UTARA";"";"Indonesia";"";"0.7359648";"127.5607535";"https://maps.google.com/?cid=0x0:0x918381d7d5a8aa2a"
"supermarket bangunan";"Toko Bahan Bangunan";"Makmur Utama Supermarket Bahan bangunan";"Tj. Niara, Kec. Tobelo Tengah, Kabupaten Halmahera Utara, Maluku Utara";"Kabupaten Halmahera Utara, Maluku Utara";"MALUKU UTARA";"";"Indonesia";" 085117420324";"1.7019679";"128.0155893";"https://maps.google.com/?cid=0x0:0x47ecdf114648cbc2"
"supermarket bangunan";"Toko Swalayan";"intisari store";"Jl. Ps. Inpres Bastiong, Bastiong Talangame, Kec. Ternate Sel., Kota Ternate, Maluku Utara";"Kota Ternate, Maluku Utara";"MALUKU UTARA";"";"Indonesia";"";"0.7662427";"127.3764876";"https://maps.google.com/?cid=0x0:0xb5fca1232cdd4082"
"supermarket bangunan";"Toko Bahan Bangunan";"Toko Mitra Bangunan";"Jl. Pahlawan Revolusi No.3, Muhajirin, Kec. Ternate Tengah, Kota Ternate, Maluku Utara 97721";"Muhajirin, Kec. Ternate Tengah, Kota Ternate";"MALUKU UTARA";"97721";"Indonesia";" 08124217777";"0.7863051";"127.3886452";"https://maps.google.com/?cid=0x0:0x182c1f07e66842a"
"supermarket bangunan";"Toko";"Toko Sahabat";"MFF3+9VM, Jl. Taman Siswa, Indonesiana, Tidore, Kota Tidore Kepulauan, Maluku Utara";"Kota Tidore Kepulauan, Maluku Utara";"MALUKU UTARA";"";"Indonesia";" 081245463767";"0.6734526";"127.4546721";"https://maps.google.com/?cid=0x0:0x4bcc1fef4dfff942"
"supermarket bangunan";"Pasar bahan bangunan";"Toko Sumber Bangunan";"P2G6+2MM, Gamsungi, Kec. Tobelo, Kabupaten Halmahera Utara, Maluku Utara";"Kabupaten Halmahera Utara, Maluku Utara";"MALUKU UTARA";"";"Indonesia";" 09242621455";"1.7250967";"128.0116677";"https://maps.google.com/?cid=0x0:0x14835095227102f4"
"supermarket bangunan";"Toko Bahan Bangunan";"Toko Bangunan "MITRA BANGUNAN"";"8VMJ+P37, Fidi Jaya, Kec. Weda Tengah, Kabupaten Halmahera Tengah, Maluku Utara";"Kabupaten Halmahera Tengah, Maluku Utara";"MALUKU UTARA";"";"Indonesia";"";"0.334292";"127.8801666";"https://maps.google.com/?cid=0x0:0x6db8eb4715256fc8"
"supermarket bangunan";"Toko Bahan Bangunan";"Toko Sejati Bangunan";"Jalan Raya Wosia, Depan Saro Nifero, Samping Dealer Honda CV.Lion, Mahia, Kec. Tobelo, Maluku Utara 97762";"Depan Saro Nifero, Samping Dealer Honda CV.Lion, Mahia, Kec. Tobelo";"MALUKU UTARA";"97762";"Indonesia";" 082195215789";"1.7063845";"128.0084905";"https://maps.google.com/?cid=0x0:0xe07acc47d25781c8"
"supermarket bangunan";"supermarket bangunan";"Maluku Utara 97813";"Tomagoba, Tidore, Kota Tidore Kepulauan, Maluku Utara";"Kota Tidore Kepulauan, Maluku Utara";"MALUKU UTARA";"";"Indonesia";"";"0.6695081";"127.4491185";"https://maps.google.com/?cid=0x0:0x546e6a7c69e552a0"
"supermarket bangunan";"Toko Bahan Bangunan";"TOKO INTISARI";"MFG3+QW5, Jl. Kemakmuran, Indonesiana, Tidore, Kota Tidore Kepulauan, Maluku Utara";"Kota Tidore Kepulauan, Maluku Utara";"MALUKU UTARA";"";"Indonesia";"";"0.6770543";"127.4547754";"https://maps.google.com/?cid=0x0:0xe2a1d601500af094"
"supermarket bangunan";"Pasar bahan bangunan";"Toko Intisari2";"PHRH+XHX, Jl. Hijra, Galala, Oba Utara, Kota Tidore Kepulauan, Maluku Utara";"Kota Tidore Kepulauan, Maluku Utara";"MALUKU UTARA";"";"Indonesia";" 08124751378";"0.7424771";"127.5789924";"https://maps.google.com/?cid=0x0:0x25129a2cfa046c97"
"supermarket bangunan";"Toko Swalayan";"Toko Indrawati 4";"MFF3+GFG, Indonesiana, Tidore, Kota Tidore Kepulauan, Maluku Utara";"Kota Tidore Kepulauan, Maluku Utara";"MALUKU UTARA";"";"Indonesia";"";"0.673811";"127.4536951";"https://maps.google.com/?cid=0x0:0xaad6433818f30962"
"supermarket bangunan";"Toko Bahan Bangunan";"Makmur Utama Supermarket Bahan Bangunan";"Jambula, Kec. Pulau Ternate, Kota Ternate, Maluku Utara";"Kota Ternate, Maluku Utara";"MALUKU UTARA";"";"Indonesia";" 08114313899";"0.7581804";"127.3220409";"https://maps.google.com/?cid=0x0:0xe3a01731f7851efa"
"supermarket bangunan";"Toko Bahan Bangunan";"Makmur Utama Supermarket Bahan Bangunan";"Jl. Yasin Gamsungi No.2 Kec. ternate tengah, Kel, Makassar Tim., Makassar Timur, Kota Ternate, Maluku Utara 97724";"Kel, Makassar Tim., Makassar Timur, Kota Ternate";"MALUKU UTARA";"97724";"Indonesia";" 08114313799";"0.7940352";"127.3876695";"https://maps.google.com/?cid=0x0:0x2f492ae87bf64247"
"supermarket bangunan";"Toko Bahan Bangunan";"toko tiga sudara";"Sofifi, Oba Utara, Kota Tidore Kepulauan, Maluku Utara 97827";"Oba Utara, Kota Tidore Kepulauan";"MALUKU UTARA";"97827";"Indonesia";" 081254754924";"0.736746";"127.5616839";"https://maps.google.com/?cid=0x0:0xf8fcda3f079eaf0c"
"supermarket bangunan";"Toko Bahan Bangunan";"Makmur Utama Supermarket Bahan bangunan";"Tj. Niara, Kec. Tobelo Tengah, Kabupaten Halmahera Utara, Maluku Utara";"Kabupaten Halmahera Utara, Maluku Utara";"MALUKU UTARA";"";"Indonesia";" 085117420324";"1.7019679";"128.0155893";"https://maps.google.com/?cid=0x0:0x47ecdf114648cbc2"
"supermarket bangunan";"Toko";"Toko Sahabat";"MFF3+9VM, Jl. Taman Siswa, Indonesiana, Tidore, Kota Tidore Kepulauan, Maluku Utara";"Kota Tidore Kepulauan, Maluku Utara";"MALUKU UTARA";"";"Indonesia";" 081245463767";"0.6734526";"127.4546721";"https://maps.google.com/?cid=0x0:0x4bcc1fef4dfff942"
"supermarket bangunan";"Toko Bahan Bangunan";"Toko Murah Jaya";"MFJ3+CG9, Goto, Tidore, Kota Tidore Kepulauan, Maluku Utara";"Kota Tidore Kepulauan, Maluku Utara";"MALUKU UTARA";"";"Indonesia";"";"0.6807938";"127.4539007";"https://maps.google.com/?cid=0x0:0x3bf53d7f0b6883c2"
"supermarket bangunan";"Toko Bahan Bangunan";"Toko bangunan Jaya Sofifi";"PHP6+868, Jl. Trans Halmahera, Sofifi, Oba Utara, Kota Tidore Kepulauan, Maluku Utara";"Kota Tidore Kepulauan, Maluku Utara";"MALUKU UTARA";"";"Indonesia";"";"0.7359648";"127.5607535";"https://maps.google.com/?cid=0x0:0x918381d7d5a8aa2a"
"supermarket bangunan";"Toko Bahan Bangunan";"Toko Mitra Bangunan";"Jl. Pahlawan Revolusi No.3, Muhajirin, Kec. Ternate Tengah, Kota Ternate, Maluku Utara 97721";"Muhajirin, Kec. Ternate Tengah, Kota Ternate";"MALUKU UTARA";"97721";"Indonesia";" 08124217777";"0.7863051";"127.3886452";"https://maps.google.com/?cid=0x0:0x182c1f07e66842a"
"supermarket bangunan";"Pasar bahan bangunan";"Toko Sumber Bangunan";"P2G6+2MM, Gamsungi, Kec. Tobelo, Kabupaten Halmahera Utara, Maluku Utara";"Kabupaten Halmahera Utara, Maluku Utara";"MALUKU UTARA";"";"Indonesia";" 09242621455";"1.7250967";"128.0116677";"https://maps.google.com/?cid=0x0:0x14835095227102f4"
"supermarket bangunan";"Toko Swalayan";"Toko Abadi";"PHJ8+JJ7, Jl. Raya Sultan Nuku, Bukit Durian, Oba Utara, Kota Tidore Kepulauan, Maluku Utara";"Kota Tidore Kepulauan, Maluku Utara";"MALUKU UTARA";"";"Indonesia";"";"0.7315277";"127.5665599";"https://maps.google.com/?cid=0x0:0x3fd21e5364d26f2d"
"supermarket bangunan";"Pasar bahan bangunan";"Toko Intisari2";"PHRH+XHX, Jl. Hijra, Galala, Oba Utara, Kota Tidore Kepulauan, Maluku Utara";"Kota Tidore Kepulauan, Maluku Utara";"MALUKU UTARA";"";"Indonesia";" 08124751378";"0.7424771";"127.5789924";"https://maps.google.com/?cid=0x0:0x25129a2cfa046c97"
"supermarket bangunan";"supermarket bangunan";"Maluku Utara 97852";"Sofifi, Oba Utara, Kota Tidore Kepulauan, Maluku Utara";"Kota Tidore Kepulauan, Maluku Utara";"MALUKU UTARA";"";"Indonesia";"";"0.7379173";"127.5706308";"https://maps.google.com/?cid=0x0:0xb05522de48530924"
"supermarket bangunan";"Toko Bahan Bangunan";"Makmur Utama Supermarket Bahan Bangunan";"Jl. Yasin Gamsungi No.2 Kec. ternate tengah, Kel, Makassar Tim., Makassar Timur, Kota Ternate, Maluku Utara 97724";"Kel, Makassar Tim., Makassar Timur, Kota Ternate";"MALUKU UTARA";"97724";"Indonesia";" 08114313799";"0.7940352";"127.3876695";"https://maps.google.com/?cid=0x0:0x2f492ae87bf64247"
