Category,Real Category,Business Name,Address,City,State,Postal Code,Country,Phone,Email,Website,Latitude,Longitude,Map Link,Details Link
mall,mall,Sulawesi Tenggara 93452,"Kabupaten Konawe, Sulawesi Tenggara","Kabupaten Konawe, Sulawesi Tenggara",SULAWESI TENGGARA,,Indonesia,,,,-3.6324121,121.856261,https://maps.google.com/?cid=0x0:0x6957837804e8ec0e,
mall,Pasar,pasar sambeani,"6WVC+2FF, Sambeani, Kec. Abuki, Kabupaten Konawe, Sulawesi Tenggara 93452","Sambeani, Kec. Abuki, Kabupaten Konawe",SULAWESI TENGGARA,93452.0,Indonesia,,,,-3.757431,121.9211662,https://maps.google.com/?cid=0x0:0x56e4c890d4dacf23,
mall,Toko,TOKO PUNCAK SARI,"Unnamed Road, Sambaosu, Kec. Abuki, Kabupaten Konawe, Sulawesi Tenggara 93452","Sambaosu, Kec. Abuki, Kabupaten Konawe",SULAWESI TENGGARA,93452.0,Indonesia,82337574000.0,,,-3.6884948,121.8929595,https://maps.google.com/?cid=0x0:0x9985809e42324adf,
mall,Komplek perumahan,Pasar Puriala,"X449+66X, Watundehoa, Kec. Puriala, Kabupaten Konawe, Sulawesi Tenggara 93452","Watundehoa, Kec. Puriala, Kabupaten Konawe",SULAWESI TENGGARA,93452.0,Indonesia,,,,-4.0443896,122.1181055,https://maps.google.com/?cid=0x0:0xc9ad802436484ba,
mall,Toko,KIOS ABI,"XF7M+HVF, Jl. Sanggoleo, RT.004/RW.002, Watubangga, Kec. Baruga, Kota Kendari, Sulawesi Tenggara 93116","Jl. Sanggoleo, RT.004/RW.002, Watubangga, Kec. Baruga, Kota Kendari",SULAWESI TENGGARA,93116.0,Indonesia,82318389444.0,,,-4.0360565,122.4846712,https://maps.google.com/?cid=0x0:0xb33c102825a8d581,
mall,Toko bahan makanan,Kios Mujiono,"7VRG+57Q, Desa Padangguni, Kec. Padangguni, Kab.Konawe Kode Pos, Lasada, Kec. Asinua, Kabupaten Konawe, Sulawesi Tenggara 93453","Desa Padangguni, Kec. Padangguni, Kab.Konawe Kode Pos, Lasada, Kec. Asinua, Kabupaten Konawe",SULAWESI TENGGARA,93453.0,Indonesia,85241807317.0,,,-3.7095367,121.8757458,https://maps.google.com/?cid=0x0:0x64feca9d1d503e11,
mall,Toko Komputer,Colok Clink,"Perum Bumi Cikarang Makmur BLOK D14, Sukadami, Cikarang Sel., Kabupaten Bekasi, Jawa Barat 17530","Sukadami, Cikarang Sel., Kabupaten Bekasi",SULAWESI TENGGARA,17530.0,Indonesia,8561703382.0,,,-6.3532731,107.1072208,https://maps.google.com/?cid=0x0:0xa12bf8c7a0a7ac43,
mall,Toko Kue,CV ABUNMART INDO PRIMA (Abun Aneka Plastik OLSHOP),"GERBANG ABUN, Jl. Kubur Islam No.12A, RT.9/RW.10, Grogol Sel., Kec. Kby. Lama, Kota Jakarta Selatan, Daerah Khusus Ibukota Jakarta 12220","Jl. Kubur Islam No.12A, RT.9/RW.10, Grogol Sel., Kec. Kby. Lama, Kota Jakarta Selatan",SULAWESI TENGGARA,12220.0,Indonesia,8119412179.0,,,-6.2306881,106.7826985,https://maps.google.com/?cid=0x0:0x28facb10163a1603,
mall,mall,Abudy,"2HPC+GXP, Jl. Sadang, Margahayu Tengah, Kec. Margahayu, Kabupaten Bandung, Jawa Barat 40225","Jl. Sadang, Margahayu Tengah, Kec. Margahayu, Kabupaten Bandung",SULAWESI TENGGARA,40225.0,Indonesia,,,,-6.9636645,107.5724608,https://maps.google.com/?cid=0x0:0xe6451ac5e577e4ba,
mall,mall,Sulawesi Tenggara 93463,"Kabupaten Konawe, Sulawesi Tenggara","Kabupaten Konawe, Sulawesi Tenggara",SULAWESI TENGGARA,,Indonesia,,,,-4.0188372,122.2427,https://maps.google.com/?cid=0x0:0x197801a4ff84f808,
mall,Grosir Barang Kelontong,Pasar Amonggedo,"466F+FXF, Amonggedo Baru, Amonggedo, Kabupaten Konawe, Sulawesi Tenggara 93463","Amonggedo Baru, Amonggedo, Kabupaten Konawe",SULAWESI TENGGARA,93463.0,Indonesia,82292980405.0,,,-3.888825,122.2249258,https://maps.google.com/?cid=0x0:0xb9391b8b9e29477e,
mall,Toko Daging,Sinar Buana,"466G+J5R, Amonggedo Baru, Amonggedo, Kabupaten Konawe, Sulawesi Tenggara 93463","Amonggedo Baru, Amonggedo, Kabupaten Konawe",SULAWESI TENGGARA,93463.0,Indonesia,,,,-3.8883758,122.2253919,https://maps.google.com/?cid=0x0:0x8410579c1a734138,
mall,Pasar,Pasar Amesiu,"26XQ+3W2, Pondidaha, Kec. Pondidaha, Kabupaten Konawe, Sulawesi Tenggara 93463","Pondidaha, Kec. Pondidaha, Kabupaten Konawe",SULAWESI TENGGARA,93463.0,Indonesia,,,,-3.9523522,122.2397707,https://maps.google.com/?cid=0x0:0x151e1512b3ff3c3f,
mall,Pusat Perbelanjaan,Mall Mandonga,"JL. Abdullah Silondae, Korumba, Kec. Mandonga, Kota Kendari, Sulawesi Tenggara 93111","Korumba, Kec. Mandonga, Kota Kendari",SULAWESI TENGGARA,93111.0,Indonesia,,,,-3.9642856,122.5189989,https://maps.google.com/?cid=0x0:0x96320466b7420e2b,
mall,Area Mendaki,Riana_Store,"Tetemotaha, Kec. Wonggeduku, Kabupaten Konawe, Sulawesi Tenggara 93463","Kec. Wonggeduku, Kabupaten Konawe",SULAWESI TENGGARA,93463.0,Indonesia,,,,-3.9182809,122.1917495,https://maps.google.com/?cid=0x0:0x3789ed66ad0d0eeb,
mall,Toko bahan makanan,KAF_KURMA,"3626+PWF, Mesjid, Hongoa, Kec. Pondidaha, Kabupaten Konawe, Sulawesi Tenggara 93463","Mesjid, Hongoa, Kec. Pondidaha, Kabupaten Konawe",SULAWESI TENGGARA,93463.0,Indonesia,87784725637.0,,,-3.9481842,122.212287,https://maps.google.com/?cid=0x0:0x1332f9ce72f5a81e,
mall,Toko Ponsel,ANUGRAH CELL,"353V+M3X, Jl. Poros Unaaha - Pondidaha, Wukusao, Kec. Wonggeduku, Kabupaten Konawe, Sulawesi Tenggara 93463","Jl. Poros Unaaha - Pondidaha, Wukusao, Kec. Wonggeduku, Kabupaten Konawe",SULAWESI TENGGARA,93463.0,Indonesia,82345671098.0,,,-3.9457695,122.1927471,https://maps.google.com/?cid=0x0:0x4fbf5aea2efc8007,
mall,Kedai Kopi,Box_annisa,"3627+Q3W, Hongoa, Kec. Pondidaha, Kabupaten Konawe, Sulawesi Tenggara 93463","Hongoa, Kec. Pondidaha, Kabupaten Konawe",SULAWESI TENGGARA,93463.0,Indonesia,82296640200.0,,,-3.9480068,122.2127183,https://maps.google.com/?cid=0x0:0x2217edac0b98c5c4,
mall,Pusat Perbelanjaan,TR CELL HONGOA,"3628+M3W, Hongoa, Kec. Pondidaha, Kabupaten Konawe, Sulawesi Tenggara 93463","Hongoa, Kec. Pondidaha, Kabupaten Konawe",SULAWESI TENGGARA,93463.0,Indonesia,82287255673.0,,,-3.9482727,122.2151963,https://maps.google.com/?cid=0x0:0x2544c3ef1ff63518,
mall,Toko,Vidya samawaba,"25QJ+82F, Unnamed Road, Wawosolo, Kec. Wonggeduku, Kabupaten Konawe, Sulawesi Tenggara 93463","Unnamed Road, Wawosolo, Kec. Wonggeduku, Kabupaten Konawe",SULAWESI TENGGARA,93463.0,Indonesia,85394214442.0,,,-3.9616751,122.1800405,https://maps.google.com/?cid=0x0:0x4c6cab20a8ab6e6c,
mall,Toko,Sumber Harapan,"26WG+GW7, Pondidaha, Kec. Pondidaha, Kabupaten Konawe, Sulawesi Tenggara 93463","Pondidaha, Kec. Pondidaha, Kabupaten Konawe",SULAWESI TENGGARA,93463.0,Indonesia,85398120222.0,,,-3.9537064,122.2273113,https://maps.google.com/?cid=0x0:0x2b73aeef4dd1870a,
mall,Toko sembako pemerintah,PP.SRI MERTA NADI,"46VP+3C6, Jl. Pisang, Puasana, Amonggedo, Kabupaten Konawe, Sulawesi Tenggara 93461","Jl. Pisang, Puasana, Amonggedo, Kabupaten Konawe",SULAWESI TENGGARA,93461.0,Indonesia,,,,-3.8573268,122.236027,https://maps.google.com/?cid=0x0:0xc8dacccee8f1155a,
mall,Pusat Perbelanjaan,QIANNA GALLERY,"Jl. Poros Kendari-Unaaha, Wawolemo, Kec. Pondidaha, Kabupaten Konawe, Sulawesi Tenggara 93463","Wawolemo, Kec. Pondidaha, Kabupaten Konawe",SULAWESI TENGGARA,93463.0,Indonesia,82349492279.0,,,-3.9645782,122.268336,https://maps.google.com/?cid=0x0:0x78ace655889bb672,
mall,Toko,Toko tinas,"46H6+PHC, Unnamed Road, Amendete, Amonggedo, Kabupaten Konawe, Sulawesi Tenggara 93461","Unnamed Road, Amendete, Amonggedo, Kabupaten Konawe",SULAWESI TENGGARA,93461.0,Indonesia,,,,-3.8706983,122.2114033,https://maps.google.com/?cid=0x0:0x43c5769bcf1b1225,
mall,Pasar,Pasar Sampara,"298X+JX2, Sampara, Kec. Sampara, Kabupaten Konawe, Sulawesi Tenggara 93354","Sampara, Kec. Sampara, Kabupaten Konawe",SULAWESI TENGGARA,93354.0,Indonesia,,,,-3.9834968,122.3999002,https://maps.google.com/?cid=0x0:0xa8e164c26c848378,
mall,Pusat Perbelanjaan,Lippo Plaza Kendari,"Jl. Jenderal M.t. Haryono No.61 - 63, Bende, Kec. Kadia, Kota Kendari, Sulawesi Tenggara 93117","Bende, Kec. Kadia, Kota Kendari",SULAWESI TENGGARA,93117.0,Indonesia,4013196500.0,,,-3.9921675,122.5122065,https://maps.google.com/?cid=0x0:0x3216add04ddfc0d3,
mall,Kantor Perusahaan,Yamazaki Hidroponik,"25MC+4PR, Wawosolo, Kec. Wonggeduku, Kabupaten Konawe, Sulawesi Tenggara 93463","Wawosolo, Kec. Wonggeduku, Kabupaten Konawe",SULAWESI TENGGARA,93463.0,Indonesia,82349805644.0,,,-3.9671267,122.1717668,https://maps.google.com/?cid=0x0:0x19149f909fec6629,
mall,Toko Swalayan,TOKO DUA PUTRA,"W6MR+P2C, Kondoano, Kec. Mowila, Kabupaten Konawe Selatan, Sulawesi Tenggara 93873","Kondoano, Kec. Mowila, Kabupaten Konawe Selatan",SULAWESI TENGGARA,93873.0,Indonesia,,,,-4.065686,122.2400292,https://maps.google.com/?cid=0x0:0xe33e44dd5f22ce3d,
mall,Kafe,Pjr Erfy,"26VW+6C2, Pondidaha, Kec. Pondidaha, Kabupaten Konawe, Sulawesi Tenggara 93463","Pondidaha, Kec. Pondidaha, Kabupaten Konawe",SULAWESI TENGGARA,93463.0,Indonesia,81341775995.0,,,-3.9569751,122.2460274,https://maps.google.com/?cid=0x0:0x32f2afaf315d498c,
mall,Toko sembako pemerintah,Toko Arnis,"2CC6+FGW, Jl. Poros Unaaha - Pondidaha, Bao-Bao, Kec. Sampara, Kabupaten Konawe, Sulawesi Tenggara 93354","Jl. Poros Unaaha - Pondidaha, Bao-Bao, Kec. Sampara, Kabupaten Konawe",SULAWESI TENGGARA,93354.0,Indonesia,,,,-3.9787629,122.4113244,https://maps.google.com/?cid=0x0:0x35e14b9ce94f8a62,
mall,Pusat Perbelanjaan,Badzola Hidroponik,"26WF+PM3, Jl. Poros Unaaha - Pondidaha, Pondidaha, Kec. Pondidaha, Kabupaten Konawe, Sulawesi Tenggara 93463","Jl. Poros Unaaha - Pondidaha, Pondidaha, Kec. Pondidaha, Kabupaten Konawe",SULAWESI TENGGARA,93463.0,Indonesia,85241663808.0,,,-3.9532298,122.2241631,https://maps.google.com/?cid=0x0:0x25d21229b46f5fb9,
mall,mall,Sulawesi Tenggara 93417,"Kabupaten Konawe, Sulawesi Tenggara","Kabupaten Konawe, Sulawesi Tenggara",SULAWESI TENGGARA,,Indonesia,,,,-3.8237039,122.0951062,https://maps.google.com/?cid=0x0:0x168875208f2d43fd,
mall,,Anggaberi Cell,"43XF+V68, Asinua, Kec. Unaaha, Kabupaten Konawe, Sulawesi Tenggara 93415","Asinua, Kec. Unaaha, Kabupaten Konawe",SULAWESI TENGGARA,93415.0,Indonesia,85237757497.0,,,-3.8503387,122.0730628,https://maps.google.com/?cid=0x0:0xca79df6a36d24ccd,
mall,mall,Warung Mulki Anggaberi,"533F+CW3, Parauna, Kec. Anggaberi, Kabupaten Konawe, Sulawesi Tenggara 93417","Parauna, Kec. Anggaberi, Kabupaten Konawe",SULAWESI TENGGARA,93417.0,Indonesia,85333735086.0,,,-3.8464869,122.0747835,https://maps.google.com/?cid=0x0:0x383ad65719af5e06,
mall,Kantor Pemerintah,Mall Pelayanan Publik Kab. Konawe,"42VR+MGR, Puunaaha, Kec. Unaaha, Kabupaten Konawe, Sulawesi Tenggara","Kabupaten Konawe, Sulawesi Tenggara",SULAWESI TENGGARA,,Indonesia,,,,-3.8557517,122.0412567,https://maps.google.com/?cid=0x0:0x649c2dfe6f6be0b5,
mall,mall,Sulawesi Tenggara 93418,"Kec. Anggaberi, Kabupaten Konawe, Sulawesi Tenggara","Kabupaten Konawe, Sulawesi Tenggara",SULAWESI TENGGARA,,Indonesia,,,,-3.7855352,122.0666997,https://maps.google.com/?cid=0x0:0xcd4de7d244b6cd6,
mall,Kantor Pemerintah,Mall Pelayanan Publik Kab. Konawe,"42VR+MGR, Puunaaha, Kec. Unaaha, Kabupaten Konawe, Sulawesi Tenggara","Kabupaten Konawe, Sulawesi Tenggara",SULAWESI TENGGARA,,Indonesia,,,,-3.8557517,122.0412567,https://maps.google.com/?cid=0x0:0x649c2dfe6f6be0b5,
mall,,Anggaberi Cell,"43XF+V68, Asinua, Kec. Unaaha, Kabupaten Konawe, Sulawesi Tenggara 93415","Asinua, Kec. Unaaha, Kabupaten Konawe",SULAWESI TENGGARA,93415.0,Indonesia,85237757497.0,,,-3.8503387,122.0730628,https://maps.google.com/?cid=0x0:0xca79df6a36d24ccd,
mall,mall,Sulawesi Tenggara 93419,"Kabupaten Konawe, Sulawesi Tenggara","Kabupaten Konawe, Sulawesi Tenggara",SULAWESI TENGGARA,,Indonesia,,,,-3.732656,122.0780632,https://maps.google.com/?cid=0x0:0xe4572e579b3db3c3,
mall,,Anggaberi Cell,"43XF+V68, Asinua, Kec. Unaaha, Kabupaten Konawe, Sulawesi Tenggara 93415","Asinua, Kec. Unaaha, Kabupaten Konawe",SULAWESI TENGGARA,93415.0,Indonesia,85237757497.0,,,-3.8503387,122.0730628,https://maps.google.com/?cid=0x0:0xca79df6a36d24ccd,
mall,Kantor Pemerintah,Mall Pelayanan Publik Kab. Konawe,"42VR+MGR, Puunaaha, Kec. Unaaha, Kabupaten Konawe, Sulawesi Tenggara","Kabupaten Konawe, Sulawesi Tenggara",SULAWESI TENGGARA,,Indonesia,,,,-3.8557517,122.0412567,https://maps.google.com/?cid=0x0:0x649c2dfe6f6be0b5,
mall,mall,Sulawesi Tenggara 93452,"Kabupaten Konawe, Sulawesi Tenggara","Kabupaten Konawe, Sulawesi Tenggara",SULAWESI TENGGARA,,Indonesia,,,,-3.6324121,121.856261,https://maps.google.com/?cid=0x0:0x6957837804e8ec0e,
mall,Pasar,pasar sambeani,"6WVC+2FF, Sambeani, Kec. Abuki, Kabupaten Konawe, Sulawesi Tenggara 93452","Sambeani, Kec. Abuki, Kabupaten Konawe",SULAWESI TENGGARA,93452.0,Indonesia,,,,-3.757431,121.9211662,https://maps.google.com/?cid=0x0:0x56e4c890d4dacf23,
mall,Pasar,Pasar DU,"P676+57G, Andoolo Utama, Kec. Buke, Kabupaten Konawe Selatan, Sulawesi Tenggara 93813","Andoolo Utama, Kec. Buke, Kabupaten Konawe Selatan",SULAWESI TENGGARA,93813.0,Indonesia,,,,-4.2870667,122.2107167,https://maps.google.com/?cid=0x0:0x946c981a3bb33c7f,
mall,Pusat Perbelanjaan,Mall Mandonga,"JL. Abdullah Silondae, Korumba, Kec. Mandonga, Kota Kendari, Sulawesi Tenggara 93111","Korumba, Kec. Mandonga, Kota Kendari",SULAWESI TENGGARA,93111.0,Indonesia,,,,-3.9642856,122.5189989,https://maps.google.com/?cid=0x0:0x96320466b7420e2b,
mall,Komplek perumahan,Pasar Puriala,"X449+66X, Watundehoa, Kec. Puriala, Kabupaten Konawe, Sulawesi Tenggara 93452","Watundehoa, Kec. Puriala, Kabupaten Konawe",SULAWESI TENGGARA,93452.0,Indonesia,,,,-4.0443896,122.1181055,https://maps.google.com/?cid=0x0:0xc9ad802436484ba,
mall,Toko,Misua,"XFVQ+J85, Wonua Sangia, Landono, Anawai, Kec. Wua-Wua, Kabupaten Konawe Selatan, Sulawesi Tenggara 93117","Wonua Sangia, Landono, Anawai, Kec. Wua-Wua, Kabupaten Konawe Selatan",SULAWESI TENGGARA,93117.0,Indonesia,82347633165.0,,,-4.0059949,122.4883741,https://maps.google.com/?cid=0x0:0x24505cf377a18850,
mall,Kantor Pemerintah,Mall Pelayanan Publik Kab. Konawe,"42VR+MGR, Puunaaha, Kec. Unaaha, Kabupaten Konawe, Sulawesi Tenggara","Kabupaten Konawe, Sulawesi Tenggara",SULAWESI TENGGARA,,Indonesia,,,,-3.8557517,122.0412567,https://maps.google.com/?cid=0x0:0x649c2dfe6f6be0b5,
mall,Toko,TOKO PUNCAK SARI,"Unnamed Road, Sambaosu, Kec. Abuki, Kabupaten Konawe, Sulawesi Tenggara 93452","Sambaosu, Kec. Abuki, Kabupaten Konawe",SULAWESI TENGGARA,93452.0,Indonesia,82337574000.0,,,-3.6884948,121.8929595,https://maps.google.com/?cid=0x0:0x9985809e42324adf,
mall,Pusat Perbelanjaan,Lippo Plaza Kendari,"Jl. Jenderal M.t. Haryono No.61 - 63, Bende, Kec. Kadia, Kota Kendari, Sulawesi Tenggara 93117","Bende, Kec. Kadia, Kota Kendari",SULAWESI TENGGARA,93117.0,Indonesia,4013196500.0,,,-3.9921675,122.5122065,https://maps.google.com/?cid=0x0:0x3216add04ddfc0d3,
mall,Pasar Grosir Sayur,Pasar Sentral Wawotobi,"44F5+FPH, Wawotobi, Kec. Wawotobi, Kabupaten Konawe, Sulawesi Tenggara 93461","Wawotobi, Kec. Wawotobi, Kabupaten Konawe",SULAWESI TENGGARA,93461.0,Indonesia,,,,-3.8763148,122.1093715,https://maps.google.com/?cid=0x0:0xa6ef43821ac2685b,
mall,Pasar,"Pasar Sentral Lahimbua, Andowia, Kabupaten Konawe Utara, Sulawesi Tenggara","F43P+CWF, Lahimbua, Kec. Andowia, Kabupaten Konawe Utara, Sulawesi Tenggara 93353","Lahimbua, Kec. Andowia, Kabupaten Konawe Utara",SULAWESI TENGGARA,93353.0,Indonesia,,,,-3.5464363,122.1372924,https://maps.google.com/?cid=0x0:0x3db24bd13d8b7cfb,
mall,Taman,Asinua Water Park Konawe,"43Q8+R4C, Asinua, Kec. Unaaha, Kabupaten Konawe, Sulawesi Tenggara 93415","Asinua, Kec. Unaaha, Kabupaten Konawe",SULAWESI TENGGARA,93415.0,Indonesia,,,,-3.8604368,122.0652767,https://maps.google.com/?cid=0x0:0xa2dcd5148c631b5b,
mall,Toko umum,Toko Ayu Bayu,"6XF3+4WM, Unaasi Jaya, Kec. Abuki, Kabupaten Konawe, Sulawesi Tenggara 93575","Unaasi Jaya, Kec. Abuki, Kabupaten Konawe",SULAWESI TENGGARA,93575.0,Indonesia,,,,-3.7771711,121.9547884,https://maps.google.com/?cid=0x0:0x960dec7223e6b49d,
mall,,Anggaberi Cell,"43XF+V68, Asinua, Kec. Unaaha, Kabupaten Konawe, Sulawesi Tenggara 93415","Asinua, Kec. Unaaha, Kabupaten Konawe",SULAWESI TENGGARA,93415.0,Indonesia,85237757497.0,,,-3.8503387,122.0730628,https://maps.google.com/?cid=0x0:0xca79df6a36d24ccd,
mall,mall,Kios ReRe,"8Q4P+VF, Upt Asinua Jaya, Kec. Asinua, Kabupaten Konawe, Sulawesi Tenggara","Kabupaten Konawe, Sulawesi Tenggara",SULAWESI TENGGARA,,Indonesia,,,,-3.6928065,121.7862076,https://maps.google.com/?cid=0x0:0x94dc78fa77674eec,
mall,mall,Kec. Asinua,"Kabupaten Konawe, Sulawesi Tenggara","Kabupaten Konawe, Sulawesi Tenggara",SULAWESI TENGGARA,,Indonesia,,,,-3.6895482,121.8515608,https://maps.google.com/?cid=0x0:0x544392d2fbd9d6d1,
mall,mall,Kec. Besulutu,"Kabupaten Konawe, Sulawesi Tenggara","Kabupaten Konawe, Sulawesi Tenggara",SULAWESI TENGGARA,,Indonesia,,,,-3.9652769,122.3319005,https://maps.google.com/?cid=0x0:0x2fe7f06ce6b98027,
mall,Toko Perlengkapan Rumah,Dapur Desa Labela,"28PW+24M, Jl. Poros, Labela, Kec. Besulutu, Kabupaten Konawe, Sulawesi Tenggara 93354","Jl. Poros, Labela, Kec. Besulutu, Kabupaten Konawe",SULAWESI TENGGARA,93354.0,Indonesia,,,,-3.9649229,122.3452943,https://maps.google.com/?cid=0x0:0x181c9d3e88dea862,
mall,Toko grosir,Toko Disna,"28MM+VHR, Onembute, Kec. Besulutu, Kabupaten Konawe, Sulawesi Tenggara 93354","Onembute, Kec. Besulutu, Kabupaten Konawe",SULAWESI TENGGARA,93354.0,Indonesia,82248124389.0,,,-3.9652673,122.3338864,https://maps.google.com/?cid=0x0:0xc691f8e19c48a67a,
mall,mall,Toko Harapan Kita,"27PF+RC9, Wawolemo, Kec. Pondidaha, Kabupaten Konawe, Sulawesi Tenggara","Kabupaten Konawe, Sulawesi Tenggara",SULAWESI TENGGARA,,Indonesia,,,,-3.9629682,122.2736116,https://maps.google.com/?cid=0x0:0xb6d245b0a088b7da,
mall,Pusat Perbelanjaan,QIANNA GALLERY,"Jl. Poros Kendari-Unaaha, Wawolemo, Kec. Pondidaha, Kabupaten Konawe, Sulawesi Tenggara 93463","Wawolemo, Kec. Pondidaha, Kabupaten Konawe",SULAWESI TENGGARA,93463.0,Indonesia,82349492279.0,,,-3.9645782,122.268336,https://maps.google.com/?cid=0x0:0x78ace655889bb672,
mall,Pusat Perbelanjaan,Mall Mandonga,"JL. Abdullah Silondae, Korumba, Kec. Mandonga, Kota Kendari, Sulawesi Tenggara 93111","Korumba, Kec. Mandonga, Kota Kendari",SULAWESI TENGGARA,93111.0,Indonesia,,,,-3.9642856,122.5189989,https://maps.google.com/?cid=0x0:0x96320466b7420e2b,
mall,Pasar,Pasar Sampara,"298X+JX2, Sampara, Kec. Sampara, Kabupaten Konawe, Sulawesi Tenggara 93354","Sampara, Kec. Sampara, Kabupaten Konawe",SULAWESI TENGGARA,93354.0,Indonesia,,,,-3.9834968,122.3999002,https://maps.google.com/?cid=0x0:0xa8e164c26c848378,
mall,mall,Kec. Bondoala,"Kabupaten Konawe, Sulawesi Tenggara","Kabupaten Konawe, Sulawesi Tenggara",SULAWESI TENGGARA,,Indonesia,,,,-3.9388201,122.4278622,https://maps.google.com/?cid=0x0:0xda0ab33f997b0958,
mall,Minimarket,MM Mart.,"3FM3+J79, Rumbia, Kec. Bondoala, Kabupaten Konawe, Sulawesi Tenggara 93354","Rumbia, Kec. Bondoala, Kabupaten Konawe",SULAWESI TENGGARA,93354.0,Indonesia,,,,-3.9159639,122.4532267,https://maps.google.com/?cid=0x0:0x4b903a19792cace8,
mall,Pasar,Pasar Laosu,"Laosu, Kec. Bondoala, Kabupaten Konawe, Sulawesi Tenggara 93354","Kec. Bondoala, Kabupaten Konawe",SULAWESI TENGGARA,93354.0,Indonesia,,,,-3.896588,122.4629372,https://maps.google.com/?cid=0x0:0x4b74e8fe7339bf10,
mall,Toko,KIOS DURI,"3CCH+JV4, Paku, Kec. Bondoala, Kabupaten Konawe, Sulawesi Tenggara 93354","Paku, Kec. Bondoala, Kabupaten Konawe",SULAWESI TENGGARA,93354.0,Indonesia,,,,-3.9284839,122.4297141,https://maps.google.com/?cid=0x0:0xe7e34cfeb868dc3a,
mall,,Bus47 link,"4C2F+PF6, Pebunooha, Kec. Bondoala, Kabupaten Konawe, Sulawesi Tenggara 93354","Pebunooha, Kec. Bondoala, Kabupaten Konawe",SULAWESI TENGGARA,93354.0,Indonesia,85256033339.0,,,-3.8982249,122.423641,https://maps.google.com/?cid=0x0:0xbbeff2179b786d8c,
mall,mall,IKBAL JAYA,"4F26+W92, Laosu, Kec. Bondoala, Kabupaten Konawe, Sulawesi Tenggara 93354","Laosu, Kec. Bondoala, Kabupaten Konawe",SULAWESI TENGGARA,93354.0,Indonesia,82148094456.0,,,-3.8977468,122.4608775,https://maps.google.com/?cid=0x0:0x51541a96a1233296,
mall,Toko umum,Alisha olshop,"3FX9+6HG, Lalonggaluku, Kec. Bondoala, Kabupaten Konawe, Sulawesi Tenggara 93354","Lalonggaluku, Kec. Bondoala, Kabupaten Konawe",SULAWESI TENGGARA,93354.0,Indonesia,,,,-3.9019377,122.4689411,https://maps.google.com/?cid=0x0:0xd4b67ace591ba9f9,
mall,Toko sembako pemerintah,Toko Arnis,"2CC6+FGW, Jl. Poros Unaaha - Pondidaha, Bao-Bao, Kec. Sampara, Kabupaten Konawe, Sulawesi Tenggara 93354","Jl. Poros Unaaha - Pondidaha, Bao-Bao, Kec. Sampara, Kabupaten Konawe",SULAWESI TENGGARA,93354.0,Indonesia,,,,-3.9787629,122.4113244,https://maps.google.com/?cid=0x0:0x35e14b9ce94f8a62,
mall,Pasar,Pasar Sampara,"298X+JX2, Sampara, Kec. Sampara, Kabupaten Konawe, Sulawesi Tenggara 93354","Sampara, Kec. Sampara, Kabupaten Konawe",SULAWESI TENGGARA,93354.0,Indonesia,,,,-3.9834968,122.3999002,https://maps.google.com/?cid=0x0:0xa8e164c26c848378,
mall,Toko,TOKO SAID MUBARAK,"2CRX+6F9, Abelisawah, Kec. Sampara, Kabupaten Konawe, Sulawesi Tenggara 93354","Abelisawah, Kec. Sampara, Kabupaten Konawe",SULAWESI TENGGARA,93354.0,Indonesia,82195937534.0,,,-3.9594502,122.4487313,https://maps.google.com/?cid=0x0:0xd5475cae18b554e3,
mall,Toko umum,RAFIF JAYA CELLULER,"2CHJ+32G, Anggalomoare, Kec. Sampara, Kabupaten Konawe, Sulawesi Tenggara 93354","Anggalomoare, Kec. Sampara, Kabupaten Konawe",SULAWESI TENGGARA,93354.0,Indonesia,82293708156.0,,,-3.9723229,122.4300671,https://maps.google.com/?cid=0x0:0x2fda0e2487fdca92,
mall,Toko Ponsel,Naura Cell,"4FWG+2G9, Unnamed Road, Ulu Lalimbue, Kec. Kapoiala, Kabupaten Konawe, Sulawesi Tenggara 93354","Unnamed Road, Ulu Lalimbue, Kec. Kapoiala, Kabupaten Konawe",SULAWESI TENGGARA,93354.0,Indonesia,85211459300.0,,,-3.8549524,122.4763513,https://maps.google.com/?cid=0x0:0x61c2c9131873b056,
mall,Toko bahan makanan,Ss16 Cell,"2CHJ+42G, Anggalomoare, Kec. Sampara, Kabupaten Konawe, Sulawesi Tenggara 93354","Anggalomoare, Kec. Sampara, Kabupaten Konawe",SULAWESI TENGGARA,93354.0,Indonesia,82293708156.0,,,-3.9721824,122.4300781,https://maps.google.com/?cid=0x0:0xbce570fb03b2c0c0,
mall,Toko Perlengkapan Rumah,Dapur Desa Labela,"28PW+24M, Jl. Poros, Labela, Kec. Besulutu, Kabupaten Konawe, Sulawesi Tenggara 93354","Jl. Poros, Labela, Kec. Besulutu, Kabupaten Konawe",SULAWESI TENGGARA,93354.0,Indonesia,,,,-3.9649229,122.3452943,https://maps.google.com/?cid=0x0:0x181c9d3e88dea862,
mall,Pusat Perbelanjaan,Al-meira.store,"2CJW+48Q, Jl. Poros Kendari, Lakomea, Kec. Sampara, Kabupaten Konawe, Sulawesi Tenggara 93354","Jl. Poros Kendari, Lakomea, Kec. Sampara, Kabupaten Konawe",SULAWESI TENGGARA,93354.0,Indonesia,82253187363.0,,,-3.9696527,122.4458691,https://maps.google.com/?cid=0x0:0x270b35cb7d78ef8c,
mall,Toko Pakaian,Olshop Ratu Salsa 2,"Sampara, Kec. Sampara, Kabupaten Konawe, Sulawesi Tenggara 93455","Kec. Sampara, Kabupaten Konawe",SULAWESI TENGGARA,93455.0,Indonesia,87876640684.0,,,-3.9826735,122.3995932,https://maps.google.com/?cid=0x0:0x40592b5dd1f6a474,
mall,Toko,Kios mama uto,"Jl. Poros Unaaha - Pondidaha No.184, Andaroa, Kec. Sampara, Kabupaten Konawe, Sulawesi Tenggara 93354","Andaroa, Kec. Sampara, Kabupaten Konawe",SULAWESI TENGGARA,93354.0,Indonesia,,,,-3.9777017,122.4166481,https://maps.google.com/?cid=0x0:0x151085ab18da38a2,
mall,Toko grosir,Toko Disna,"28MM+VHR, Onembute, Kec. Besulutu, Kabupaten Konawe, Sulawesi Tenggara 93354","Onembute, Kec. Besulutu, Kabupaten Konawe",SULAWESI TENGGARA,93354.0,Indonesia,82248124389.0,,,-3.9652673,122.3338864,https://maps.google.com/?cid=0x0:0xc691f8e19c48a67a,
mall,Toko Kosmetik,IBELS STORE  MAKE UP STUDIO,"dan, Desa Kapoiala Baru, Dekat Lorong SD Kapoiala, Lorong, Pincara, Kec. Kapoiala, Kabupaten Konawe, Sulawesi Tenggara 93354","Desa Kapoiala Baru, Dekat Lorong SD Kapoiala, Lorong, Pincara, Kec. Kapoiala, Kabupaten Konawe",SULAWESI TENGGARA,93354.0,Indonesia,,,,-3.8686255,122.4700396,https://maps.google.com/?cid=0x0:0x52bedabef4282187,
mall,Mal outlet,Blonjoo Toserba,"Wawombalata, Kec. Mandonga, Kota Kendari, Sulawesi Tenggara 93113","Kec. Mandonga, Kota Kendari",SULAWESI TENGGARA,93113.0,Indonesia,82292745147.0,,,-3.9453325,122.5022168,https://maps.google.com/?cid=0x0:0xd61ebb27a35dc87a,
mall,Pusat Perbelanjaan,Mall Mandonga,"JL. Abdullah Silondae, Korumba, Kec. Mandonga, Kota Kendari, Sulawesi Tenggara 93111","Korumba, Kec. Mandonga, Kota Kendari",SULAWESI TENGGARA,93111.0,Indonesia,,,,-3.9642856,122.5189989,https://maps.google.com/?cid=0x0:0x96320466b7420e2b,
mall,Toko Ponsel,Aniqhia Cell,"2C84+58C, Jl. Poros Unaaha - Pondidaha, Rawua, Kec. Sampara, Kabupaten Konawe, Sulawesi Tenggara 93354","Jl. Poros Unaaha - Pondidaha, Rawua, Kec. Sampara, Kabupaten Konawe",SULAWESI TENGGARA,93354.0,Indonesia,81373905983.0,,,-3.9845646,122.4057692,https://maps.google.com/?cid=0x0:0x5f499a1e7a4c525d,
mall,mall,Sulawesi Tenggara 93771,"Kabupaten Bombana, Sulawesi Tenggara","Kabupaten Bombana, Sulawesi Tenggara",SULAWESI TENGGARA,,Indonesia,,,,-4.8093319,122.0155491,https://maps.google.com/?cid=0x0:0xcd05dde02c7b9331,
mall,Pusat Perbelanjaan,Mall Mandonga,"JL. Abdullah Silondae, Korumba, Kec. Mandonga, Kota Kendari, Sulawesi Tenggara 93111","Korumba, Kec. Mandonga, Kota Kendari",SULAWESI TENGGARA,93111.0,Indonesia,,,,-3.9642856,122.5189989,https://maps.google.com/?cid=0x0:0x96320466b7420e2b,
mall,Minimarket,MM Mart.,"3FM3+J79, Rumbia, Kec. Bondoala, Kabupaten Konawe, Sulawesi Tenggara 93354","Rumbia, Kec. Bondoala, Kabupaten Konawe",SULAWESI TENGGARA,93354.0,Indonesia,,,,-3.9159639,122.4532267,https://maps.google.com/?cid=0x0:0x4b903a19792cace8,
mall,Pasar,Pasar Laosu,"Laosu, Kec. Bondoala, Kabupaten Konawe, Sulawesi Tenggara 93354","Kec. Bondoala, Kabupaten Konawe",SULAWESI TENGGARA,93354.0,Indonesia,,,,-3.896588,122.4629372,https://maps.google.com/?cid=0x0:0x4b74e8fe7339bf10,
mall,Toko umum,Alisha olshop,"3FX9+6HG, Lalonggaluku, Kec. Bondoala, Kabupaten Konawe, Sulawesi Tenggara 93354","Lalonggaluku, Kec. Bondoala, Kabupaten Konawe",SULAWESI TENGGARA,93354.0,Indonesia,,,,-3.9019377,122.4689411,https://maps.google.com/?cid=0x0:0xd4b67ace591ba9f9,
mall,Pusat Perbelanjaan,Lippo Plaza Kendari,"Jl. Jenderal M.t. Haryono No.61 - 63, Bende, Kec. Kadia, Kota Kendari, Sulawesi Tenggara 93117","Bende, Kec. Kadia, Kota Kendari",SULAWESI TENGGARA,93117.0,Indonesia,4013196500.0,,,-3.9921675,122.5122065,https://maps.google.com/?cid=0x0:0x3216add04ddfc0d3,
mall,Toko,KIOS DURI,"3CCH+JV4, Paku, Kec. Bondoala, Kabupaten Konawe, Sulawesi Tenggara 93354","Paku, Kec. Bondoala, Kabupaten Konawe",SULAWESI TENGGARA,93354.0,Indonesia,,,,-3.9284839,122.4297141,https://maps.google.com/?cid=0x0:0xe7e34cfeb868dc3a,
mall,mall,IKBAL JAYA,"4F26+W92, Laosu, Kec. Bondoala, Kabupaten Konawe, Sulawesi Tenggara 93354","Laosu, Kec. Bondoala, Kabupaten Konawe",SULAWESI TENGGARA,93354.0,Indonesia,82148094456.0,,,-3.8977468,122.4608775,https://maps.google.com/?cid=0x0:0x51541a96a1233296,
mall,Toko,Waldan All Shop,"86VR+X43, Tinobu, Kec. Lasolo, Kabupaten Konawe Utara, Sulawesi Tenggara 93352","Tinobu, Kec. Lasolo, Kabupaten Konawe Utara",SULAWESI TENGGARA,93352.0,Indonesia,82292567007.0,,,-3.6551132,122.2403032,https://maps.google.com/?cid=0x0:0xd5907a63746b1164,
mall,,Bus47 link,"4C2F+PF6, Pebunooha, Kec. Bondoala, Kabupaten Konawe, Sulawesi Tenggara 93354","Pebunooha, Kec. Bondoala, Kabupaten Konawe",SULAWESI TENGGARA,93354.0,Indonesia,85256033339.0,,,-3.8982249,122.423641,https://maps.google.com/?cid=0x0:0xbbeff2179b786d8c,
mall,Toko sembako pemerintah,Toko Arnis,"2CC6+FGW, Jl. Poros Unaaha - Pondidaha, Bao-Bao, Kec. Sampara, Kabupaten Konawe, Sulawesi Tenggara 93354","Jl. Poros Unaaha - Pondidaha, Bao-Bao, Kec. Sampara, Kabupaten Konawe",SULAWESI TENGGARA,93354.0,Indonesia,,,,-3.9787629,122.4113244,https://maps.google.com/?cid=0x0:0x35e14b9ce94f8a62,
mall,Toko Perlengkapan Rumah,Dapur Desa Labela,"28PW+24M, Jl. Poros, Labela, Kec. Besulutu, Kabupaten Konawe, Sulawesi Tenggara 93354","Jl. Poros, Labela, Kec. Besulutu, Kabupaten Konawe",SULAWESI TENGGARA,93354.0,Indonesia,,,,-3.9649229,122.3452943,https://maps.google.com/?cid=0x0:0x181c9d3e88dea862,
mall,Pusat Perbelanjaan,Al-meira.store,"2CJW+48Q, Jl. Poros Kendari, Lakomea, Kec. Sampara, Kabupaten Konawe, Sulawesi Tenggara 93354","Jl. Poros Kendari, Lakomea, Kec. Sampara, Kabupaten Konawe",SULAWESI TENGGARA,93354.0,Indonesia,82253187363.0,,,-3.9696527,122.4458691,https://maps.google.com/?cid=0x0:0x270b35cb7d78ef8c,
mall,Pasar,Pasar DU,"P676+57G, Andoolo Utama, Kec. Buke, Kabupaten Konawe Selatan, Sulawesi Tenggara 93813","Andoolo Utama, Kec. Buke, Kabupaten Konawe Selatan",SULAWESI TENGGARA,93813.0,Indonesia,,,,-4.2870667,122.2107167,https://maps.google.com/?cid=0x0:0x946c981a3bb33c7f,
mall,Mal outlet,Blonjoo Toserba,"Wawombalata, Kec. Mandonga, Kota Kendari, Sulawesi Tenggara 93113","Kec. Mandonga, Kota Kendari",SULAWESI TENGGARA,93113.0,Indonesia,82292745147.0,,,-3.9453325,122.5022168,https://maps.google.com/?cid=0x0:0xd61ebb27a35dc87a,
mall,Pasar,Pasar Sampara,"298X+JX2, Sampara, Kec. Sampara, Kabupaten Konawe, Sulawesi Tenggara 93354","Sampara, Kec. Sampara, Kabupaten Konawe",SULAWESI TENGGARA,93354.0,Indonesia,,,,-3.9834968,122.3999002,https://maps.google.com/?cid=0x0:0xa8e164c26c848378,
mall,Toko Perlengkapan Rumah,ACE Informa,"Jl. Jend. Ahmad Yani No.26, Kadia, Kec. Kadia, Kota Kendari, Sulawesi Tenggara 93115","Kadia, Kec. Kadia, Kota Kendari",SULAWESI TENGGARA,93115.0,Indonesia,,,,-3.9813173,122.5097731,https://maps.google.com/?cid=0x0:0x8035d2a319cbe4a8,
mall,Pusat Perbelanjaan,DEPOT KHUMAIRA,"2FJM+M4G, Jl. Abd Gani/P.H.L, Watulondo, Kec. Puuwatu, Kota Kendari, Sulawesi Tenggara 93115","Jl. Abd Gani/P.H.L, Watulondo, Kec. Puuwatu, Kota Kendari",SULAWESI TENGGARA,93115.0,Indonesia,82199983747.0,,,-3.9683154,122.482831,https://maps.google.com/?cid=0x0:0xb0351888a442886d,
mall,Toko Swalayan,AEON Mall Deltamas - Cikarang Bekasi,"Jl. Ganesha Boulevard, Kota Deltamas, Kec. Cikarang Pusat, Kabupaten Bekasi, Jawa Barat 17530","Kota Deltamas, Kec. Cikarang Pusat, Kabupaten Bekasi",SULAWESI TENGGARA,17530.0,Indonesia,2138733333.0,,,-6.3519407,107.1954494,https://maps.google.com/?cid=0x0:0xa692ce22e7339115,
mall,Toko Pakaian,Olshop Ratu Salsa 2,"Sampara, Kec. Sampara, Kabupaten Konawe, Sulawesi Tenggara 93455","Kec. Sampara, Kabupaten Konawe",SULAWESI TENGGARA,93455.0,Indonesia,87876640684.0,,,-3.9826735,122.3995932,https://maps.google.com/?cid=0x0:0x40592b5dd1f6a474,
mall,Hipermarket,AEON MALL Jakarta Garden City,"Jl. Jkt Garden City Boulevard No.1, RT.8/RW.6, Cakung Tim., Kec. Cakung, Kota Jakarta Timur, Daerah Khusus Ibukota Jakarta 13910","RT.8/RW.6, Cakung Tim., Kec. Cakung, Kota Jakarta Timur",SULAWESI TENGGARA,13910.0,Indonesia,2122462525.0,,,-6.1721883,106.9522209,https://maps.google.com/?cid=0x0:0x2c473319d7d1eef6,
mall,Toko umum,Alisha olshop,"3FX9+6HG, Lalonggaluku, Kec. Bondoala, Kabupaten Konawe, Sulawesi Tenggara 93354","Lalonggaluku, Kec. Bondoala, Kabupaten Konawe",SULAWESI TENGGARA,93354.0,Indonesia,,,,-3.9019377,122.4689411,https://maps.google.com/?cid=0x0:0xd4b67ace591ba9f9,
mall,mall,Kec. Kapoiala,"Kabupaten Konawe, Sulawesi Tenggara","Kabupaten Konawe, Sulawesi Tenggara",SULAWESI TENGGARA,,Indonesia,,,,-3.8402971,122.4750168,https://maps.google.com/?cid=0x0:0x1bc15edd313b50bb,
mall,mall,Sulawesi Tenggara 93461,"Kabupaten Konawe, Sulawesi Tenggara","Kabupaten Konawe, Sulawesi Tenggara",SULAWESI TENGGARA,,Indonesia,,,,-3.5696464,121.6739371,https://maps.google.com/?cid=0x0:0x6a7dc22a0252feb2,
mall,Pusat Perbelanjaan,Mall Mandonga,"JL. Abdullah Silondae, Korumba, Kec. Mandonga, Kota Kendari, Sulawesi Tenggara 93111","Korumba, Kec. Mandonga, Kota Kendari",SULAWESI TENGGARA,93111.0,Indonesia,,,,-3.9642856,122.5189989,https://maps.google.com/?cid=0x0:0x96320466b7420e2b,
mall,Pasar Grosir Sayur,Pasar Sentral Wawotobi,"44F5+FPH, Wawotobi, Kec. Wawotobi, Kabupaten Konawe, Sulawesi Tenggara 93461","Wawotobi, Kec. Wawotobi, Kabupaten Konawe",SULAWESI TENGGARA,93461.0,Indonesia,,,,-3.8763148,122.1093715,https://maps.google.com/?cid=0x0:0xa6ef43821ac2685b,
mall,Toko Bahan Bangunan,MULIA JAYA STEEL,"43GX+3CF, Lalosabila, Kec. Wawotobi, Kabupaten Konawe, Sulawesi Tenggara 93461","Lalosabila, Kec. Wawotobi, Kabupaten Konawe",SULAWESI TENGGARA,93461.0,Indonesia,8114099187.0,,,-3.8748043,122.0985611,https://maps.google.com/?cid=0x0:0xd95aeeabe5cb108e,
mall,Kios,TOKO SINAR MAS,"Jl. Poros Kendari - Pohara No.240, Wawotobi, Kec. Wawotobi, Kabupaten Konawe, Sulawesi Tenggara 93461","Wawotobi, Kec. Wawotobi, Kabupaten Konawe",SULAWESI TENGGARA,93461.0,Indonesia,,,,-3.8761644,122.1135819,https://maps.google.com/?cid=0x0:0x2b9f3ab05b8cc446,
mall,Toko Pakaian,Naimshop Unaaha,"452H+G7G, Karandu, Kec. Wawotobi, Kabupaten Konawe, Sulawesi Tenggara 93461","Karandu, Kec. Wawotobi, Kabupaten Konawe",SULAWESI TENGGARA,93461.0,Indonesia,81354201991.0,,,-3.898686,122.178195,https://maps.google.com/?cid=0x0:0x3e8628cf420197eb,
mall,Toko Ponsel,KING CELL,"Tudameaso, jln poros, Woerahi, Kec. Meluhu, Kabupaten Konawe, Sulawesi Tenggara 93461","jln poros, Woerahi, Kec. Meluhu, Kabupaten Konawe",SULAWESI TENGGARA,93461.0,Indonesia,82211929394.0,,,-3.8480506,122.2036274,https://maps.google.com/?cid=0x0:0x26ac2ea5633645e0,
mall,Pusat Perbelanjaan,Simpang lambuya,"23MH+RC3, Jl. Poros Motaha - Lambuya, Awuliti, Kec. Lambuya, Kabupaten Konawe, Sulawesi Tenggara 93464","Jl. Poros Motaha - Lambuya, Awuliti, Kec. Lambuya, Kabupaten Konawe",SULAWESI TENGGARA,93464.0,Indonesia,,,,-3.9654858,122.078557,https://maps.google.com/?cid=0x0:0xae00cb0224b07882,
mall,,TK. AMALI ELEKTRONIK  FURNITURE,"43HP+RRP, Lalosabila, Kec. Wawotobi, Kabupaten Konawe, Sulawesi Tenggara 93461","Lalosabila, Kec. Wawotobi, Kabupaten Konawe",SULAWESI TENGGARA,93461.0,Indonesia,81341986777.0,,,-3.8704039,122.0870638,https://maps.google.com/?cid=0x0:0xade95c2c05ce461d,
mall,Pasar,pasar sambeani,"6WVC+2FF, Sambeani, Kec. Abuki, Kabupaten Konawe, Sulawesi Tenggara 93452","Sambeani, Kec. Abuki, Kabupaten Konawe",SULAWESI TENGGARA,93452.0,Indonesia,,,,-3.757431,121.9211662,https://maps.google.com/?cid=0x0:0x56e4c890d4dacf23,
mall,Pusat Perbelanjaan,Toko elsinta (kantor pusat cv. Elsinta),"35VM+G9R, Unnamed Road, Karandu, Kec. Wawotobi, Kabupaten Konawe, Sulawesi Tenggara 93461","Unnamed Road, Karandu, Kec. Wawotobi, Kabupaten Konawe",SULAWESI TENGGARA,93461.0,Indonesia,85299444130.0,,,-3.9061375,122.1833906,https://maps.google.com/?cid=0x0:0x33503ce1df406f98,
mall,Toko bahan makanan,Toko Fadil,"452H+Q8C, Karandu, Kec. Wawotobi, Kabupaten Konawe, Sulawesi Tenggara 93461","Karandu, Kec. Wawotobi, Kabupaten Konawe",SULAWESI TENGGARA,93461.0,Indonesia,,,,-3.8982352,122.1786865,https://maps.google.com/?cid=0x0:0x6535277f3170d33c,
mall,Toko,Toko tinas,"46H6+PHC, Unnamed Road, Amendete, Amonggedo, Kabupaten Konawe, Sulawesi Tenggara 93461","Unnamed Road, Amendete, Amonggedo, Kabupaten Konawe",SULAWESI TENGGARA,93461.0,Indonesia,,,,-3.8706983,122.2114033,https://maps.google.com/?cid=0x0:0x43c5769bcf1b1225,
mall,Pemasok Produk Kecantikan,Toko Rizal Cosmetic,"44G5+2GC, Wawotobi, Kec. Wawotobi, Kabupaten Konawe, Sulawesi Tenggara 93461","Wawotobi, Kec. Wawotobi, Kabupaten Konawe",SULAWESI TENGGARA,93461.0,Indonesia,81258149744.0,,,-3.8749416,122.1087771,https://maps.google.com/?cid=0x0:0xc25729439dc54c84,
mall,Kios,Kios NOUMI,"32JW+WC4, Langgomea, Kec. Uepai, Kabupaten Konawe, Sulawesi Tenggara 93464","Langgomea, Kec. Uepai, Kabupaten Konawe",SULAWESI TENGGARA,93464.0,Indonesia,,,,-3.917726,122.0460741,https://maps.google.com/?cid=0x0:0xd1fcbb7025161ab1,
mall,Pusat Perbelanjaan,toko matahari,"42QR+G73, Puunaaha, Kec. Unaaha, Kabupaten Konawe, Sulawesi Tenggara 93415","Puunaaha, Kec. Unaaha, Kabupaten Konawe",SULAWESI TENGGARA,93415.0,Indonesia,,,,-3.8612261,122.0406569,https://maps.google.com/?cid=0x0:0x160b324712f0fe83,
mall,Wahana Taman Hiburan,Ambinudo Advertising,"33R8+6FG, Jalan Poros Kendari, Pohara, Uepai, Konawe Regency, South East Sulawesi 93464","Jalan Poros Kendari, Pohara, Uepai, Konawe Regency",SULAWESI TENGGARA,93464.0,Indonesia,8114410079.0,,,-3.9094386,122.0662076,https://maps.google.com/?cid=0x0:0xbe20977691df3584,
mall,Toko sembako pemerintah,PP.SRI MERTA NADI,"46VP+3C6, Jl. Pisang, Puasana, Amonggedo, Kabupaten Konawe, Sulawesi Tenggara 93461","Jl. Pisang, Puasana, Amonggedo, Kabupaten Konawe",SULAWESI TENGGARA,93461.0,Indonesia,,,,-3.8573268,122.236027,https://maps.google.com/?cid=0x0:0xc8dacccee8f1155a,
mall,Toko,Foto Copy Rafifa,"44VR+76M, Palarahi, Kec. Wawotobi, Kabupaten Konawe, Sulawesi Tenggara 93461","Palarahi, Kec. Wawotobi, Kabupaten Konawe",SULAWESI TENGGARA,93461.0,Indonesia,85341520009.0,,,-3.8567892,122.1405413,https://maps.google.com/?cid=0x0:0x6089ceead9ab257,
mall,Toko Perlengkapan Rumah,Can HydroFarm,"43PJ+GX4, Tuoy, Kec. Unaaha, Kabupaten Konawe, Sulawesi Tenggara 93415","Tuoy, Kec. Unaaha, Kabupaten Konawe",SULAWESI TENGGARA,93415.0,Indonesia,82271176162.0,,,-3.8637335,122.082467,https://maps.google.com/?cid=0x0:0x6595154efad2c94c,
mall,Grosir Barang Kelontong,Pasar Amonggedo,"466F+FXF, Amonggedo Baru, Amonggedo, Kabupaten Konawe, Sulawesi Tenggara 93463","Amonggedo Baru, Amonggedo, Kabupaten Konawe",SULAWESI TENGGARA,93463.0,Indonesia,82292980405.0,,,-3.888825,122.2249258,https://maps.google.com/?cid=0x0:0xb9391b8b9e29477e,
mall,Kantor Pemerintah,Mall Pelayanan Publik Kab. Konawe,"42VR+MGR, Puunaaha, Kec. Unaaha, Kabupaten Konawe, Sulawesi Tenggara","Kabupaten Konawe, Sulawesi Tenggara",SULAWESI TENGGARA,,Indonesia,,,,-3.8557517,122.0412567,https://maps.google.com/?cid=0x0:0x649c2dfe6f6be0b5,
mall,Toko,Sulawesi tenggara,"336M+QFQ, Wonuahoa, Kec. Lambuya, Kabupaten Konawe, Sulawesi Tenggara","Kabupaten Konawe, Sulawesi Tenggara",SULAWESI TENGGARA,,Indonesia,,,,-3.9380432,122.0837445,https://maps.google.com/?cid=0x0:0xf62b34ee5ce0ffbf,
mall,Kios,KIOS PUTRA TUNGGAL,"RT.001/RW.001, Kasaeda, Kec. Uepai, Kabupaten Konawe, Sulawesi Tenggara","Kabupaten Konawe, Sulawesi Tenggara",SULAWESI TENGGARA,,Indonesia,,,,-3.9148262,122.0725964,https://maps.google.com/?cid=0x0:0x1df48d8b570494b7,
mall,Toko,UD. Sinonggiri Jaya,"546M+3F3, Unnamed Road, Anggotoa, Kec. Wawotobi, Kabupaten Konawe, Sulawesi Tenggara 93461","Unnamed Road, Anggotoa, Kec. Wawotobi, Kabupaten Konawe",SULAWESI TENGGARA,93461.0,Indonesia,8114008322.0,,,-3.8398705,122.133662,https://maps.google.com/?cid=0x0:0x76cd229074c99f80,
mall,Toko,Airin Tani,"342H+VJP, Unnamed Road, Teteona, Kec. Wonggeduku, Kabupaten Konawe, Sulawesi Tenggara 93461","Unnamed Road, Teteona, Kec. Wonggeduku, Kabupaten Konawe",SULAWESI TENGGARA,93461.0,Indonesia,,,,-3.9477851,122.1290693,https://maps.google.com/?cid=0x0:0x904f7405d45e5ae9,
mall,Toko bahan makanan,Kios Jihan,"43JM+3J7, Tuoy, Kec. Unaaha, Kabupaten Konawe, Sulawesi Tenggara 93415","Tuoy, Kec. Unaaha, Kabupaten Konawe",SULAWESI TENGGARA,93415.0,Indonesia,,,,-3.869833,122.0840371,https://maps.google.com/?cid=0x0:0xa949aa2d8955c50b,
mall,Pusat Perbelanjaan,Mall Mandonga,"JL. Abdullah Silondae, Korumba, Kec. Mandonga, Kota Kendari, Sulawesi Tenggara 93111","Korumba, Kec. Mandonga, Kota Kendari",SULAWESI TENGGARA,93111.0,Indonesia,,,,-3.9642856,122.5189989,https://maps.google.com/?cid=0x0:0x96320466b7420e2b,
mall,mall,Lalonggasumeeto,"Kec. Lalonggasumeeto, Kabupaten Konawe, Sulawesi Tenggara","Kabupaten Konawe, Sulawesi Tenggara",SULAWESI TENGGARA,,Indonesia,,,,-3.8975811,122.5026196,https://maps.google.com/?cid=0x0:0xb07a51698a2c2248,
mall,Pasar Petani,Lawang pitu wisata laut,"Jalan Nelayan Dusun No.3, Lalonggasumeeto, Kec. Lalonggasumeeto, Kabupaten Konawe, Sulawesi Tenggara 93351","Lalonggasumeeto, Kec. Lalonggasumeeto, Kabupaten Konawe",SULAWESI TENGGARA,93351.0,Indonesia,81259609122.0,,,-3.8854308,122.5107474,https://maps.google.com/?cid=0x0:0x8132f871837edc13,
mall,mall,Kios dinda,"4F5Q+4MM, Watunggarandu, Kec. Lalonggasumeeto, Kabupaten Konawe, Sulawesi Tenggara 93354","Watunggarandu, Kec. Lalonggasumeeto, Kabupaten Konawe",SULAWESI TENGGARA,93354.0,Indonesia,,,,-3.8921623,122.4891791,https://maps.google.com/?cid=0x0:0x9c97bcab420872e2,
mall,Pusat Perbelanjaan,LAWANG PITU BUDIDAYA SARANG WALET,"4G56+RM4, Jl. Poros Wisata Batu Gong, Lalonggasumeeto, Kec. Lalonggasumeeto, Kabupaten Konawe, Sulawesi Tenggara 93351","Jl. Poros Wisata Batu Gong, Lalonggasumeeto, Kec. Lalonggasumeeto, Kabupaten Konawe",SULAWESI TENGGARA,93351.0,Indonesia,82348868023.0,,,-3.8900824,122.5117599,https://maps.google.com/?cid=0x0:0xa964fb6063d6f35f,
mall,mall,Sulawesi Tenggara 93351,"Kabupaten Konawe, Sulawesi Tenggara","Kabupaten Konawe, Sulawesi Tenggara",SULAWESI TENGGARA,,Indonesia,,,,-3.9052906,122.6390489,https://maps.google.com/?cid=0x0:0x47d2a3dde2b52d2f,
mall,Pasar,Pasar Laosu,"Laosu, Kec. Bondoala, Kabupaten Konawe, Sulawesi Tenggara 93354","Kec. Bondoala, Kabupaten Konawe",SULAWESI TENGGARA,93354.0,Indonesia,,,,-3.896588,122.4629372,https://maps.google.com/?cid=0x0:0x4b74e8fe7339bf10,
mall,Toko umum,Alisha olshop,"3FX9+6HG, Lalonggaluku, Kec. Bondoala, Kabupaten Konawe, Sulawesi Tenggara 93354","Lalonggaluku, Kec. Bondoala, Kabupaten Konawe",SULAWESI TENGGARA,93354.0,Indonesia,,,,-3.9019377,122.4689411,https://maps.google.com/?cid=0x0:0xd4b67ace591ba9f9,
mall,Minimarket,MM Mart.,"3FM3+J79, Rumbia, Kec. Bondoala, Kabupaten Konawe, Sulawesi Tenggara 93354","Rumbia, Kec. Bondoala, Kabupaten Konawe",SULAWESI TENGGARA,93354.0,Indonesia,,,,-3.9159639,122.4532267,https://maps.google.com/?cid=0x0:0x4b903a19792cace8,
mall,Toko Pakaian,ADL Onlineshop,"3FHW+XFW, Labibia, Kec. Mandonga, Kota Kendari, Sulawesi Tenggara 93351","Labibia, Kec. Mandonga, Kota Kendari",SULAWESI TENGGARA,93351.0,Indonesia,82347480349.0,,,-3.9200095,122.4961927,https://maps.google.com/?cid=0x0:0x49e75a3f51af506b,
mall,Pusat Perbelanjaan,Kios ELMA,"Jl. Imam Bonjol No.81, Wawombalata, Kec. Mandonga, Kota Kendari, Sulawesi Tenggara 93113","Wawombalata, Kec. Mandonga, Kota Kendari",SULAWESI TENGGARA,93113.0,Indonesia,,,,-3.9359616,122.5020764,https://maps.google.com/?cid=0x0:0x36ae070b7a85174,
mall,mall,IKBAL JAYA,"4F26+W92, Laosu, Kec. Bondoala, Kabupaten Konawe, Sulawesi Tenggara 93354","Laosu, Kec. Bondoala, Kabupaten Konawe",SULAWESI TENGGARA,93354.0,Indonesia,82148094456.0,,,-3.8977468,122.4608775,https://maps.google.com/?cid=0x0:0x51541a96a1233296,
mall,mall,Lambuya,"Suka Maju (Ulu Meraka), Kec. Onembute, Kabupaten Konawe, Sulawesi Tenggara","Kabupaten Konawe, Sulawesi Tenggara",SULAWESI TENGGARA,,Indonesia,,,,-4.014653,122.027298,https://maps.google.com/?cid=0x0:0x1143b15ffa72def0,
mall,Pusat Perbelanjaan,Simpang lambuya,"23MH+RC3, Jl. Poros Motaha - Lambuya, Awuliti, Kec. Lambuya, Kabupaten Konawe, Sulawesi Tenggara 93464","Jl. Poros Motaha - Lambuya, Awuliti, Kec. Lambuya, Kabupaten Konawe",SULAWESI TENGGARA,93464.0,Indonesia,,,,-3.9654858,122.078557,https://maps.google.com/?cid=0x0:0xae00cb0224b07882,
mall,Toko,Sulawesi tenggara,"336M+QFQ, Wonuahoa, Kec. Lambuya, Kabupaten Konawe, Sulawesi Tenggara","Kabupaten Konawe, Sulawesi Tenggara",SULAWESI TENGGARA,,Indonesia,,,,-3.9380432,122.0837445,https://maps.google.com/?cid=0x0:0xf62b34ee5ce0ffbf,
mall,Pusat Perbelanjaan,Pasar Kec.Lambuya,"3328+J6Q, Unnamed Road, Asaki, Kec. Lambuya, Kabupaten Konawe, Sulawesi Tenggara 93464","Unnamed Road, Asaki, Kec. Lambuya, Kabupaten Konawe",SULAWESI TENGGARA,93464.0,Indonesia,,,,-3.9484118,122.0656035,https://maps.google.com/?cid=0x0:0x5d84b5299f605dc1,
mall,mall,Kec. Lambuya,"Kabupaten Konawe, Sulawesi Tenggara","Kabupaten Konawe, Sulawesi Tenggara",SULAWESI TENGGARA,,Indonesia,,,,-3.9656382,122.0784392,https://maps.google.com/?cid=0x0:0x8929e290994c1afd,
mall,Toko bahan makanan,Isyell Cell,"Asaki, Kec. Lambuya, Kabupaten Konawe, Sulawesi Tenggara 93464","Kec. Lambuya, Kabupaten Konawe",SULAWESI TENGGARA,93464.0,Indonesia,82315510909.0,,,-3.9522222,122.0708574,https://maps.google.com/?cid=0x0:0x1f4b0d86f14d2e62,
mall,mall,PB RAYA MOTORð¾,"23G6+RMC, Amberi, Kec. Lambuya, Kabupaten Konawe, Sulawesi Tenggara","Kabupaten Konawe, Sulawesi Tenggara",SULAWESI TENGGARA,,Indonesia,,,,-3.9729812,122.0611725,https://maps.google.com/?cid=0x0:0x4b12f9805ed68c4a,
mall,Toko,TOKO RAHMAT HIDAYAH DUA,"X2VJ+2RQ, Silea, Kec. Onembute, Kabupaten Konawe, Sulawesi Tenggara 93464","Silea, Kec. Onembute, Kabupaten Konawe",SULAWESI TENGGARA,93464.0,Indonesia,82239273388.0,,,-4.0074375,122.0320625,https://maps.google.com/?cid=0x0:0x56a0fa53d201baec,
mall,Kios,Kios NOUMI,"32JW+WC4, Langgomea, Kec. Uepai, Kabupaten Konawe, Sulawesi Tenggara 93464","Langgomea, Kec. Uepai, Kabupaten Konawe",SULAWESI TENGGARA,93464.0,Indonesia,,,,-3.917726,122.0460741,https://maps.google.com/?cid=0x0:0xd1fcbb7025161ab1,
mall,Toko Pakaian,RESIDENT SHOP (AGEN TOP UP DIAMOND),"Asaki, Kec. Lambuya, Kabupaten Konawe, Sulawesi Tenggara 93464","Kec. Lambuya, Kabupaten Konawe",SULAWESI TENGGARA,93464.0,Indonesia,82129979471.0,,,-3.9486152,122.069218,https://maps.google.com/?cid=0x0:0xeb96ae8182e857ed,
mall,Toko,Kios pupuk Dirga Tani,"23MH+P4M, Awuliti, Kec. Lambuya, Kabupaten Konawe, Sulawesi Tenggara 93464","Awuliti, Kec. Lambuya, Kabupaten Konawe",SULAWESI TENGGARA,93464.0,Indonesia,81341560135.0,,,-3.9656562,122.0778016,https://maps.google.com/?cid=0x0:0x8017734fd936f973,
mall,Pasar Grosir Sayur,Pasar Sentral Wawotobi,"44F5+FPH, Wawotobi, Kec. Wawotobi, Kabupaten Konawe, Sulawesi Tenggara 93461","Wawotobi, Kec. Wawotobi, Kabupaten Konawe",SULAWESI TENGGARA,93461.0,Indonesia,,,,-3.8763148,122.1093715,https://maps.google.com/?cid=0x0:0xa6ef43821ac2685b,
mall,Toko,Airin Tani,"342H+VJP, Unnamed Road, Teteona, Kec. Wonggeduku, Kabupaten Konawe, Sulawesi Tenggara 93461","Unnamed Road, Teteona, Kec. Wonggeduku, Kabupaten Konawe",SULAWESI TENGGARA,93461.0,Indonesia,,,,-3.9477851,122.1290693,https://maps.google.com/?cid=0x0:0x904f7405d45e5ae9,
mall,Pusat Perbelanjaan,Amey Mart,"68QR+XRQ, Jl. Poros Bungku Sel. - Kendari No.19, Lembo, Kec. Lembo, Kabupaten Konawe Utara, Sulawesi Tenggara 93352","Jl. Poros Bungku Sel. - Kendari No.19, Lembo, Kec. Lembo, Kabupaten Konawe Utara",SULAWESI TENGGARA,93352.0,Indonesia,82292014864.0,,,-3.759618,122.341909,https://maps.google.com/?cid=0x0:0xa8a8653627007019,
mall,Pusat Perbelanjaan,The Park Kendari,"2G89+PV9, Bende, Kec. Kadia, Kota Kendari, Sulawesi Tenggara","Kota Kendari, Sulawesi Tenggara",SULAWESI TENGGARA,,Indonesia,,,,-3.9832207,122.5197309,https://maps.google.com/?cid=0x0:0xc86d98065cfeec35,
mall,Pusat Perbelanjaan,Depan the park,"2G8C+C6X, Jl. Laode Hadi, Bende, Kec. Kadia, Kota Kendari, Sulawesi Tenggara 93461","Jl. Laode Hadi, Bende, Kec. Kadia, Kota Kendari",SULAWESI TENGGARA,93461.0,Indonesia,,,,-3.983883,122.5205947,https://maps.google.com/?cid=0x0:0x608cc83e3585a63b,
mall,Pusat Perbelanjaan,MargoCity,"Jl. Margonda Raya No.358, Kemiri Muka, Kecamatan Beji, Kota Depok, Jawa Barat 16423","Kemiri Muka, Kecamatan Beji, Kota Depok",SULAWESI TENGGARA,16423.0,Indonesia,2178870888.0,,,-6.372967,106.8344235,https://maps.google.com/?cid=0x0:0xd3365350a2ebe2f,
mall,Pusat Perbelanjaan,Depok Town Square (Detos),"Jl. Margonda Raya No.1, Pondok Cina, Kecamatan Beji, Kota Depok, Jawa Barat 16424","Pondok Cina, Kecamatan Beji, Kota Depok",SULAWESI TENGGARA,16424.0,Indonesia,2178870101.0,,,-6.3726268,106.8316047,https://maps.google.com/?cid=0x0:0x9790bb032d5e6fdf,
mall,Pusat Perbelanjaan,METRO Margocity Depok,"Jl. Margonda No.358, Kemiri Muka, Kecamatan Beji, Kota Depok, Jawa Barat 16423","Kemiri Muka, Kecamatan Beji, Kota Depok",SULAWESI TENGGARA,16423.0,Indonesia,8111081196.0,,,-6.3736371,106.8348232,https://maps.google.com/?cid=0x0:0x7d3147c648bce52c,
mall,Jepang,Marugame Udon Margonda Raya,"Jl. Margonda No.356, Kemiri Muka, Kecamatan Beji, Kota Depok, Jawa Barat 16423","Kemiri Muka, Kecamatan Beji, Kota Depok",SULAWESI TENGGARA,16423.0,Indonesia,81132045245.0,,,-6.3727838,106.8331441,https://maps.google.com/?cid=0x0:0x642a42ce1980f128,
mall,Jepang,SUSHI TEI,"Jl. Margonda No.358, Kemiri Muka, Kecamatan Beji, Kota Depok, Jawa Barat 16423","Kemiri Muka, Kecamatan Beji, Kota Depok",SULAWESI TENGGARA,16423.0,Indonesia,2178870840.0,,,-6.3732342,106.834795,https://maps.google.com/?cid=0x0:0x401b84e439b8fcca,
mall,Ramen,Ramen YA! Margo City,"Jl. Margonda No.358, Kemiri Muka, Kecamatan Beji, Kota Depok, Jawa Barat 16424","Kemiri Muka, Kecamatan Beji, Kota Depok",SULAWESI TENGGARA,16424.0,Indonesia,,,,-6.3724047,106.8349091,https://maps.google.com/?cid=0x0:0xbeca25b71b72ccd9,
mall,Vietnam,Pho Ba Ba Margo City,"Jl. Margonda No.358, Kemiri Muka, Kecamatan Beji, Kota Depok, Jawa Barat 16423","Kemiri Muka, Kecamatan Beji, Kota Depok",SULAWESI TENGGARA,16423.0,Indonesia,85946891480.0,,,-6.3729567,106.8348932,https://maps.google.com/?cid=0x0:0xb158707c6d0fd73c,
mall,Hamburger,Burger King,"Jl. Margonda No.358, Kemiri Muka, Kecamatan Beji, Kota Depok, Jawa Barat 16423","Kemiri Muka, Kecamatan Beji, Kota Depok",SULAWESI TENGGARA,16423.0,Indonesia,1500025.0,,,-6.3732058,106.8352141,https://maps.google.com/?cid=0x0:0x4150e70ba0ff83b8,
mall,Tujuan Wisata,Puncak Meluhu,"6643+P5P, Jl. Poros Wawotobi - Lasolo, Meluhu, Kec. Meluhu, Kabupaten Konawe, Sulawesi Tenggara 93461","Jl. Poros Wawotobi - Lasolo, Meluhu, Kec. Meluhu, Kabupaten Konawe",SULAWESI TENGGARA,93461.0,Indonesia,81247626862.0,,,-3.79317,122.202955,https://maps.google.com/?cid=0x0:0x6608b72b5c228bad,
mall,mall,Kec. Meluhu,"Kabupaten Konawe, Sulawesi Tenggara","Kabupaten Konawe, Sulawesi Tenggara",SULAWESI TENGGARA,,Indonesia,,,,-3.8157918,122.1953757,https://maps.google.com/?cid=0x0:0xdb8c93dd3ee88287,
mall,Pembangunan Perumahan,PASAR RAKYAT LAMBOASA (SPF),"Sambasule, Kec. Meluhu, Kabupaten Konawe, Sulawesi Tenggara 93461","Kec. Meluhu, Kabupaten Konawe",SULAWESI TENGGARA,93461.0,Indonesia,,,,-3.8221979,122.1903779,https://maps.google.com/?cid=0x0:0xaf7abdbc90af5e2f,
mall,Toko Perlengkapan Rumah,KIOS SEJAHTERA UTAMA,"55JV+733, Sambasule, Kec. Meluhu, Kabupaten Konawe, Sulawesi Tenggara","Kabupaten Konawe, Sulawesi Tenggara",SULAWESI TENGGARA,,Indonesia,,,,-3.8193675,122.1926662,https://maps.google.com/?cid=0x0:0xd3d3842c4751d31d,
mall,Toko sembako pemerintah,PP.SRI MERTA NADI,"46VP+3C6, Jl. Pisang, Puasana, Amonggedo, Kabupaten Konawe, Sulawesi Tenggara 93461","Jl. Pisang, Puasana, Amonggedo, Kabupaten Konawe",SULAWESI TENGGARA,93461.0,Indonesia,,,,-3.8573268,122.236027,https://maps.google.com/?cid=0x0:0xc8dacccee8f1155a,
mall,Tujuan Wisata,Air Terjun Larowiu Meluhu Konawe,"762C+WV2, Jl. Poros Wawotobi - Lasolo, Meluhu, Kec. Meluhu, Kabupaten Konawe, Sulawesi Tenggara 93352","Jl. Poros Wawotobi - Lasolo, Meluhu, Kec. Meluhu, Kabupaten Konawe",SULAWESI TENGGARA,93352.0,Indonesia,81247626862.0,,,-3.7477265,122.222148,https://maps.google.com/?cid=0x0:0xff92a7b9a481543b,
mall,Toko,Toko tinas,"46H6+PHC, Unnamed Road, Amendete, Amonggedo, Kabupaten Konawe, Sulawesi Tenggara 93461","Unnamed Road, Amendete, Amonggedo, Kabupaten Konawe",SULAWESI TENGGARA,93461.0,Indonesia,,,,-3.8706983,122.2114033,https://maps.google.com/?cid=0x0:0x43c5769bcf1b1225,
mall,Toko Pakaian,Naimshop Unaaha,"452H+G7G, Karandu, Kec. Wawotobi, Kabupaten Konawe, Sulawesi Tenggara 93461","Karandu, Kec. Wawotobi, Kabupaten Konawe",SULAWESI TENGGARA,93461.0,Indonesia,81354201991.0,,,-3.898686,122.178195,https://maps.google.com/?cid=0x0:0x3e8628cf420197eb,
mall,Pusat Perbelanjaan,Amey Mart,"68QR+XRQ, Jl. Poros Bungku Sel. - Kendari No.19, Lembo, Kec. Lembo, Kabupaten Konawe Utara, Sulawesi Tenggara 93352","Jl. Poros Bungku Sel. - Kendari No.19, Lembo, Kec. Lembo, Kabupaten Konawe Utara",SULAWESI TENGGARA,93352.0,Indonesia,82292014864.0,,,-3.759618,122.341909,https://maps.google.com/?cid=0x0:0xa8a8653627007019,
mall,Pusat Perbelanjaan,NUR ROHMAH,"465G+QCJ, Amonggedo Baru, Amonggedo, Kabupaten Konawe, Sulawesi Tenggara 93463","Amonggedo Baru, Amonggedo, Kabupaten Konawe",SULAWESI TENGGARA,93463.0,Indonesia,85255525550.0,,,-3.8905355,122.2260181,https://maps.google.com/?cid=0x0:0x12b56bb83542ecf1,
mall,Toko,Misua,"XFVQ+J85, Wonua Sangia, Landono, Anawai, Kec. Wua-Wua, Kabupaten Konawe Selatan, Sulawesi Tenggara 93117","Wonua Sangia, Landono, Anawai, Kec. Wua-Wua, Kabupaten Konawe Selatan",SULAWESI TENGGARA,93117.0,Indonesia,82347633165.0,,,-4.0059949,122.4883741,https://maps.google.com/?cid=0x0:0x24505cf377a18850,
mall,Pasar,Pasar Sore Tradisional Analahumbuti,"544M+J4C, Analahumbuti, Kec. Wawotobi, Kabupaten Konawe, Sulawesi Tenggara","Kabupaten Konawe, Sulawesi Tenggara",SULAWESI TENGGARA,,Indonesia,82228682738.0,,,-3.8434342,122.132752,https://maps.google.com/?cid=0x0:0xa46695b2fef51eb8,
mall,Pusat Perbelanjaan,Kios-alkalam,"544M+F4G, Jl. Poros Belalo/Lasolo-Wawotobi, Analahumbuti, Kec. Wawotobi, Kabupaten Konawe, Sulawesi Tenggara 93461","Jl. Poros Belalo/Lasolo-Wawotobi, Analahumbuti, Kec. Wawotobi, Kabupaten Konawe",SULAWESI TENGGARA,93461.0,Indonesia,,,,-3.8438199,122.1328271,https://maps.google.com/?cid=0x0:0xd2c85bb73cd78611,
mall,mall,rayan,"55VP+6M, Meluhu, Kec. Meluhu, Kabupaten Konawe, Sulawesi Tenggara 93461","Meluhu, Kec. Meluhu, Kabupaten Konawe",SULAWESI TENGGARA,93461.0,Indonesia,,,,-3.8061887,122.1865119,https://maps.google.com/?cid=0x0:0xe8ed21b62cf1e0ff,
mall,Kios,Kios NOUMI,"32JW+WC4, Langgomea, Kec. Uepai, Kabupaten Konawe, Sulawesi Tenggara 93464","Langgomea, Kec. Uepai, Kabupaten Konawe",SULAWESI TENGGARA,93464.0,Indonesia,,,,-3.917726,122.0460741,https://maps.google.com/?cid=0x0:0xd1fcbb7025161ab1,
mall,Grosir Barang Kelontong,Pasar Amonggedo,"466F+FXF, Amonggedo Baru, Amonggedo, Kabupaten Konawe, Sulawesi Tenggara 93463","Amonggedo Baru, Amonggedo, Kabupaten Konawe",SULAWESI TENGGARA,93463.0,Indonesia,82292980405.0,,,-3.888825,122.2249258,https://maps.google.com/?cid=0x0:0xb9391b8b9e29477e,
mall,Pusat Perbelanjaan,UMNA WOLIO PLAZA,"GJV3+VQ4, umna wolio plaza, Sulawesi Tenggara 93711",umna wolio plaza,SULAWESI TENGGARA,93711.0,Indonesia,,,,-5.4553515,122.6044539,https://maps.google.com/?cid=0x0:0xf416e74b3da1f66b,
mall,Toko Pakaian,Amylufias Fashion,"Jl. Mangga Butu No.Desa, Moolo Indah, Kec. Tinanggea, Kabupaten Konawe Selatan, Sulawesi Tenggara 93885","Moolo Indah, Kec. Tinanggea, Kabupaten Konawe Selatan",SULAWESI TENGGARA,93885.0,Indonesia,85241945777.0,,,-4.4711222,122.2943955,https://maps.google.com/?cid=0x0:0xae768cd9cd73096d,
mall,Toko,KIOS AMEL,"M38Q+C2C, Kapuwila, Lalembuu, Kabupaten Konawe Selatan, Sulawesi Tenggara 93818","Kapuwila, Lalembuu, Kabupaten Konawe Selatan",SULAWESI TENGGARA,93818.0,Indonesia,,,,-4.33394,122.0875205,https://maps.google.com/?cid=0x0:0xc2f2146fc828c4b4,
mall,Minimarket,pasar onembute,"XXCP+97P, Trimulya, Kec. Onembute, Kabupaten Konawe, Sulawesi Tenggara 93464","Trimulya, Kec. Onembute, Kabupaten Konawe",SULAWESI TENGGARA,93464.0,Indonesia,,,,-4.0290259,121.9857136,https://maps.google.com/?cid=0x0:0xa42d7a845eaa2e30,
mall,mall,Kec. Onembute,"Kabupaten Konawe, Sulawesi Tenggara","Kabupaten Konawe, Sulawesi Tenggara",SULAWESI TENGGARA,,Indonesia,,,,-4.0286568,121.9885549,https://maps.google.com/?cid=0x0:0x7c624a5e6772a800,
mall,Pusat Perbelanjaan,MARVIN TANI,"Onembute, Kec. Onembute, Kabupaten Konawe, Sulawesi Tenggara 93572","Kec. Onembute, Kabupaten Konawe",SULAWESI TENGGARA,93572.0,Indonesia,85213917001.0,,,-4.029607,121.9849905,https://maps.google.com/?cid=0x0:0xbef68c39439fd4b1,
mall,Kantor Pemerintah,Mall Pelayanan Publik Kab. Konawe,"42VR+MGR, Puunaaha, Kec. Unaaha, Kabupaten Konawe, Sulawesi Tenggara","Kabupaten Konawe, Sulawesi Tenggara",SULAWESI TENGGARA,,Indonesia,,,,-3.8557517,122.0412567,https://maps.google.com/?cid=0x0:0x649c2dfe6f6be0b5,
mall,Pasar,Pasar DU,"P676+57G, Andoolo Utama, Kec. Buke, Kabupaten Konawe Selatan, Sulawesi Tenggara 93813","Andoolo Utama, Kec. Buke, Kabupaten Konawe Selatan",SULAWESI TENGGARA,93813.0,Indonesia,,,,-4.2870667,122.2107167,https://maps.google.com/?cid=0x0:0x946c981a3bb33c7f,
mall,Toko,Edom,"M38R+J68, Suka Mukti, Lalembuu, Kabupaten Konawe Selatan, Sulawesi Tenggara 93818","Suka Mukti, Lalembuu, Kabupaten Konawe Selatan",SULAWESI TENGGARA,93818.0,Indonesia,852293141811.0,,,-4.3334673,122.0905773,https://maps.google.com/?cid=0x0:0xb127c8dae108cb01,
mall,Pusat Perbelanjaan,Ayu Lalembu Shopping,"J2H5+2VF, Sumber Jaya, Lalembuu, Kabupaten Konawe Selatan, Sulawesi Tenggara 93885","Sumber Jaya, Lalembuu, Kabupaten Konawe Selatan",SULAWESI TENGGARA,93885.0,Indonesia,,,,-4.3724377,122.0096758,https://maps.google.com/?cid=0x0:0x523ecc8343ed009,
mall,mall,Kec. Pondidaha,"Kabupaten Konawe, Sulawesi Tenggara","Kabupaten Konawe, Sulawesi Tenggara",SULAWESI TENGGARA,,Indonesia,,,,-3.9674745,122.2569976,https://maps.google.com/?cid=0x0:0x1a054078e096c845,
mall,Pasar,Pasar Amesiu,"26XQ+3W2, Pondidaha, Kec. Pondidaha, Kabupaten Konawe, Sulawesi Tenggara 93463","Pondidaha, Kec. Pondidaha, Kabupaten Konawe",SULAWESI TENGGARA,93463.0,Indonesia,,,,-3.9523522,122.2397707,https://maps.google.com/?cid=0x0:0x151e1512b3ff3c3f,
mall,Toko bahan makanan,KAF_KURMA,"3626+PWF, Mesjid, Hongoa, Kec. Pondidaha, Kabupaten Konawe, Sulawesi Tenggara 93463","Mesjid, Hongoa, Kec. Pondidaha, Kabupaten Konawe",SULAWESI TENGGARA,93463.0,Indonesia,87784725637.0,,,-3.9481842,122.212287,https://maps.google.com/?cid=0x0:0x1332f9ce72f5a81e,
mall,Toko,Sumber Harapan,"26WG+GW7, Pondidaha, Kec. Pondidaha, Kabupaten Konawe, Sulawesi Tenggara 93463","Pondidaha, Kec. Pondidaha, Kabupaten Konawe",SULAWESI TENGGARA,93463.0,Indonesia,85398120222.0,,,-3.9537064,122.2273113,https://maps.google.com/?cid=0x0:0x2b73aeef4dd1870a,
mall,Toko Ponsel,ANUGRAH CELL,"353V+M3X, Jl. Poros Unaaha - Pondidaha, Wukusao, Kec. Wonggeduku, Kabupaten Konawe, Sulawesi Tenggara 93463","Jl. Poros Unaaha - Pondidaha, Wukusao, Kec. Wonggeduku, Kabupaten Konawe",SULAWESI TENGGARA,93463.0,Indonesia,82345671098.0,,,-3.9457695,122.1927471,https://maps.google.com/?cid=0x0:0x4fbf5aea2efc8007,
mall,mall,Toko Harapan Kita,"27PF+RC9, Wawolemo, Kec. Pondidaha, Kabupaten Konawe, Sulawesi Tenggara","Kabupaten Konawe, Sulawesi Tenggara",SULAWESI TENGGARA,,Indonesia,,,,-3.9629682,122.2736116,https://maps.google.com/?cid=0x0:0xb6d245b0a088b7da,
mall,Pusat Perbelanjaan,TR CELL HONGOA,"3628+M3W, Hongoa, Kec. Pondidaha, Kabupaten Konawe, Sulawesi Tenggara 93463","Hongoa, Kec. Pondidaha, Kabupaten Konawe",SULAWESI TENGGARA,93463.0,Indonesia,82287255673.0,,,-3.9482727,122.2151963,https://maps.google.com/?cid=0x0:0x2544c3ef1ff63518,
mall,,UPTD PASAR PONDIDAHA,"26WR+V2V, Pondidaha, Kec. Pondidaha, Kabupaten Konawe, Sulawesi Tenggara 93463","Pondidaha, Kec. Pondidaha, Kabupaten Konawe",SULAWESI TENGGARA,93463.0,Indonesia,,,,-3.9527643,122.2400494,https://maps.google.com/?cid=0x0:0xd4db8951b258fc4b,
mall,Pusat Perbelanjaan,Badzola Hidroponik,"26WF+PM3, Jl. Poros Unaaha - Pondidaha, Pondidaha, Kec. Pondidaha, Kabupaten Konawe, Sulawesi Tenggara 93463","Jl. Poros Unaaha - Pondidaha, Pondidaha, Kec. Pondidaha, Kabupaten Konawe",SULAWESI TENGGARA,93463.0,Indonesia,85241663808.0,,,-3.9532298,122.2241631,https://maps.google.com/?cid=0x0:0x25d21229b46f5fb9,
mall,Pusat Perbelanjaan,QIANNA GALLERY,"Jl. Poros Kendari-Unaaha, Wawolemo, Kec. Pondidaha, Kabupaten Konawe, Sulawesi Tenggara 93463","Wawolemo, Kec. Pondidaha, Kabupaten Konawe",SULAWESI TENGGARA,93463.0,Indonesia,82349492279.0,,,-3.9645782,122.268336,https://maps.google.com/?cid=0x0:0x78ace655889bb672,
mall,Kafe,Pjr Erfy,"26VW+6C2, Pondidaha, Kec. Pondidaha, Kabupaten Konawe, Sulawesi Tenggara 93463","Pondidaha, Kec. Pondidaha, Kabupaten Konawe",SULAWESI TENGGARA,93463.0,Indonesia,81341775995.0,,,-3.9569751,122.2460274,https://maps.google.com/?cid=0x0:0x32f2afaf315d498c,
mall,Grosir Barang Kelontong,Pasar Amonggedo,"466F+FXF, Amonggedo Baru, Amonggedo, Kabupaten Konawe, Sulawesi Tenggara 93463","Amonggedo Baru, Amonggedo, Kabupaten Konawe",SULAWESI TENGGARA,93463.0,Indonesia,82292980405.0,,,-3.888825,122.2249258,https://maps.google.com/?cid=0x0:0xb9391b8b9e29477e,
mall,Area Mendaki,Riana_Store,"Tetemotaha, Kec. Wonggeduku, Kabupaten Konawe, Sulawesi Tenggara 93463","Kec. Wonggeduku, Kabupaten Konawe",SULAWESI TENGGARA,93463.0,Indonesia,,,,-3.9182809,122.1917495,https://maps.google.com/?cid=0x0:0x3789ed66ad0d0eeb,
mall,mall,TOKO FATIR,"27J5+XX4, Amesiu, Kec. Pondidaha, Kabupaten Konawe, Sulawesi Tenggara 93463","Amesiu, Kec. Pondidaha, Kabupaten Konawe",SULAWESI TENGGARA,93463.0,Indonesia,,,,-3.967602,122.2599625,https://maps.google.com/?cid=0x0:0x3fe423e2a1847e60,
mall,Minimarket,Indomaret Pondidaha,"26WG+M8W, Jl Unaaha, Pondidaha, Kec. Pondidaha, Kabupaten Konawe, Sulawesi Tenggara 93463","Jl Unaaha, Pondidaha, Kec. Pondidaha, Kabupaten Konawe",SULAWESI TENGGARA,93463.0,Indonesia,81393464512.0,,,-3.9532698,122.2258391,https://maps.google.com/?cid=0x0:0x24f5576f706611d3,
mall,Toko,Idin Laydi,"4C87+GMJ, Sampara/Morosi, Kec. Bondoala, Kabupaten Konawe, Sulawesi Tenggara 93354","Sampara/Morosi, Kec. Bondoala, Kabupaten Konawe",SULAWESI TENGGARA,93354.0,Indonesia,,,,-3.8836743,122.414152,https://maps.google.com/?cid=0x0:0xe0238fca699b3188,
mall,Toko Swalayan,A PONDIDAHA,"26WG+MC6, Jalan Poros Unaaha, Pondidaha, Konawe Regency, South East Sulawesi 93463","Jalan Poros Unaaha, Pondidaha, Konawe Regency",SULAWESI TENGGARA,93463.0,Indonesia,,,,-3.953348,122.2260032,https://maps.google.com/?cid=0x0:0x19ffe7f6eb0402fb,
mall,Kantor Pemerintah,Mall Pelayanan Publik Kab. Konawe,"42VR+MGR, Puunaaha, Kec. Unaaha, Kabupaten Konawe, Sulawesi Tenggara","Kabupaten Konawe, Sulawesi Tenggara",SULAWESI TENGGARA,,Indonesia,,,,-3.8557517,122.0412567,https://maps.google.com/?cid=0x0:0x649c2dfe6f6be0b5,
mall,mall,TOKO ABEL,"27RP+924, Jl. Poros Kendari-Unaaha, Tirawuta, Kec. Pondidaha, Kabupaten Konawe, Sulawesi Tenggara","Kabupaten Konawe, Sulawesi Tenggara",SULAWESI TENGGARA,,Indonesia,,,,-3.9591033,122.2850823,https://maps.google.com/?cid=0x0:0x21a1d9f97f89cb0f,
mall,Toko,Vidya samawaba,"25QJ+82F, Unnamed Road, Wawosolo, Kec. Wonggeduku, Kabupaten Konawe, Sulawesi Tenggara 93463","Unnamed Road, Wawosolo, Kec. Wonggeduku, Kabupaten Konawe",SULAWESI TENGGARA,93463.0,Indonesia,85394214442.0,,,-3.9616751,122.1800405,https://maps.google.com/?cid=0x0:0x4c6cab20a8ab6e6c,
mall,Kafe,Pjr Pink Pondidaha,"26RW+QJV, Jalan Poros Unaaha, Pondidaha, Konawe Regency, South East Sulawesi 93463","Jalan Poros Unaaha, Pondidaha, Konawe Regency",SULAWESI TENGGARA,93463.0,Indonesia,85255985918.0,,,-3.9580218,122.2465388,https://maps.google.com/?cid=0x0:0xe67a45a7f4d1adb2,
mall,Minimarket,Alfamidi Pondidaha,"26WG+P92, Pondidaha, Kec. Pondidaha, Kabupaten Konawe, Sulawesi Tenggara 93463","Pondidaha, Kec. Pondidaha, Kabupaten Konawe",SULAWESI TENGGARA,93463.0,Indonesia,85280967232.0,,,-3.9532448,122.2258883,https://maps.google.com/?cid=0x0:0x60de248140f518aa,
mall,Minimarket,Lapak Begadang Mama Dani,"353X+H2X, Jl. Poros Unaaha - Pondidaha, Wukusao, Kec. Wonggeduku, Kabupaten Konawe, Sulawesi Tenggara 93463","Jl. Poros Unaaha - Pondidaha, Wukusao, Kec. Wonggeduku, Kabupaten Konawe",SULAWESI TENGGARA,93463.0,Indonesia,81245612438.0,,,-3.94661,122.197902,https://maps.google.com/?cid=0x0:0x1dc4a16c8e312f0e,
mall,Toko Perlengkapan Rumah,TOKO ZULFA GROSIR SEMBAKO,"Jln pemuda, Laloika, Kec. Pondidaha, Kabupaten Konawe, Sulawesi Tenggara 93463","Laloika, Kec. Pondidaha, Kabupaten Konawe",SULAWESI TENGGARA,93463.0,Indonesia,,,,-3.9927864,122.2274953,https://maps.google.com/?cid=0x0:0xa3351533b6a04e7,
mall,Komplek perumahan,Pasar Puriala,"X449+66X, Watundehoa, Kec. Puriala, Kabupaten Konawe, Sulawesi Tenggara 93452","Watundehoa, Kec. Puriala, Kabupaten Konawe",SULAWESI TENGGARA,93452.0,Indonesia,,,,-4.0443896,122.1181055,https://maps.google.com/?cid=0x0:0xc9ad802436484ba,
mall,Toko,toko madani,"52F5+29J, Unnamed Road, Tongauna, Kec. Tongauna, Kabupaten Konawe, Sulawesi Tenggara 93412","Unnamed Road, Tongauna, Kec. Tongauna, Kabupaten Konawe",SULAWESI TENGGARA,93412.0,Indonesia,,,,-3.8274248,122.0084017,https://maps.google.com/?cid=0x0:0x546a605d984fb241,
mall,mall,Sulawesi Tenggara 93411,"Kabupaten Konawe, Sulawesi Tenggara","Kabupaten Konawe, Sulawesi Tenggara",SULAWESI TENGGARA,,Indonesia,,,,-3.8145987,121.9984936,https://maps.google.com/?cid=0x0:0xf841d0ebce166e1a,
mall,Pusat Perbelanjaan,Toko Qeila,"Rawua, Kec. Konawe, Kabupaten Konawe, Sulawesi Tenggara","Kabupaten Konawe, Sulawesi Tenggara",SULAWESI TENGGARA,,Indonesia,,,,-3.8870996,122.0323493,https://maps.google.com/?cid=0x0:0x4f1250a52195ad1d,
mall,Toko Pakaian,SM Store,"W647+G3V, Lalosingi, Kec. Mowila, Kabupaten Konawe Selatan, Sulawesi Tenggara 93873","Lalosingi, Kec. Mowila, Kabupaten Konawe Selatan",SULAWESI TENGGARA,93873.0,Indonesia,85696062991.0,,,-4.0936443,122.2126711,https://maps.google.com/?cid=0x0:0xdb34434c1a9f5741,
mall,Toko bahan makanan,MR.DIY Unaaha,"Tumpas, Kec. Unaaha, Kabupaten Konawe, Sulawesi Tenggara","Kabupaten Konawe, Sulawesi Tenggara",SULAWESI TENGGARA,,Indonesia,,,,-3.8594844,122.041867,https://maps.google.com/?cid=0x0:0x923e3eb016426ee5,
mall,Pembangunan Perumahan,PASAR RAKYAT LAMBOASA (SPF),"Sambasule, Kec. Meluhu, Kabupaten Konawe, Sulawesi Tenggara 93461","Kec. Meluhu, Kabupaten Konawe",SULAWESI TENGGARA,93461.0,Indonesia,,,,-3.8221979,122.1903779,https://maps.google.com/?cid=0x0:0xaf7abdbc90af5e2f,
mall,Kios,TOKO ELSA,"W627+5F6, Toluwonua, Kec. Mowila, Kabupaten Konawe Selatan, Sulawesi Tenggara 93873","Toluwonua, Kec. Mowila, Kabupaten Konawe Selatan",SULAWESI TENGGARA,93873.0,Indonesia,,,,-4.0995926,122.2136252,https://maps.google.com/?cid=0x0:0x2bff2fa0a7928525,
mall,Pasar Grosir Sayur,Pasar Sentral Wawotobi,"44F5+FPH, Wawotobi, Kec. Wawotobi, Kabupaten Konawe, Sulawesi Tenggara 93461","Wawotobi, Kec. Wawotobi, Kabupaten Konawe",SULAWESI TENGGARA,93461.0,Indonesia,,,,-3.8763148,122.1093715,https://maps.google.com/?cid=0x0:0xa6ef43821ac2685b,
mall,Toko Fotokopi,Fotocopy azzaila,"V596+PFQ, Jl. Poros Kendari - Motaha, Teteasa, Kec. Angata, Kabupaten Konawe Selatan, Sulawesi Tenggara 93464","Jl. Poros Kendari - Motaha, Teteasa, Kec. Angata, Kabupaten Konawe Selatan",SULAWESI TENGGARA,93464.0,Indonesia,,,,-4.1306647,122.1612226,https://maps.google.com/?cid=0x0:0xf3cacc69c8ec0fb1,
mall,Pasar,Pasar DU,"P676+57G, Andoolo Utama, Kec. Buke, Kabupaten Konawe Selatan, Sulawesi Tenggara 93813","Andoolo Utama, Kec. Buke, Kabupaten Konawe Selatan",SULAWESI TENGGARA,93813.0,Indonesia,,,,-4.2870667,122.2107167,https://maps.google.com/?cid=0x0:0x946c981a3bb33c7f,
mall,Toko bahan makanan,Isyell Cell,"Asaki, Kec. Lambuya, Kabupaten Konawe, Sulawesi Tenggara 93464","Kec. Lambuya, Kabupaten Konawe",SULAWESI TENGGARA,93464.0,Indonesia,82315510909.0,,,-3.9522222,122.0708574,https://maps.google.com/?cid=0x0:0x1f4b0d86f14d2e62,
mall,Pusat Perbelanjaan,kios Kayleen,"427H+JQF, Rawua, Kec. Uepai, Kabupaten Konawe, Sulawesi Tenggara 93415","Rawua, Kec. Uepai, Kabupaten Konawe",SULAWESI TENGGARA,93415.0,Indonesia,85396525602.0,,,-3.8859282,122.0294075,https://maps.google.com/?cid=0x0:0x9647eacf5b67517f,
mall,Kios,TOKO IDIL,"426J+XC8, Unnamed Road, Tamesandi, Kec. Uepai, Kabupaten Konawe, Sulawesi Tenggara 93415","Unnamed Road, Tamesandi, Kec. Uepai, Kabupaten Konawe",SULAWESI TENGGARA,93415.0,Indonesia,,,,-3.8875912,122.0310635,https://maps.google.com/?cid=0x0:0xed6b4edfb8081804,
mall,Toko Obat-Obatan Herbal,HNI Halal Mart Harmina,"Jl. Pagala Kel Wawonggole, Wawonggole, Kec. Unaaha, Kabupaten Konawe, Sulawesi Tenggara 93415","Wawonggole, Kec. Unaaha, Kabupaten Konawe",SULAWESI TENGGARA,93415.0,Indonesia,82312221338.0,,,-3.8486964,122.0526474,https://maps.google.com/?cid=0x0:0x4d7646ecd882bb19,
mall,Toko Aksesori Ponsel,ID cellular,"Jl. Konggoasa No.91, Arombu, Kec. Unaaha, Kabupaten Konawe, Sulawesi Tenggara 93415","Arombu, Kec. Unaaha, Kabupaten Konawe",SULAWESI TENGGARA,93415.0,Indonesia,82352848321.0,,,-3.8681682,122.0475922,https://maps.google.com/?cid=0x0:0xdfe5ce5901d1036c,
mall,Toko bahan makanan,WARUNG MBAK WIWIN,"W35F+59X, Jl. Poros Motaha - Lambuya, Unggulino, Kec. Puriala, Kabupaten Konawe, Sulawesi Tenggara 93464","Jl. Poros Motaha - Lambuya, Unggulino, Kec. Puriala, Kabupaten Konawe",SULAWESI TENGGARA,93464.0,Indonesia,,,,-4.0920247,122.0734718,https://maps.google.com/?cid=0x0:0xb999c9fff5804a66,
mall,Area Mendaki,Riana_Store,"Tetemotaha, Kec. Wonggeduku, Kabupaten Konawe, Sulawesi Tenggara 93463","Kec. Wonggeduku, Kabupaten Konawe",SULAWESI TENGGARA,93463.0,Indonesia,,,,-3.9182809,122.1917495,https://maps.google.com/?cid=0x0:0x3789ed66ad0d0eeb,
mall,Toko,Pusat HERBAL,"42QV+8CG, Jl. Poros Jl. Sapati, Tumpas, Kec. Unaaha, Kabupaten Konawe, Sulawesi Tenggara 93415","Jl. Poros Jl. Sapati, Tumpas, Kec. Unaaha, Kabupaten Konawe",SULAWESI TENGGARA,93415.0,Indonesia,85203297159.0,,,-3.861688,122.0435646,https://maps.google.com/?cid=0x0:0x63b318febbfc861d,
mall,Toko bahan makanan,Kios Dadong Mangku Puri,"W637+JGF, Lalosingi, Kec. Mowila, Kabupaten Konawe Selatan, Sulawesi Tenggara 93873","Lalosingi, Kec. Mowila, Kabupaten Konawe Selatan",SULAWESI TENGGARA,93873.0,Indonesia,85254653927.0,,,-4.0959416,122.2137963,https://maps.google.com/?cid=0x0:0x71accd79d7c7ab6d,
mall,Toko Pertanian,Kios Agri Tani,"V6W5+7F2, Toluwonua, Kec. Mowila, Kabupaten Konawe Selatan, Sulawesi Tenggara","Kabupaten Konawe Selatan, Sulawesi Tenggara",SULAWESI TENGGARA,,Indonesia,82258310101.0,,,-4.1043611,122.2086381,https://maps.google.com/?cid=0x0:0x7cdac87ff6ef48a5,
mall,Toko Pakaian,Pelangi Olshop,"43P5+VCF, Jl. Jend Sudirman, Ambekairi, Kec. Unaaha, Kabupaten Konawe, Sulawesi Tenggara 93415","Jl. Jend Sudirman, Ambekairi, Kec. Unaaha, Kabupaten Konawe",SULAWESI TENGGARA,93415.0,Indonesia,85823113919.0,,,-3.8628038,122.0585333,https://maps.google.com/?cid=0x0:0xe2d032100502c85b,
mall,Toko bahan makanan,KAF_KURMA,"3626+PWF, Mesjid, Hongoa, Kec. Pondidaha, Kabupaten Konawe, Sulawesi Tenggara 93463","Mesjid, Hongoa, Kec. Pondidaha, Kabupaten Konawe",SULAWESI TENGGARA,93463.0,Indonesia,87784725637.0,,,-3.9481842,122.212287,https://maps.google.com/?cid=0x0:0x1332f9ce72f5a81e,
mall,Kios,KIOS PUTRA TUNGGAL,"RT.001/RW.001, Kasaeda, Kec. Uepai, Kabupaten Konawe, Sulawesi Tenggara","Kabupaten Konawe, Sulawesi Tenggara",SULAWESI TENGGARA,,Indonesia,,,,-3.9148262,122.0725964,https://maps.google.com/?cid=0x0:0x1df48d8b570494b7,
mall,Pusat Perbelanjaan,Simpang lambuya,"23MH+RC3, Jl. Poros Motaha - Lambuya, Awuliti, Kec. Lambuya, Kabupaten Konawe, Sulawesi Tenggara 93464","Jl. Poros Motaha - Lambuya, Awuliti, Kec. Lambuya, Kabupaten Konawe",SULAWESI TENGGARA,93464.0,Indonesia,,,,-3.9654858,122.078557,https://maps.google.com/?cid=0x0:0xae00cb0224b07882,
mall,Kios,Kios ikram,"427M+45, Rawua, Kec. Uepai, Kabupaten Konawe, Sulawesi Tenggara 93415","Rawua, Kec. Uepai, Kabupaten Konawe",SULAWESI TENGGARA,93415.0,Indonesia,,,,-3.887223,122.0327066,https://maps.google.com/?cid=0x0:0x5974475bda8129ee,
mall,Balai masyarakat,Puriala,"X448+6WR, Watundehoa, Kec. Puriala, Kabupaten Konawe, Sulawesi Tenggara","Kabupaten Konawe, Sulawesi Tenggara",SULAWESI TENGGARA,,Indonesia,,,,-4.0443949,122.1172568,https://maps.google.com/?cid=0x0:0x5891bf75d6aa7dd6,
mall,Bengkel Sepeda Motor,SETYO BUDI MOTOR,"X448+6WR, Watundehoa, Kec. Puriala, Kabupaten Konawe, Sulawesi Tenggara","Kabupaten Konawe, Sulawesi Tenggara",SULAWESI TENGGARA,,Indonesia,85242812220.0,,,-4.0440558,122.117218,https://maps.google.com/?cid=0x0:0xbf0536f0446e5be3,
mall,Komplek perumahan,Pasar Puriala,"X449+66X, Watundehoa, Kec. Puriala, Kabupaten Konawe, Sulawesi Tenggara 93452","Watundehoa, Kec. Puriala, Kabupaten Konawe",SULAWESI TENGGARA,93452.0,Indonesia,,,,-4.0443896,122.1181055,https://maps.google.com/?cid=0x0:0xc9ad802436484ba,
mall,mall,Kec. Puriala,"Kabupaten Konawe, Sulawesi Tenggara","Kabupaten Konawe, Sulawesi Tenggara",SULAWESI TENGGARA,,Indonesia,,,,-4.0443949,122.1172568,https://maps.google.com/?cid=0x0:0xab1291531b0d626c,
mall,Toko bahan makanan,WARUNG MBAK WIWIN,"W35F+59X, Jl. Poros Motaha - Lambuya, Unggulino, Kec. Puriala, Kabupaten Konawe, Sulawesi Tenggara 93464","Jl. Poros Motaha - Lambuya, Unggulino, Kec. Puriala, Kabupaten Konawe",SULAWESI TENGGARA,93464.0,Indonesia,,,,-4.0920247,122.0734718,https://maps.google.com/?cid=0x0:0xb999c9fff5804a66,
mall,Toko bahan makanan,Isyell Cell,"Asaki, Kec. Lambuya, Kabupaten Konawe, Sulawesi Tenggara 93464","Kec. Lambuya, Kabupaten Konawe",SULAWESI TENGGARA,93464.0,Indonesia,82315510909.0,,,-3.9522222,122.0708574,https://maps.google.com/?cid=0x0:0x1f4b0d86f14d2e62,
mall,Toko Pakaian,SM Store,"W647+G3V, Lalosingi, Kec. Mowila, Kabupaten Konawe Selatan, Sulawesi Tenggara 93873","Lalosingi, Kec. Mowila, Kabupaten Konawe Selatan",SULAWESI TENGGARA,93873.0,Indonesia,85696062991.0,,,-4.0936443,122.2126711,https://maps.google.com/?cid=0x0:0xdb34434c1a9f5741,
mall,Pusat Perbelanjaan,Mall Mandonga,"JL. Abdullah Silondae, Korumba, Kec. Mandonga, Kota Kendari, Sulawesi Tenggara 93111","Korumba, Kec. Mandonga, Kota Kendari",SULAWESI TENGGARA,93111.0,Indonesia,,,,-3.9642856,122.5189989,https://maps.google.com/?cid=0x0:0x96320466b7420e2b,
mall,Pasar,"Pasar Sentral Lahimbua, Andowia, Kabupaten Konawe Utara, Sulawesi Tenggara","F43P+CWF, Lahimbua, Kec. Andowia, Kabupaten Konawe Utara, Sulawesi Tenggara 93353","Lahimbua, Kec. Andowia, Kabupaten Konawe Utara",SULAWESI TENGGARA,93353.0,Indonesia,,,,-3.5464363,122.1372924,https://maps.google.com/?cid=0x0:0x3db24bd13d8b7cfb,
mall,mall,Sulawesi Tenggara 93353,Sulawesi Tenggara,Sulawesi Tenggara,SULAWESI TENGGARA,,Indonesia,,,,-3.2548527,121.7195459,https://maps.google.com/?cid=0x0:0x9fb3fe070f9105ac,
mall,Komplek perumahan,Pasar Molawe,"96P2+66F, Unnamed Road, Molawe, Kec. Molawe, Kabupaten Konawe Utara, Sulawesi Tenggara 93352","Unnamed Road, Molawe, Kec. Molawe, Kabupaten Konawe Utara",SULAWESI TENGGARA,93352.0,Indonesia,,,,-3.6144394,122.200555,https://maps.google.com/?cid=0x0:0x537ba82789bc0e2a,
mall,Pusat Perbelanjaan,Pasar Tradisional Laronanga (LC),"F4QV+668, Laronanga, Kec. Andowia, Kabupaten Konawe Utara, Sulawesi Tenggara 93353","Laronanga, Kec. Andowia, Kabupaten Konawe Utara",SULAWESI TENGGARA,93353.0,Indonesia,,,,-3.5119704,122.1430792,https://maps.google.com/?cid=0x0:0xa875922c6c5af8a2,
mall,Pusat Perbelanjaan,toko kanaya,"P67J+6V9, Unnamed Road, Molore, Kecamatan Langgikima, Kabupaten Konawe Utara, Sulawesi Tenggara 93353","Unnamed Road, Molore, Kecamatan Langgikima, Kabupaten Konawe Utara",SULAWESI TENGGARA,93353.0,Indonesia,,,,-3.2869518,122.2322362,https://maps.google.com/?cid=0x0:0x3e87bae1fc29f6b5,
mall,Kantor Pemerintah,Pangkalan Kapal Gae,"95WV+VVC, Unnamed Road, Molawe, Kec. Molawe, Kabupaten Konawe Utara, Sulawesi Tenggara 93352","Unnamed Road, Molawe, Kec. Molawe, Kabupaten Konawe Utara",SULAWESI TENGGARA,93352.0,Indonesia,,,,-3.6028112,122.1946486,https://maps.google.com/?cid=0x0:0xe3211610c49b32e8,
mall,Toko,Aziza Terima Barang Pesanan Online..,"P64M+MP9, Pariama, Kecamatan Langgikima, Kabupaten Konawe Utara, Sulawesi Tenggara 93353","Pariama, Kecamatan Langgikima, Kabupaten Konawe Utara",SULAWESI TENGGARA,93353.0,Indonesia,82259736344.0,,,-3.2933431,122.2343713,https://maps.google.com/?cid=0x0:0xb9912965658cabbf,
mall,Perusahaan Konstruksi,PT IKIP Site Routa,"Lalomerui, Routa, Kabupaten Konawe, Sulawesi Tenggara","Kabupaten Konawe, Sulawesi Tenggara",SULAWESI TENGGARA,,Indonesia,,,,-3.0154594,121.8539585,https://maps.google.com/?cid=0x0:0x921257bbb119f6b9,
mall,Toko,Waldan All Shop,"86VR+X43, Tinobu, Kec. Lasolo, Kabupaten Konawe Utara, Sulawesi Tenggara 93352","Tinobu, Kec. Lasolo, Kabupaten Konawe Utara",SULAWESI TENGGARA,93352.0,Indonesia,82292567007.0,,,-3.6551132,122.2403032,https://maps.google.com/?cid=0x0:0xd5907a63746b1164,
mall,Pusat Perbelanjaan,TOKO SURYA LANGGIKIMA,"P64M+9GF, Pariama, Kecamatan Langgikima, Kabupaten Konawe Utara, Sulawesi Tenggara 93353","Pariama, Kecamatan Langgikima, Kabupaten Konawe Utara",SULAWESI TENGGARA,93353.0,Indonesia,82395678285.0,,,-3.294069,122.2337836,https://maps.google.com/?cid=0x0:0x4f8455b271e905da,
mall,Perusahaan Konstruksi,PT Sulawesi Cahaya Mineral,"XVP2+Q8X, Lalomerui, Routa, Kabupaten Konawe, Sulawesi Tenggara 93353","Lalomerui, Routa, Kabupaten Konawe",SULAWESI TENGGARA,93353.0,Indonesia,,,,-3.013022,121.8508622,https://maps.google.com/?cid=0x0:0x43906bec748a15d6,
mall,Pasar,Pasar langgikima,"P643+F55, Langgikima, Kecamatan Langgikima, Kabupaten Konawe Utara, Sulawesi Tenggara 93353","Langgikima, Kecamatan Langgikima, Kabupaten Konawe Utara",SULAWESI TENGGARA,93353.0,Indonesia,,,,-3.2938568,122.2029832,https://maps.google.com/?cid=0x0:0xc74176d391a1070e,
mall,Pusat Perbelanjaan,Gorden molawe,"96P2+Q2G, Molawe, Kec. Molawe, Kabupaten Konawe Utara, Sulawesi Tenggara","Kabupaten Konawe Utara, Sulawesi Tenggara",SULAWESI TENGGARA,,Indonesia,81248053640.0,,,-3.6130629,122.2000674,https://maps.google.com/?cid=0x0:0x130d45c62c0826b6,
mall,Toko Swalayan,Bengkel Buana Indah Asera,"Jl. Poros Bungku Sel. - Kendari, Mataiwoi, Kec. Andowia, Kabupaten Konawe Utara, Sulawesi Tenggara 93353","Mataiwoi, Kec. Andowia, Kabupaten Konawe Utara",SULAWESI TENGGARA,93353.0,Indonesia,81341600567.0,,,-3.5223878,122.1179103,https://maps.google.com/?cid=0x0:0x5a71a954326ee55a,
mall,Kantor Perusahaan,PT IKIP (Indonesia Konawe Industrial Park),"XVP3+15FW, Lalomerui, Routa, Kabupaten Konawe, Sulawesi Tenggara 93353","Lalomerui, Routa, Kabupaten Konawe",SULAWESI TENGGARA,93353.0,Indonesia,81229163177.0,,,-3.0139864,121.8538262,https://maps.google.com/?cid=0x0:0xb5ccb78fb09d633e,
mall,Toko umum,TOKO KAWAN BARU,"Jl. Poros Bungku Sel. - Kendari, Mataiwoi, Kec. Andowia, Kabupaten Konawe Utara, Sulawesi Tenggara 93353","Mataiwoi, Kec. Andowia, Kabupaten Konawe Utara",SULAWESI TENGGARA,93353.0,Indonesia,85241829992.0,,,-3.5218013,122.1173113,https://maps.google.com/?cid=0x0:0xcf29127b83d954f2,
mall,Pusat Perbelanjaan,FOTOCOPY ROLIN BUDI PUTRA,"Jl. Sultan Himayatuddin, Wanggudu, Kec. Asera, Kabupaten Konawe Utara, Sulawesi Tenggara 93353","Wanggudu, Kec. Asera, Kabupaten Konawe Utara",SULAWESI TENGGARA,93353.0,Indonesia,82235077799.0,,,-3.5108339,122.0723816,https://maps.google.com/?cid=0x0:0xb76a762b91f5ca6c,
mall,,Foto Copy Najwa,"F4CH+MXR, Jl. Poros Bungku Sel. - Kendari, Larobende, Kec. Andowia, Kabupaten Konawe Utara, Sulawesi Tenggara 93353","Jl. Poros Bungku Sel. - Kendari, Larobende, Kec. Andowia, Kabupaten Konawe Utara",SULAWESI TENGGARA,93353.0,Indonesia,82292231161.0,,,-3.5282679,122.1298996,https://maps.google.com/?cid=0x0:0xeb23372644c3c1ef,
mall,Pembangunan Perumahan,Pasar Tapunggaya,"C6P9+XHW, Tapunggaeya, Kec. Molawe, Kabupaten Konawe Utara, Sulawesi Tenggara 93352","Tapunggaeya, Kec. Molawe, Kabupaten Konawe Utara",SULAWESI TENGGARA,93352.0,Indonesia,85346374200.0,,,-3.5625053,122.2189418,https://maps.google.com/?cid=0x0:0x754dede029b20bf4,
mall,Otoritas Pelabuhan,Pasar Tinobu,"86VR+XM7, Tinobu, Kec. Lasolo, Kabupaten Konawe Utara, Sulawesi Tenggara","Kabupaten Konawe Utara, Sulawesi Tenggara",SULAWESI TENGGARA,,Indonesia,,,,-3.6550882,122.2416604,https://maps.google.com/?cid=0x0:0x9884b1a0eb306f6a,
mall,,FotoCopy UD. ILMU HIDUP,"F4M7+VMF, Wanggudu, Kec. Asera, Kabupaten Konawe Utara, Sulawesi Tenggara 93353","Wanggudu, Kec. Asera, Kabupaten Konawe Utara",SULAWESI TENGGARA,93353.0,Indonesia,81341031116.0,,,-3.5153141,122.1141807,https://maps.google.com/?cid=0x0:0x3a70a0a9340ecdea,
mall,Pusat Perbelanjaan,Stokist Nasa Bahodopi,"32FG+MQV Hoya, Kec. Bahodopi Desa Kuerea Sebelum Hoya, Keurea, Kec. Bahodopi, Kabupaten Morowali, Sulawesi Tengah 94974","Kec. Bahodopi Desa Kuerea Sebelum Hoya, Keurea, Kec. Bahodopi, Kabupaten Morowali",SULAWESI TENGGARA,94974.0,Indonesia,85254001122.0,,,-2.9257603,122.026918,https://maps.google.com/?cid=0x0:0x91529f074668b8ef,
mall,Pusat Perbelanjaan,Zhi Zhi Cell,"M6GV+X34, kompleks pasar Jl. Trans Sulawesi, Sari Mukti, Kecamatan Langgikima, Kabupaten Konawe Utara, Sulawesi Tenggara 93352","kompleks pasar Jl. Trans Sulawesi, Sari Mukti, Kecamatan Langgikima, Kabupaten Konawe Utara",SULAWESI TENGGARA,93352.0,Indonesia,82291266262.0,,,-3.3226239,122.2427,https://maps.google.com/?cid=0x0:0xd81c66471e66674e,
mall,mall,Toko Asyifa jaya,"Q47X+Q2F, Jl. Trans Sulawesi, Lamonae, Kec. Wiwirano, Kabupaten Konawe Utara, Sulawesi Tenggara 93353","Jl. Trans Sulawesi, Lamonae, Kec. Wiwirano, Kabupaten Konawe Utara",SULAWESI TENGGARA,93353.0,Indonesia,,,,-3.2355585,122.1475341,https://maps.google.com/?cid=0x0:0x4fb022a9e066ddc,
mall,Toko,TOKO SYADIAH,"F4G9+9RJ, Lambudoni, Kec. Andowia, Kabupaten Konawe Utara, Sulawesi Tenggara 93353","Lambudoni, Kec. Andowia, Kabupaten Konawe Utara",SULAWESI TENGGARA,93353.0,Indonesia,,,,-3.5240443,122.1195201,https://maps.google.com/?cid=0x0:0x945cb818586b35d,
mall,mall,Sampara,"Kec. Sampara, Kabupaten Konawe, Sulawesi Tenggara","Kabupaten Konawe, Sulawesi Tenggara",SULAWESI TENGGARA,,Indonesia,,,,-3.9846518,122.397171,https://maps.google.com/?cid=0x0:0x96ec46fb5ac96d0c,
mall,Pasar,Pasar Sampara,"298X+JX2, Sampara, Kec. Sampara, Kabupaten Konawe, Sulawesi Tenggara 93354","Sampara, Kec. Sampara, Kabupaten Konawe",SULAWESI TENGGARA,93354.0,Indonesia,,,,-3.9834968,122.3999002,https://maps.google.com/?cid=0x0:0xa8e164c26c848378,
mall,Pusat Perbelanjaan,Mall Mandonga,"JL. Abdullah Silondae, Korumba, Kec. Mandonga, Kota Kendari, Sulawesi Tenggara 93111","Korumba, Kec. Mandonga, Kota Kendari",SULAWESI TENGGARA,93111.0,Indonesia,,,,-3.9642856,122.5189989,https://maps.google.com/?cid=0x0:0x96320466b7420e2b,
mall,Tujuan Wisata,Pasar Boro-Boro Lameuru,"X9F7+7R4, Boro-Boro Lameuru, Kec. Ranomeeto Bar., Kabupaten Konawe Selatan, Sulawesi Tenggara 93354","Boro-Boro Lameuru, Kec. Ranomeeto Bar., Kabupaten Konawe Selatan",SULAWESI TENGGARA,93354.0,Indonesia,,,,-4.0268504,122.3645807,https://maps.google.com/?cid=0x0:0xeb94408c21aab242,
mall,mall,Sulawesi Tenggara 93351,"Kabupaten Konawe, Sulawesi Tenggara","Kabupaten Konawe, Sulawesi Tenggara",SULAWESI TENGGARA,,Indonesia,,,,-3.9052906,122.6390489,https://maps.google.com/?cid=0x0:0x47d2a3dde2b52d2f,
mall,Pusat Perbelanjaan,Mall Mandonga,"JL. Abdullah Silondae, Korumba, Kec. Mandonga, Kota Kendari, Sulawesi Tenggara 93111","Korumba, Kec. Mandonga, Kota Kendari",SULAWESI TENGGARA,93111.0,Indonesia,,,,-3.9642856,122.5189989,https://maps.google.com/?cid=0x0:0x96320466b7420e2b,
mall,Toko,NisaNaya Cell,"4G48+7MG, Jl. Poros Pltu Nii Tanasa, Lalombonda, Kec. Lalonggasumeeto, Kabupaten Konawe, Sulawesi Tenggara 93351","Jl. Poros Pltu Nii Tanasa, Lalombonda, Kec. Lalonggasumeeto, Kabupaten Konawe",SULAWESI TENGGARA,93351.0,Indonesia,,,,-3.8943061,122.5167139,https://maps.google.com/?cid=0x0:0x81716826c6f5ea1a,
mall,Pusat Perbelanjaan,Lippo Plaza Kendari,"Jl. Jenderal M.t. Haryono No.61 - 63, Bende, Kec. Kadia, Kota Kendari, Sulawesi Tenggara 93117","Bende, Kec. Kadia, Kota Kendari",SULAWESI TENGGARA,93117.0,Indonesia,4013196500.0,,,-3.9921675,122.5122065,https://maps.google.com/?cid=0x0:0x3216add04ddfc0d3,
mall,Toko umum,Alisha olshop,"3FX9+6HG, Lalonggaluku, Kec. Bondoala, Kabupaten Konawe, Sulawesi Tenggara 93354","Lalonggaluku, Kec. Bondoala, Kabupaten Konawe",SULAWESI TENGGARA,93354.0,Indonesia,,,,-3.9019377,122.4689411,https://maps.google.com/?cid=0x0:0xd4b67ace591ba9f9,
mall,Mal outlet,Blonjoo Toserba,"Wawombalata, Kec. Mandonga, Kota Kendari, Sulawesi Tenggara 93113","Kec. Mandonga, Kota Kendari",SULAWESI TENGGARA,93113.0,Indonesia,82292745147.0,,,-3.9453325,122.5022168,https://maps.google.com/?cid=0x0:0xd61ebb27a35dc87a,
mall,Toko,Amry Mart,"3G52+4MP, Jl. Osumentundu, Wawombalata, Kec. Mandonga, Kota Kendari, Sulawesi Tenggara 93113","Jl. Osumentundu, Wawombalata, Kec. Mandonga, Kota Kendari",SULAWESI TENGGARA,93113.0,Indonesia,82990709193.0,,,-3.9421728,122.501693,https://maps.google.com/?cid=0x0:0x1959d3c1f681868d,
mall,Pusat Perbelanjaan,The Park Mall Kendari,"The Park Mall, Jl. Brigjen M. Yoenoes Lantai 1 Unit 1-0030, Bende, Kec. Kadia, Kota Kendari, Sulawesi Tenggara 93118","Jl. Brigjen M. Yoenoes Lantai 1 Unit 1-0030, Bende, Kec. Kadia, Kota Kendari",SULAWESI TENGGARA,93118.0,Indonesia,,,,-3.983111,122.5199765,https://maps.google.com/?cid=0x0:0x6886d2e566726196,
mall,Toko Pakaian,ADL Onlineshop,"3FHW+XFW, Labibia, Kec. Mandonga, Kota Kendari, Sulawesi Tenggara 93351","Labibia, Kec. Mandonga, Kota Kendari",SULAWESI TENGGARA,93351.0,Indonesia,82347480349.0,,,-3.9200095,122.4961927,https://maps.google.com/?cid=0x0:0x49e75a3f51af506b,
mall,Pusat Perbelanjaan,Kios ELMA,"Jl. Imam Bonjol No.81, Wawombalata, Kec. Mandonga, Kota Kendari, Sulawesi Tenggara 93113","Wawombalata, Kec. Mandonga, Kota Kendari",SULAWESI TENGGARA,93113.0,Indonesia,,,,-3.9359616,122.5020764,https://maps.google.com/?cid=0x0:0x36ae070b7a85174,
mall,Pasar Petani,Lawang pitu wisata laut,"Jalan Nelayan Dusun No.3, Lalonggasumeeto, Kec. Lalonggasumeeto, Kabupaten Konawe, Sulawesi Tenggara 93351","Lalonggasumeeto, Kec. Lalonggasumeeto, Kabupaten Konawe",SULAWESI TENGGARA,93351.0,Indonesia,81259609122.0,,,-3.8854308,122.5107474,https://maps.google.com/?cid=0x0:0x8132f871837edc13,
mall,Pusat Perbelanjaan,The Park Kendari,"2G89+PV9, Bende, Kec. Kadia, Kota Kendari, Sulawesi Tenggara","Kota Kendari, Sulawesi Tenggara",SULAWESI TENGGARA,,Indonesia,,,,-3.9832207,122.5197309,https://maps.google.com/?cid=0x0:0xc86d98065cfeec35,
mall,Rumah Makan,Griya Sarfika Indah,"2FVC+XWW, Watulondo, Kec. Puuwatu, Kota Kendari, Sulawesi Tenggara 93115","Watulondo, Kec. Puuwatu, Kota Kendari",SULAWESI TENGGARA,93115.0,Indonesia,85233369963.0,,,-3.9550091,122.4723409,https://maps.google.com/?cid=0x0:0x38c51d14c4f2d447,
mall,Toko Perlengkapan Rumah,Kios ASRI,"Jl. Imam Bonjol No.107, Labibia, Kec. Mandonga, Kota Kendari, Sulawesi Tenggara 93113","Labibia, Kec. Mandonga, Kota Kendari",SULAWESI TENGGARA,93113.0,Indonesia,,,,-3.9329315,122.5015423,https://maps.google.com/?cid=0x0:0xdef9e0d6e8481324,
mall,mall,IKBAL JAYA,"4F26+W92, Laosu, Kec. Bondoala, Kabupaten Konawe, Sulawesi Tenggara 93354","Laosu, Kec. Bondoala, Kabupaten Konawe",SULAWESI TENGGARA,93354.0,Indonesia,82148094456.0,,,-3.8977468,122.4608775,https://maps.google.com/?cid=0x0:0x51541a96a1233296,
mall,Komplek perumahan,DELISHA RESORT,"4G2V+FFF, Jl. Poros Pltu Nii Tanasa, Nii Tanasa, Kec. Lalonggasumeeto, Kabupaten Konawe, Sulawesi Tenggara 93351","Jl. Poros Pltu Nii Tanasa, Nii Tanasa, Kec. Lalonggasumeeto, Kabupaten Konawe",SULAWESI TENGGARA,93351.0,Indonesia,85288805993.0,,,-3.8987292,122.543423,https://maps.google.com/?cid=0x0:0x834d86e3bcc17aa7,
mall,Pusat Perbelanjaan,MEWOK Store,"2JF2+V4P, Unnamed Road, Kessilampe, Kec. Kendari, Kota Kendari, Sulawesi Tenggara 93126","Unnamed Road, Kessilampe, Kec. Kendari, Kota Kendari",SULAWESI TENGGARA,93126.0,Indonesia,82291993723.0,,,-3.9752935,122.6003284,https://maps.google.com/?cid=0x0:0x29315d327386244,
mall,Minimarket,MM Mart.,"3FM3+J79, Rumbia, Kec. Bondoala, Kabupaten Konawe, Sulawesi Tenggara 93354","Rumbia, Kec. Bondoala, Kabupaten Konawe",SULAWESI TENGGARA,93354.0,Indonesia,,,,-3.9159639,122.4532267,https://maps.google.com/?cid=0x0:0x4b903a19792cace8,
mall,Kios,UD. Dea,"2GPW+2GQ, Jl. Bunga Tj., Tipulu, Kec. Kendari Bar., Kota Kendari, Sulawesi Tenggara 93873","Jl. Bunga Tj., Tipulu, Kec. Kendari Bar., Kota Kendari",SULAWESI TENGGARA,93873.0,Indonesia,,,,-3.9649244,122.5463729,https://maps.google.com/?cid=0x0:0xf30dc7d5d348f57f,
mall,Toko Swalayan,Depot Aldy,"JL. Gagak No.9, Punggaloba, Kec. Kendari Bar., Kota Kendari, Sulawesi Tenggara 93123","Punggaloba, Kec. Kendari Bar., Kota Kendari",SULAWESI TENGGARA,93123.0,Indonesia,82193038545.0,,,-3.9683196,122.5638827,https://maps.google.com/?cid=0x0:0x80e98b4854305be6,
mall,Tujuan Wisata,DESA SOROPIA,"Soropia, Jalan Poros Kendari, Soropia, Konawe Regency, South East Sulawesi 93783","Jalan Poros Kendari, Soropia, Konawe Regency",SULAWESI TENGGARA,93783.0,Indonesia,,,,-3.9004818,122.5831048,https://maps.google.com/?cid=0x0:0x315e73fccbfd4424,
mall,Pusat Perbelanjaan,Kios misna,"Jl. Dr. Sutomo Lorong TIMUR No.50, Lalodati, Kec. Mandonga, Kota Kendari, Sulawesi Tenggara 93113","Lalodati, Kec. Mandonga, Kota Kendari",SULAWESI TENGGARA,93113.0,Indonesia,,,,-3.9399271,122.4923658,https://maps.google.com/?cid=0x0:0xaf4c8f870fa4469e,
mall,Toko,Desa Sorue Jaya,"3J8F+8X3, Sorue Jaya, Soropia, Kabupaten Konawe, Sulawesi Tenggara","Kabupaten Konawe, Sulawesi Tenggara",SULAWESI TENGGARA,,Indonesia,,,,-3.9342435,122.6249195,https://maps.google.com/?cid=0x0:0x35ca34f529adb2ff,
mall,Sekolah,Sma 1 soropia,"3HXM+PH9, Soropia, Kabupaten Konawe, Sulawesi Tenggara 93783","Soropia, Kabupaten Konawe",SULAWESI TENGGARA,93783.0,Indonesia,,,,-3.9007182,122.5839831,https://maps.google.com/?cid=0x0:0x99fabbad566b9d2a,
mall,Toko,toko madani,"52F5+29J, Unnamed Road, Tongauna, Kec. Tongauna, Kabupaten Konawe, Sulawesi Tenggara 93412","Unnamed Road, Tongauna, Kec. Tongauna, Kabupaten Konawe",SULAWESI TENGGARA,93412.0,Indonesia,,,,-3.8274248,122.0084017,https://maps.google.com/?cid=0x0:0x546a605d984fb241,
mall,mall,Kec. Tongauna,"Kabupaten Konawe, Sulawesi Tenggara","Kabupaten Konawe, Sulawesi Tenggara",SULAWESI TENGGARA,,Indonesia,,,,-3.8040233,121.9869235,https://maps.google.com/?cid=0x0:0xcbf6d5e5495d22b4,
mall,Kantor Pemerintah,Mall Pelayanan Publik Kab. Konawe,"42VR+MGR, Puunaaha, Kec. Unaaha, Kabupaten Konawe, Sulawesi Tenggara","Kabupaten Konawe, Sulawesi Tenggara",SULAWESI TENGGARA,,Indonesia,,,,-3.8557517,122.0412567,https://maps.google.com/?cid=0x0:0x649c2dfe6f6be0b5,
mall,Toko Obat-Obatan Herbal,HNI Halal Mart Harmina,"Jl. Pagala Kel Wawonggole, Wawonggole, Kec. Unaaha, Kabupaten Konawe, Sulawesi Tenggara 93415","Wawonggole, Kec. Unaaha, Kabupaten Konawe",SULAWESI TENGGARA,93415.0,Indonesia,82312221338.0,,,-3.8486964,122.0526474,https://maps.google.com/?cid=0x0:0x4d7646ecd882bb19,
mall,Pusat Perbelanjaan,toko matahari,"42QR+G73, Puunaaha, Kec. Unaaha, Kabupaten Konawe, Sulawesi Tenggara 93415","Puunaaha, Kec. Unaaha, Kabupaten Konawe",SULAWESI TENGGARA,93415.0,Indonesia,,,,-3.8612261,122.0406569,https://maps.google.com/?cid=0x0:0x160b324712f0fe83,
mall,Toko bahan makanan,MR.DIY Unaaha,"Tumpas, Kec. Unaaha, Kabupaten Konawe, Sulawesi Tenggara","Kabupaten Konawe, Sulawesi Tenggara",SULAWESI TENGGARA,,Indonesia,,,,-3.8594844,122.041867,https://maps.google.com/?cid=0x0:0x923e3eb016426ee5,
mall,Minimarket,KIOS NAYA,"524M+CFF, Sendang Mulya Sari, Kec. Tongauna, Kabupaten Konawe, Sulawesi Tenggara 93413","Sendang Mulya Sari, Kec. Tongauna, Kabupaten Konawe",SULAWESI TENGGARA,93413.0,Indonesia,,,,-3.8439336,122.0336676,https://maps.google.com/?cid=0x0:0x228594daeb7efc99,
mall,,Kios gilang,"42RQ+8M5, Jl. Sao - Sao, Puunaaha, Kec. Unaaha, Kabupaten Konawe, Sulawesi Tenggara 93415","Jl. Sao - Sao, Puunaaha, Kec. Unaaha, Kabupaten Konawe",SULAWESI TENGGARA,93415.0,Indonesia,82290515151.0,,,-3.8592434,122.0392473,https://maps.google.com/?cid=0x0:0x9f3f007700ce5c,
mall,Toko umum,Toko Ayu Bayu,"6XF3+4WM, Unaasi Jaya, Kec. Abuki, Kabupaten Konawe, Sulawesi Tenggara 93575","Unaasi Jaya, Kec. Abuki, Kabupaten Konawe",SULAWESI TENGGARA,93575.0,Indonesia,,,,-3.7771711,121.9547884,https://maps.google.com/?cid=0x0:0x960dec7223e6b49d,
mall,Toko grosir,Toko Darma 2,"Jl. Inowa No.130, Puunaaha, Kec. Unaaha, Kabupaten Konawe, Sulawesi Tenggara 93415","Puunaaha, Kec. Unaaha, Kabupaten Konawe",SULAWESI TENGGARA,93415.0,Indonesia,,,,-3.8665156,122.0409734,https://maps.google.com/?cid=0x0:0x281bff3a09afe,
mall,Toko,Pusat HERBAL,"42QV+8CG, Jl. Poros Jl. Sapati, Tumpas, Kec. Unaaha, Kabupaten Konawe, Sulawesi Tenggara 93415","Jl. Poros Jl. Sapati, Tumpas, Kec. Unaaha, Kabupaten Konawe",SULAWESI TENGGARA,93415.0,Indonesia,85203297159.0,,,-3.861688,122.0435646,https://maps.google.com/?cid=0x0:0x63b318febbfc861d,
mall,Salon Rambut,VAN'S POMADE STORE,"42VP+4GJ, Unnamed Road, Puunaaha, Kec. Unaaha, Kabupaten Konawe, Sulawesi Tenggara 93413","Unnamed Road, Puunaaha, Kec. Unaaha, Kabupaten Konawe",SULAWESI TENGGARA,93413.0,Indonesia,82215737595.0,,,-3.8571568,122.0362525,https://maps.google.com/?cid=0x0:0x2f8cfcd5f97bc713,
mall,Pusat Perbelanjaan,SAYUR86,"42XX+WHG, Perumahan GRAND PERDANA Kel. Asambu, Ambekairi, Kec. Unaaha, Kabupaten Konawe, Sulawesi Tenggara 93415","Perumahan GRAND PERDANA Kel. Asambu, Ambekairi, Kec. Unaaha, Kabupaten Konawe",SULAWESI TENGGARA,93415.0,Indonesia,85333655501.0,,,-3.8501895,122.0489434,https://maps.google.com/?cid=0x0:0x50961cff3375a857,
mall,Toko Aksesori Ponsel,ID cellular,"Jl. Konggoasa No.91, Arombu, Kec. Unaaha, Kabupaten Konawe, Sulawesi Tenggara 93415","Arombu, Kec. Unaaha, Kabupaten Konawe",SULAWESI TENGGARA,93415.0,Indonesia,82352848321.0,,,-3.8681682,122.0475922,https://maps.google.com/?cid=0x0:0xdfe5ce5901d1036c,
mall,Toko Swalayan,Sahabat indah,"Jl. Sabandara No.16, Puunaaha, Kec. Unaaha, Kabupaten Konawe, Sulawesi Tenggara 93415","Puunaaha, Kec. Unaaha, Kabupaten Konawe",SULAWESI TENGGARA,93415.0,Indonesia,,,,-3.8616105,122.0411453,https://maps.google.com/?cid=0x0:0xde76165b41731336,
mall,Pusat Perbelanjaan,kios Kayleen,"427H+JQF, Rawua, Kec. Uepai, Kabupaten Konawe, Sulawesi Tenggara 93415","Rawua, Kec. Uepai, Kabupaten Konawe",SULAWESI TENGGARA,93415.0,Indonesia,85396525602.0,,,-3.8859282,122.0294075,https://maps.google.com/?cid=0x0:0x9647eacf5b67517f,
mall,Pusat Perbelanjaan,MAREN (Warung Putra-Putri),"Jl. Inolobunggadue II, Puunaaha, Kec. Unaaha, Kabupaten Konawe, Sulawesi Tenggara 93415","Puunaaha, Kec. Unaaha, Kabupaten Konawe",SULAWESI TENGGARA,93415.0,Indonesia,,,,-3.8585598,122.0405263,https://maps.google.com/?cid=0x0:0x4f92455959aff801,
mall,Toko Pakaian,Novi Shop,"5325+3H2, btn wawonggole tunggal, Wawonggole, Kec. Unaaha, Kabupaten Konawe, Sulawesi Tenggara 93415","btn wawonggole tunggal, Wawonggole, Kec. Unaaha, Kabupaten Konawe",SULAWESI TENGGARA,93415.0,Indonesia,,,,-3.8498507,122.0588924,https://maps.google.com/?cid=0x0:0xd3b33a913909273d,
mall,Toko,TOKO PUTRA MURNI,"43X4+3HV, Wawonggole, Kec. Unaaha, Kabupaten Konawe, Sulawesi Tenggara 93415","Wawonggole, Kec. Unaaha, Kabupaten Konawe",SULAWESI TENGGARA,93415.0,Indonesia,85241834541.0,,,-3.8522662,122.0564311,https://maps.google.com/?cid=0x0:0x6a65574727815c6d,
mall,Restoran atau Kafe,Kedai Hape,"Jl. Ir. Soekarno, Tumpas, Kec. Unaaha, Kabupaten Konawe, Sulawesi Tenggara 93415","Tumpas, Kec. Unaaha, Kabupaten Konawe",SULAWESI TENGGARA,93415.0,Indonesia,85399585432.0,,,-3.8564387,122.0520606,https://maps.google.com/?cid=0x0:0x82e23097c1b9713e,
mall,Toko Alat Pancing,toko pancing chodetz,"42WJ+9CJ, Jl. Haluoleo, Puosu, Kec. Tongauna, Kabupaten Konawe, Sulawesi Tenggara 93413","Jl. Haluoleo, Puosu, Kec. Tongauna, Kabupaten Konawe",SULAWESI TENGGARA,93413.0,Indonesia,,,,-3.8540289,122.0310106,https://maps.google.com/?cid=0x0:0xc429ea1b31f4c095,
mall,Toko Pakaian,Pelangi Olshop,"43P5+VCF, Jl. Jend Sudirman, Ambekairi, Kec. Unaaha, Kabupaten Konawe, Sulawesi Tenggara 93415","Jl. Jend Sudirman, Ambekairi, Kec. Unaaha, Kabupaten Konawe",SULAWESI TENGGARA,93415.0,Indonesia,85823113919.0,,,-3.8628038,122.0585333,https://maps.google.com/?cid=0x0:0xe2d032100502c85b,
mall,mall,Sulawesi Tenggara 93662,"Kabupaten Muna, Sulawesi Tenggara","Kabupaten Muna, Sulawesi Tenggara",SULAWESI TENGGARA,,Indonesia,,,,-5.1376689,122.5598994,https://maps.google.com/?cid=0x0:0xa91afe2ea9c449e,
mall,Jasa Reparasi Komputer,Mentox Computer,"Labasa, Kec. Tongkuno Sel., Kabupaten Muna, Sulawesi Tenggara 93662","Kec. Tongkuno Sel., Kabupaten Muna",SULAWESI TENGGARA,93662.0,Indonesia,,,,-5.190605,122.5218654,https://maps.google.com/?cid=0x0:0xb6a1e504ed29ac66,
mall,Pusat Perbelanjaan,Nusalink,"Jl. Jend. Sudirman No.21, Tombula, Kec. Tongkuno, Kabupaten Muna, Sulawesi Tenggara 93611","Tombula, Kec. Tongkuno, Kabupaten Muna",SULAWESI TENGGARA,93611.0,Indonesia,81245971588.0,,,-5.143115,122.5429308,https://maps.google.com/?cid=0x0:0x4c40fad4256c8194,
mall,Pusat Perbelanjaan,Calon lokasi pasar sementara wakuru,"VG7F+VR3, Tombula, Kec. Tongkuno, Kabupaten Muna, Sulawesi Tenggara 93662","Tombula, Kec. Tongkuno, Kabupaten Muna",SULAWESI TENGGARA,93662.0,Indonesia,,,,-5.1353628,122.5245413,https://maps.google.com/?cid=0x0:0x53ffc5f60acacdff,
mall,Pusat Perbelanjaan,Ada dmana mana,"VGQ6+FJG, Unnamed Road, Lamorende, Kec. Tongkuno, Kabupaten Muna, Sulawesi Tenggara 93719","Unnamed Road, Lamorende, Kec. Tongkuno, Kabupaten Muna",SULAWESI TENGGARA,93719.0,Indonesia,,,,-5.1113235,122.5115731,https://maps.google.com/?cid=0x0:0x1f2fa6567f6299b2,
mall,Bengkel Sepeda Motor,Duta motor wakuru,"Laghontoghe, Kec. Tongkuno, Kabupaten Muna, Sulawesi Tenggara 93662","Kec. Tongkuno, Kabupaten Muna",SULAWESI TENGGARA,93662.0,Indonesia,81248525485.0,,,-5.1552938,122.519275,https://maps.google.com/?cid=0x0:0x4689500c194235ca,
mall,Kantor Perusahaan,Peternakan labalano,"VG59+8F8, Unnamed Road, Lamorende, Kec. Tongkuno, Kabupaten Muna, Sulawesi Tenggara 93662","Unnamed Road, Lamorende, Kec. Tongkuno, Kabupaten Muna",SULAWESI TENGGARA,93662.0,Indonesia,85256280292.0,,,-5.1417197,122.5187067,https://maps.google.com/?cid=0x0:0xdffa4fb033ff3ae9,
mall,Pusat Perbelanjaan,SANDANA MOTOR,"RGV9+VPP, Laghontoghe, Kec. Tongkuno, Kabupaten Muna, Sulawesi Tenggara 93662","Laghontoghe, Kec. Tongkuno, Kabupaten Muna",SULAWESI TENGGARA,93662.0,Indonesia,,,,-5.1552875,122.5193194,https://maps.google.com/?cid=0x0:0xc5d6edab8d4fb3dc,
mall,Pasar,Pasar Wale Ale(waniba Wale Ale),"QGX2+R84, Unnamed Road, Waleale, Sel.,, Waleale, Kec. Tongkuno, Kabupaten Muna, Sulawesi Tenggara 93662","Unnamed Road, Waleale, Sel.,, Waleale, Kec. Tongkuno, Kabupaten Muna",SULAWESI TENGGARA,93662.0,Indonesia,,,,-5.2004954,122.5008297,https://maps.google.com/?cid=0x0:0x8f9b59cea2860300,
mall,Produsen,Pusat penghasil nenas,"WG35+95R, Walambeno Wite, Kec. Parigi, Kabupaten Muna, Sulawesi Tenggara 93663","Walambeno Wite, Kec. Parigi, Kabupaten Muna",SULAWESI TENGGARA,93663.0,Indonesia,82256282506.0,,,-5.0965021,122.5078801,https://maps.google.com/?cid=0x0:0x93c00cc3328eedd5,
mall,Pusat Perbelanjaan,TOKO AKIFAH,"RGR9+CW6, Laghontoghe, Kec. Tongkuno, Kabupaten Muna, Sulawesi Tenggara 93662","Laghontoghe, Kec. Tongkuno, Kabupaten Muna",SULAWESI TENGGARA,93662.0,Indonesia,,,,-5.1589737,122.5197764,https://maps.google.com/?cid=0x0:0x3e70d3ad28c2b9ed,
mall,Pusat Perbelanjaan,Toko Akifah,"VF2V+QW8, Danagoa, Kec. Tongkuno, Kabupaten Muna, Sulawesi Tenggara 93662","Danagoa, Kec. Tongkuno, Kabupaten Muna",SULAWESI TENGGARA,93662.0,Indonesia,,,,-5.1480945,122.4948384,https://maps.google.com/?cid=0x0:0x400ba70c23fd71f,
mall,Toko,Kios mama idin,"RGJC+C99, Lianosa, Kec. Tongkuno Sel., Kabupaten Muna, Sulawesi Tenggara 93662","Lianosa, Kec. Tongkuno Sel., Kabupaten Muna",SULAWESI TENGGARA,93662.0,Indonesia,,,,-5.1691009,122.5211144,https://maps.google.com/?cid=0x0:0x3b4a65d5a7b564e1,
mall,Bengkel Sepeda Motor,La Ante Bengkel,"Tombula, Kec. Tongkuno, Kabupaten Muna, Sulawesi Tenggara 93662","Kec. Tongkuno, Kabupaten Muna",SULAWESI TENGGARA,93662.0,Indonesia,82198193149.0,,,-5.1475935,122.520484,https://maps.google.com/?cid=0x0:0xe51daddb4454a1dc,
mall,Toko,Toko ERIK,"RG5C+GQX, Jl. A. Yani, Labasa, Kec. Tongkuno Sel., Kabupaten Muna, Sulawesi Tenggara 93662","Jl. A. Yani, Labasa, Kec. Tongkuno Sel., Kabupaten Muna",SULAWESI TENGGARA,93662.0,Indonesia,,,,-5.1911357,122.5219747,https://maps.google.com/?cid=0x0:0x6fa8f04ad95aba8c,
mall,Kios,Pasar Tongkoea,"3GMJ+M32, Lailangga, Kec. Wadaga, Kabupaten Muna, Sulawesi Tenggara 93652","Lailangga, Kec. Wadaga, Kabupaten Muna",SULAWESI TENGGARA,93652.0,Indonesia,,,,-4.9158503,122.5301349,https://maps.google.com/?cid=0x0:0xf462b98def423f56,
mall,Toko umum,ANSAR CELL,"RGW9+JQC, Unnamed Road, Laghontoghe, Kec. Tongkuno, Kabupaten Muna, Sulawesi Tenggara 93662","Unnamed Road, Laghontoghe, Kec. Tongkuno, Kabupaten Muna",SULAWESI TENGGARA,93662.0,Indonesia,82296665885.0,,,-5.1534459,122.5193979,https://maps.google.com/?cid=0x0:0x7df40d36c94e80b2,
mall,Toko Perlengkapan Rumah,UD. Yogi Wakumoro,"VGX6+64P, Unnamed Road, Walambeno Wite, Kec. Parigi, Kabupaten Muna, Sulawesi Tenggara 93719","Unnamed Road, Walambeno Wite, Kec. Parigi, Kabupaten Muna",SULAWESI TENGGARA,93719.0,Indonesia,81292254371.0,,,-5.1019249,122.5103436,https://maps.google.com/?cid=0x0:0x1315e4edf8100ed7,
mall,Toko Elektronik,Toko Rahmat Electronik  Furniture,"RGX9+5MQ, Unnamed Rd, Laghontoghe, Kec. Tongkuno, Kabupaten Muna, Sulawesi Tenggara 93662","Unnamed Rd, Laghontoghe, Kec. Tongkuno, Kabupaten Muna",SULAWESI TENGGARA,93662.0,Indonesia,81341590378.0,,,-5.1520354,122.51923,https://maps.google.com/?cid=0x0:0x1612218add8e2f22,
mall,Pasar Petani,Pasar Wasolangka,"WC8Q+R42, Wasolangka, Kec. Parigi, Kabupaten Muna, Sulawesi Tenggara 93661","Wasolangka, Kec. Parigi, Kabupaten Muna",SULAWESI TENGGARA,93661.0,Indonesia,,,,-5.0829827,122.4377732,https://maps.google.com/?cid=0x0:0x98a3a12286abed79,
