Category;Real Category;Business Name;Address;City;State;Postal Code;Country;Phone;Email;Website;Latitude;Longitude;Map Link;Details Link
"hotel";"hotel";"VILLA ALBASIA";"Darungan, Kemuning Lor, Kec. Arjasa, Kabupaten Jember, Jawa Timur";"Kabupaten Jember, Jawa Timur";"JAWA TIMUR";"";"Indonesia";" 082331882585";"";"";"-8.0970575";"113.7028037";"https://maps.google.com/?cid=0x0:0x42d11ea3225cc456";""
"hotel";"hotel";"Hotel Alam Indah";"VPCF+CWR, Jl. Rembangan, Cupu Kulon, Baratan, Kec. Patrang, Kabupaten Jember, Jawa Timur 68112";"Jl. Rembangan, Cupu Kulon, Baratan, Kec. Patrang, Kabupaten Jember";"JAWA TIMUR";"68112";"Indonesia";" 085731401037";"";"";"-8.1288789";"113.7247555";"https://maps.google.com/?cid=0x0:0x61a486afe0fe0e90";""
"hotel";"hotel";"Karunia Hotel Jember";"Jalan MR. Wahid, Wirowongso, Ajung, Sumber Rejo, Wirowongso, Kec. Ajung, Kabupaten Jember, Jawa Timur 68175";"Wirowongso, Ajung, Sumber Rejo, Wirowongso, Kec. Ajung, Kabupaten Jember";"JAWA TIMUR";"68175";"Indonesia";" 082234700777";"";"/url?q>>u003dhttp://www.karuniahoteljember.blogspot.com/>>u0026opi>>u003d79508299>>u0026sa>>u003dU>>u0026ved>>u003d0ahUKEwikr5aQ9tOLAxXDS2wGHaTtNXkQ61gIFigS>>u0026usg>>u003dAOvVaw3aNKjm_HiKW43qfVnxNCbu";"-8.214294";"113.6918077";"https://maps.google.com/?cid=0x0:0x9bdb31ac064e6b83";""
"hotel";"hotel";"Hotel Bintang";"Jl. Raya Banyuglugur, Bungor, Banyuglugur, Kec. Banyuglugur, Kabupaten Situbondo, Jawa Timur 68359";"Bungor, Banyuglugur, Kec. Banyuglugur, Kabupaten Situbondo";"JAWA TIMUR";"68359";"Indonesia";" 085236523636";"";"";"-7.725127";"113.618558";"https://maps.google.com/?cid=0x0:0x67796717b2784660";""
"hotel";"hotel";"Hotel asembagus";"66XM+GVJ, Jl. Raya Asembagus, Krajan, Wringinanom, Asembagus, Kabupaten Situbondo Jawaban Timur, Trigonco Timur, Trigonco, Kec. Asembagus, Kabupaten Situbondo, Jawa Timur 68373";"Jl. Raya Asembagus, Krajan, Wringinanom, Asembagus, Kabupaten Situbondo Jawaban Timur, Trigonco Timur, Trigonco, Kec. Asembagus, Kabupaten Situbondo";"JAWA TIMUR";"68373";"Indonesia";"";"";"";"-7.7511727";"114.2346446";"https://maps.google.com/?cid=0x0:0x57db25b6d10afc64";""
"hotel";"hotel";"Jawa Timur 68191";"Kec. Arjasa, Kabupaten Jember, Jawa Timur";"Kabupaten Jember, Jawa Timur";"JAWA TIMUR";"";"Indonesia";"";"";"";"-8.1098286";"113.7275817";"https://maps.google.com/?cid=0x0:0x1c00c5eb5b542b00";""
"hotel";"hotel";"Royal Hotel n' Resto Jember";"Jl. Karimata No.50 Kavling 2, Gumuk Kerang, Sumbersari, Kec. Sumbersari, Kabupaten Jember, Jawa Timur 68121";"Gumuk Kerang, Sumbersari, Kec. Sumbersari, Kabupaten Jember";"JAWA TIMUR";"68121";"Indonesia";" 081234695955";"";"";"-8.1773752";"113.7173635";"https://maps.google.com/?cid=0x0:0x960cec32c1e03bc6";""
"hotel";"hotel";"JC Hotel Jember";"Jl. Sunan Drajat No.31, Telengsah, Jember Kidul, Kec. Kaliwates, Kabupaten Jember, Jawa Timur";"Kabupaten Jember, Jawa Timur";"JAWA TIMUR";"";"Indonesia";" 08113011101";"";"/url?q>>u003dhttps://www.bookandlink.com/admin/booking/jc-hotel_3728.html>>u0026opi>>u003d79508299>>u0026sa>>u003dU>>u0026ved>>u003d0ahUKEwiSycqR9tOLAxVCUGcHHThTFHgQ61gIFigS>>u0026usg>>u003dAOvVaw1IMvDvWMR1KmTAuZ9D12uM";"-8.1825114";"113.6893555";"https://maps.google.com/?cid=0x0:0x9f54902900f0648f";""
"hotel";"hotel";"N/A";"";"";"JAWA TIMUR";"";"Indonesia";"";"";"";"";"";"https://maps.google.com/?cid=0x0:0x9f54902900f0648f%7C/g/11b807_dsb%7Cen-ID";""
"hotel";"hotel";"Arowana Hotel";"Jl. Arowana No.73, Gebang Taman, Kb. Agung, Kec. Kaliwates, Kabupaten Jember, Jawa Timur 68131";"Gebang Taman, Kb. Agung, Kec. Kaliwates, Kabupaten Jember";"JAWA TIMUR";"68131";"Indonesia";" 0331411412";"";"/url?q>>u003dhttps://s.id/pesankamar>>u0026opi>>u003d79508299>>u0026sa>>u003dU>>u0026ved>>u003d0ahUKEwio-qaS9tOLAxWV1jgGHXPfHvEQ61gIFigS>>u0026usg>>u003dAOvVaw27YzmJXqjyVSztJTEk1Szj";"-8.1593162";"113.6754395";"https://maps.google.com/?cid=0x0:0x470ac7e45cb63fa0";""
"hotel";"hotel";"OYO 93384 New Asembagus 2";"traditional Market Situbondo, 1 Jl.Raya Asembagus, Krajan, Wringinanom, Asembagus, Kabupaten, Jawaban Timur, Trigonco Timur, Trigonco, Asembagus, Situbondo Regency, East Java 68373";"1 Jl.Raya Asembagus, Krajan, Wringinanom, Asembagus, Kabupaten, Jawaban Timur, Trigonco Timur, Trigonco, Asembagus, Situbondo Regency";"JAWA TIMUR";"68373";"Indonesia";" 02129707601";"";"/url?q>>u003dhttps://www.oyorooms.com/224182/>>u0026opi>>u003d79508299>>u0026sa>>u003dU>>u0026ved>>u003d0ahUKEwj7pcqS9tOLAxXlxjgGHTAZLYcQ61gIFigS>>u0026usg>>u003dAOvVaw0JcmGLVkAbXky7CrI0OaYD";"-7.7508214";"114.2343738";"https://maps.google.com/?cid=0x0:0xf820be384a69f2a2";""
"hotel";"hotel";"OYO 93381 New Asembagus 3";"Traditional Market Situbondo, 1 Jl.Raya Asembagus, Krajan, Wringinanom, Asembagus Kabupaten Situbondo Jawaban Timur, Trigonco Timur, Trigonco, Asembagus, Situbondo Regency, East Java 68373";"1 Jl.Raya Asembagus, Krajan, Wringinanom, Asembagus Kabupaten Situbondo Jawaban Timur, Trigonco Timur, Trigonco, Asembagus, Situbondo Regency";"JAWA TIMUR";"68373";"Indonesia";" 02129707601";"";"/url?q>>u003dhttps://www.oyorooms.com/224175/>>u0026opi>>u003d79508299>>u0026sa>>u003dU>>u0026ved>>u003d0ahUKEwiA_9eS9tOLAxWIVWwGHT0jJ3wQ61gIFigS>>u0026usg>>u003dAOvVaw07YoGbB9u_E96b5HIOhMA2";"-7.7525246";"114.2344342";"https://maps.google.com/?cid=0x0:0xbc34fe3950bd14e";""
"hotel";"hotel";"Hotel Kebon Agung";"Jl. Arowana No.59, Gebang Taman, Kb. Agung, Kec. Kaliwates, Kabupaten Jember, Jawa Timur 68131";"Gebang Taman, Kb. Agung, Kec. Kaliwates, Kabupaten Jember";"JAWA TIMUR";"68131";"Indonesia";" 0331485157";"";"/url?q>>u003dhttps://s.id/pesankamar>>u0026opi>>u003d79508299>>u0026sa>>u003dU>>u0026ved>>u003d0ahUKEwjB2pyT9tOLAxVpR2wGHZsJMHwQ61gIFigS>>u0026usg>>u003dAOvVaw2Te4A26NQnc6w2aYBwxeOD";"-8.1622393";"113.6784438";"https://maps.google.com/?cid=0x0:0xd90dee973352fad7";""
"hotel";"hotel";"OYO 94147 Anasya Homestay";"78 Jl. Mujahir 78.Kec.Sukorambi, Jember, Jawa Timur, Jawa, Alun Alun, Kota Jember, Jember Regency, East Java 68151";"Jember, Jawa Timur, Jawa, Alun Alun, Kota Jember, Jember Regency";"JAWA TIMUR";"68151";"Indonesia";" 02129707601";"";"/url?q>>u003dhttps://www.oyorooms.com/246822/>>u0026opi>>u003d79508299>>u0026sa>>u003dU>>u0026ved>>u003d0ahUKEwj4vcOT9tOLAxWNxzgGHRJ_I8wQ61gIFigS>>u0026usg>>u003dAOvVaw3MlaV0BvAKFLQaKvaGFor8";"-8.1568946";"113.6662904";"https://maps.google.com/?cid=0x0:0x4a826405fe6823ff";""
"hotel";"hotel";"Roso Tentrem Guest House";"Komplek Ruko, Jl. DR. Soebandi No.A4, Patang Tengah, Patrang, Kec. Patrang, Kabupaten Jember, Jawa Timur 68111";"Jl. DR. Soebandi No.A4, Patang Tengah, Patrang, Kec. Patrang, Kabupaten Jember";"JAWA TIMUR";"68111";"Indonesia";" 082338824977";"";"";"-8.1499221";"113.7118873";"https://maps.google.com/?cid=0x0:0x48a5c709048234e5";""
"hotel";"hotel";"Hotel Siti Jember";"Jl. Bondowoso - Jember No.36, Cangkring, Patrang, Kec. Patrang, Kabupaten Jember, Jawa Timur 68111";"Cangkring, Patrang, Kec. Patrang, Kabupaten Jember";"JAWA TIMUR";"68111";"Indonesia";" 081130046000";"";"";"-8.15539";"113.7126946";"https://maps.google.com/?cid=0x0:0xaf45f3ca26c71455";""
"hotel";"hotel";"The Premiere Siti Hotel";"Jl. Bondowoso - Jember No.37, Cangkring, Patrang, Kec. Patrang, Kabupaten Jember, Jawa Timur 68111";"Cangkring, Patrang, Kec. Patrang, Kabupaten Jember";"JAWA TIMUR";"68111";"Indonesia";"";"";"";"-8.1553929";"113.7127458";"https://maps.google.com/?cid=0x0:0xfc6404a10414fcdc";""
"hotel";"hotel";"InnBox Capsule Hotel";"Jl. Kalimantan IV Gg. 4 No.8, Krajan Timur, Sumbersari, Kec. Sumbersari, Kabupaten Jember, Jawa Timur 68121";"Krajan Timur, Sumbersari, Kec. Sumbersari, Kabupaten Jember";"JAWA TIMUR";"68121";"Indonesia";" 0811214525";"";"";"-8.1596537";"113.7131242";"https://maps.google.com/?cid=0x0:0x58e9b417eaf313c9";""
"hotel";"hotel";"Rumah Kita Homestay";"Jl. Srikoyo No.25, Krajan, Patrang, Kec. Patrang, Kabupaten Jember, Jawa Timur 68111";"Krajan, Patrang, Kec. Patrang, Kabupaten Jember";"JAWA TIMUR";"68111";"Indonesia";" 081333399005";"";"";"-8.1484911";"113.7161236";"https://maps.google.com/?cid=0x0:0xf797e32af49aea3d";""
"hotel";"hotel";"Hotel Anda";"Jl. R.A. Kartini No.40, Tembaan, Kepatihan, Kec. Kaliwates, Kabupaten Jember, Jawa Timur 68137";"Tembaan, Kepatihan, Kec. Kaliwates, Kabupaten Jember";"JAWA TIMUR";"68137";"Indonesia";" 081233108112";"";"";"-8.1727474";"113.7007738";"https://maps.google.com/?cid=0x0:0x2e1fde90da83280d";""
"hotel";"hotel";"Super Capital O 1475 Oemah Jawa Family Residence";"3, Jl. Jawa No.3, Tegal Boto Lor, Sumbersari, Kec. Kaliwates, Kabupaten Jember, Jawa Timur 68121";"Jl. Jawa No.3, Tegal Boto Lor, Sumbersari, Kec. Kaliwates, Kabupaten Jember";"JAWA TIMUR";"68121";"Indonesia";" 02129707601";"";"/url?q>>u003dhttps://www.oyorooms.com/ID/79631/%3Futm_source%3DGMB_ID%26utm_medium%3DOrganic%26utm_campaign%3DID_JBR002%26latitude%3D-8.168324%26longitude%3D113.711471%26locale%3Did>>u0026opi>>u003d79508299>>u0026sa>>u003dU>>u0026ved>>u003d0ahUKEwjMrcCV9tOLAxXEyzgGHbwFDIIQ61gIFigS>>u0026usg>>u003dAOvVaw0qc1xkPKSHm-NE3yrRzBi_";"-8.168324";"113.711471";"https://maps.google.com/?cid=0x0:0x68c83e6f8108e52d";""
"hotel";"hotel";"N/A";"";"";"JAWA TIMUR";"";"Indonesia";"";"";"";"";"";"https://maps.google.com/?cid=0x0:0x68c83e6f8108e52d%7C/g/11h87z7z8j%7Cen-ID";""
"hotel";"hotel";"Hotel Cendrawasih";"Jl. Cendrawasih No.22, Kreongan Atas, Jemberlor, Kec. Patrang, Kabupaten Jember, Jawa Timur 68118";"Kreongan Atas, Jemberlor, Kec. Patrang, Kabupaten Jember";"JAWA TIMUR";"68118";"Indonesia";" 0331412222";"";"/url?q>>u003dhttps://s.id/pesankamar>>u0026opi>>u003d79508299>>u0026sa>>u003dU>>u0026ved>>u003d0ahUKEwj7hZ-W9tOLAxV8wTgGHd0bGAQQ61gIFigS>>u0026usg>>u003dAOvVaw2BS74GCU2JqZpmS7S9vHPt";"-8.1559082";"113.6997683";"https://maps.google.com/?cid=0x0:0x1a4cec72c8fb9b4a";""
"hotel";"hotel";"Hotel Flamboyan";"Jl. Teuku Umar No.78, Lingkungan Krajan, Tegal Besar, Kec. Kaliwates, Kabupaten Jember, Jawa Timur 68122";"Lingkungan Krajan, Tegal Besar, Kec. Kaliwates, Kabupaten Jember";"JAWA TIMUR";"68122";"Indonesia";" 0331326252";"";"";"-8.1912399";"113.6966333";"https://maps.google.com/?cid=0x0:0xc06c4dc638abe8d2";""
"hotel";"hotel";"Mulyanus Hotel  Resort Pakusari Jember";"Jalan Prambanan Nomor 75, Desa Kertosari, Kecamatan Pakusari, Krajan, Pakusari, Jawa Timur, Kabupaten Jember, Jawa Timur 68181";"Desa Kertosari, Kecamatan Pakusari, Krajan, Pakusari, Jawa Timur, Kabupaten Jember";"JAWA TIMUR";"68181";"Indonesia";" 082122217675";"";"";"-8.1709944";"113.7660134";"https://maps.google.com/?cid=0x0:0xbed803ba343fc94f";""
"hotel";"hotel";"OYO 91710 Hotel Anugerah";"Alun alun, 68133 Jember, Jawa Timur, 68131, Jember Kidul, Kabupaten Jember, Jawa Timur 68153";"Jember";"JAWA TIMUR";"68133";"Indonesia";" 02129707601";"";"/url?q>>u003dhttps://www.oyorooms.com/ID/192659/%3Futm_source%3DGMB_ID%26utm_medium%3DOrganic%26utm_campaign%3DID_JBR017%26latitude%3D-8.176360819673008%26longitude%3D113.69926208630204%26locale%3Did>>u0026opi>>u003d79508299>>u0026sa>>u003dU>>u0026ved>>u003d0ahUKEwikuYqX9tOLAxWdSmwGHdXzFoIQ61gIFigS>>u0026usg>>u003dAOvVaw1tahABbVR_H7u8Ae8R3NyY";"-8.1763608";"113.6992621";"https://maps.google.com/?cid=0x0:0x27f9aa146676c952";""
"hotel";"hotel";"N/A";"";"";"JAWA TIMUR";"";"Indonesia";"";"";"";"";"";"https://maps.google.com/?cid=0x0:0xef7e01b35a528b1a%7C/g/11h70hrfpg%7Cen-ID";""
"hotel";"hotel";"Hotel 91' Syariah Jember";"Jl. Mataram No.19, Krajan, Sempusari, Kec. Kaliwates, Kabupaten Jember, Jawa Timur 68131";"Krajan, Sempusari, Kec. Kaliwates, Kabupaten Jember";"JAWA TIMUR";"68131";"Indonesia";" 03315101991";"";"";"-8.1914231";"113.6574088";"https://maps.google.com/?cid=0x0:0xef7e01b35a528b1a";""
"hotel";"hotel";"Hotel Ria Kaliwates";"Jl. Untung Suropati, Tembaan, Kepatihan, Kec. Kaliwates, Kabupaten Jember, Jawa Timur 68137";"Tembaan, Kepatihan, Kec. Kaliwates, Kabupaten Jember";"JAWA TIMUR";"68137";"Indonesia";" 085133339583";"";"";"-8.1735988";"113.6966186";"https://maps.google.com/?cid=0x0:0x2d98b42c087bec72";""
"hotel";"hotel";"Hotel Karisma Situbondo";"Jl. Banyuwangi No.KM.3,7, Karang Malang, Kesambi Rampak, Kec. Kapongan, Kabupaten Situbondo, Jawa Timur 68362";"Karang Malang, Kesambi Rampak, Kec. Kapongan, Kabupaten Situbondo";"JAWA TIMUR";"68362";"Indonesia";" 085104550111";"";"";"-7.6929658";"114.046744";"https://maps.google.com/?cid=0x0:0x40b4ec02aba39cf2";""
"hotel";"hotel";"New Catimore Heritage 1894 Blawan";"2569+GWX, Plalangan II, Kalianyar, Kec. Ijen, Kabupaten Bondowoso, Jawa Timur 68288";"Plalangan II, Kalianyar, Kec. Ijen, Kabupaten Bondowoso";"JAWA TIMUR";"68288";"Indonesia";" 085186808661";"";"";"-7.9886375";"114.1698594";"https://maps.google.com/?cid=0x0:0x3a75f7887fa85cb";""
"hotel";"hotel";"N/A";"";"";"JAWA TIMUR";"";"Indonesia";"";"";"";"";"";"https://maps.google.com/?cid=0x0:0xdf0667af9e288f3e%7C/g/11h5qnr287%7Cen-ID";""
"hotel";"hotel";"CERAH HOTEL";"Jl. Raya Paiton No.km 137, Dusun Krajan, Sumberanyar, Kec. Paiton, Kabupaten Probolinggo, Jawa Timur 67291";"Dusun Krajan, Sumberanyar, Kec. Paiton, Kabupaten Probolinggo";"JAWA TIMUR";"67291";"Indonesia";" 0335773777";"";"";"-7.7179735";"113.5305014";"https://maps.google.com/?cid=0x0:0x3870c94ca203203c";""
"hotel";"hotel";"Villa LISTA";"Jln. Pasar Hewan (Tembus Baru) Kp.Pareyaan, RT.04/RW.2, Krajan Timur, Sumber Kolak, Kec. Panarukan, Kabupaten Situbondo, Jawa Timur 68351";"RT.04/RW.2, Krajan Timur, Sumber Kolak, Kec. Panarukan, Kabupaten Situbondo";"JAWA TIMUR";"68351";"Indonesia";" 082333504349";"";"";"-7.7173705";"114.0000254";"https://maps.google.com/?cid=0x0:0x3d6cd0c0192f052b";""
"hotel";"hotel";"Jeru Homestay";"Curahjeru Timur, Curah Jeru, Kec. Panji, Kabupaten Situbondo, Jawa Timur 68323";"Curah Jeru, Kec. Panji, Kabupaten Situbondo";"JAWA TIMUR";"68323";"Indonesia";" 082131184264";"";"";"-7.6927504";"114.0265011";"https://maps.google.com/?cid=0x0:0x9898ac3e7b225e7b";""
"hotel";"hotel";"SPOT ON 1958 Asembagus Family";"Jl. Raya Asembagus, Krajan, Wringinanom, Kec. Asembagus, Kabupaten Situbondo, Jawa Timur 68373";"Krajan, Wringinanom, Kec. Asembagus, Kabupaten Situbondo";"JAWA TIMUR";"68373";"Indonesia";" 02129707601";"";"/url?q>>u003dhttps://www.oyorooms.com/ID/86272/%3Futm_source%3DGMB_ID%26utm_medium%3DOrganic%26utm_campaign%3DID_UDC001%26latitude%3D-7.75113483695156%26longitude%3D114.234388433397%26locale%3Did>>u0026opi>>u003d79508299>>u0026sa>>u003dU>>u0026ved>>u003d0ahUKEwjJuOGr9tOLAxX-2TgGHdrWBNsQ61gIFigS>>u0026usg>>u003dAOvVaw0SJTG8w9ABdD391Vj-s96c";"-7.75113";"114.2343872";"https://maps.google.com/?cid=0x0:0xb34348da6ccbc7c2";""
"hotel";"hotel";"N/A";"";"";"JAWA TIMUR";"";"Indonesia";"";"";"";"";"";"https://maps.google.com/?cid=0x0:0xb34348da6ccbc7c2%7C/g/11h88gt8f8%7Cen-ID";""
"hotel";"hotel";"Lotus EDHOTEL";"Jl. Gunung Arjuno No.17, Mimbaan Tengah, Mimbaan, Kec. Panji, Kabupaten Situbondo, Jawa Timur 68323";"Mimbaan Tengah, Mimbaan, Kec. Panji, Kabupaten Situbondo";"JAWA TIMUR";"68323";"Indonesia";" 0338677323";"";"";"-7.7043339";"114.0224754";"https://maps.google.com/?cid=0x0:0x6d184adf4b422a92";""
"hotel";"hotel";"Rosali Hotel";"Jl. Pb. Sudirman No.52, Karangasem, Patokan, Kec. Situbondo, Kabupaten Situbondo, Jawa Timur 68312";"Karangasem, Patokan, Kec. Situbondo, Kabupaten Situbondo";"JAWA TIMUR";"68312";"Indonesia";" 087851515500";"";"";"-7.709963";"113.992539";"https://maps.google.com/?cid=0x0:0xd2702a109db4d9c1";""
"hotel";"hotel";"N/A";"";"";"JAWA TIMUR";"";"Indonesia";"";"";"";"";"";"https://maps.google.com/?cid=0x0:0xd2702a109db4d9c1%7C/g/1hm2n2qjd%7Cen-ID";""
"hotel";"hotel";"OYO 93381 New Asembagus 3";"Traditional Market Situbondo, 1 Jl.Raya Asembagus, Krajan, Wringinanom, Asembagus Kabupaten Situbondo Jawaban Timur, Trigonco Timur, Trigonco, Asembagus, Situbondo Regency, East Java 68373";"1 Jl.Raya Asembagus, Krajan, Wringinanom, Asembagus Kabupaten Situbondo Jawaban Timur, Trigonco Timur, Trigonco, Asembagus, Situbondo Regency";"JAWA TIMUR";"68373";"Indonesia";" 02129707601";"";"/url?q>>u003dhttps://www.oyorooms.com/224175/>>u0026opi>>u003d79508299>>u0026sa>>u003dU>>u0026ved>>u003d0ahUKEwjbyait9tOLAxUmhGMGHZOkMOcQ61gIFigS>>u0026usg>>u003dAOvVaw3fylQo1p-0tZvsxSV6kN15";"-7.7525246";"114.2344342";"https://maps.google.com/?cid=0x0:0xbc34fe3950bd14e";""
"hotel";"hotel";"Arabica Homestay";"2522+88H, Jl. Kawah Ijen, Kalisari, Kalisat, Kec. Ijen, Kabupaten Bondowoso, Jawa Timur 68288";"Jl. Kawah Ijen, Kalisari, Kalisat, Kec. Ijen, Kabupaten Bondowoso";"JAWA TIMUR";"68288";"Indonesia";" 085259595955";"";"";"-7.9991815";"114.1508497";"https://maps.google.com/?cid=0x0:0x2fcfff67fde31f29";""
"hotel";"hotel";"OYO 93384 New Asembagus 2";"traditional Market Situbondo, 1 Jl.Raya Asembagus, Krajan, Wringinanom, Asembagus, Kabupaten, Jawaban Timur, Trigonco Timur, Trigonco, Asembagus, Situbondo Regency, East Java 68373";"1 Jl.Raya Asembagus, Krajan, Wringinanom, Asembagus, Kabupaten, Jawaban Timur, Trigonco Timur, Trigonco, Asembagus, Situbondo Regency";"JAWA TIMUR";"68373";"Indonesia";" 02129707601";"";"/url?q>>u003dhttps://www.oyorooms.com/224182/>>u0026opi>>u003d79508299>>u0026sa>>u003dU>>u0026ved>>u003d0ahUKEwih4c2t9tOLAxUWcGwGHWsjPH4Q61gIFigS>>u0026usg>>u003dAOvVaw0xv5Gb9dWaAc6HxFO5D9yt";"-7.7508214";"114.2343738";"https://maps.google.com/?cid=0x0:0xf820be384a69f2a2";""
"hotel";"hotel";"Hotel asembagus";"66XM+GVJ, Jl. Raya Asembagus, Krajan, Wringinanom, Asembagus, Kabupaten Situbondo Jawaban Timur, Trigonco Timur, Trigonco, Kec. Asembagus, Kabupaten Situbondo, Jawa Timur 68373";"Jl. Raya Asembagus, Krajan, Wringinanom, Asembagus, Kabupaten Situbondo Jawaban Timur, Trigonco Timur, Trigonco, Kec. Asembagus, Kabupaten Situbondo";"JAWA TIMUR";"68373";"Indonesia";"";"";"";"-7.7511727";"114.2346446";"https://maps.google.com/?cid=0x0:0x57db25b6d10afc64";""
"hotel";"hotel";"Resort Wiraraja";"Ragang, Tlanakan, Kec. Tlanakan, Kabupaten Pamekasan, Jawa Timur 69371";"Tlanakan, Kec. Tlanakan, Kabupaten Pamekasan";"JAWA TIMUR";"69371";"Indonesia";" 083850225000";"";"";"-7.2204869";"113.444807";"https://maps.google.com/?cid=0x0:0x28dd291079786339";""
"hotel";"hotel";"Motel Ramayana";"Jl. Sepudi No.11A, Mimbaan Barat, Mimbaan, Kec. Panji, Kabupaten Situbondo, Jawa Timur 68323";"Mimbaan Barat, Mimbaan, Kec. Panji, Kabupaten Situbondo";"JAWA TIMUR";"68323";"Indonesia";" 0338671921";"";"/url?q>>u003dhttp://www.ramayana.co.id/>>u0026opi>>u003d79508299>>u0026sa>>u003dU>>u0026ved>>u003d0ahUKEwjmqrCu9tOLAxVq3TgGHd8lJhIQ61gIFigS>>u0026usg>>u003dAOvVaw1zrFxfqLJs10N35z6qN5Q1";"-7.7061109";"114.0120436";"https://maps.google.com/?cid=0x0:0x6d55a1cad4891c0b";""
"hotel";"hotel";"VILLA GRIYA TRESNA SITUBONDO  HOME STAY SITUBONDO";"PENGINAPAN GRIYA TRESNA, Paerayaan Selatan, Sumber Kolak, Panarukan, Situbondo Regency, East Java 68351";"Paerayaan Selatan, Sumber Kolak, Panarukan, Situbondo Regency";"JAWA TIMUR";"68351";"Indonesia";" 085335110557";"";"/url?q>>u003dhttp://www.situbondo.info/penginapan>>u0026opi>>u003d79508299>>u0026sa>>u003dU>>u0026ved>>u003d0ahUKEwjBiPOu9tOLAxU1ZWwGHYwZGIMQ61gIFigS>>u0026usg>>u003dAOvVaw2npZBxbWZaPou8u_OWKmjs";"-7.7202996";"113.9948053";"https://maps.google.com/?cid=0x0:0x6be2aa8e0896d729";""
"hotel";"hotel";"Hotel Saragi";"Jl. Raya Pantura No.2, Krajan, Kebonagung, Kec. Kraksaan, Kabupaten Probolinggo, Jawa Timur 67282";"Krajan, Kebonagung, Kec. Kraksaan, Kabupaten Probolinggo";"JAWA TIMUR";"67282";"Indonesia";" 0335843020";"";"";"-7.7500094";"113.4474413";"https://maps.google.com/?cid=0x0:0xafda3a5b6396f06f";""
"hotel";"hotel";"Hotel Bintang";"Jl. Raya Banyuglugur, Bungor, Banyuglugur, Kec. Banyuglugur, Kabupaten Situbondo, Jawa Timur 68359";"Bungor, Banyuglugur, Kec. Banyuglugur, Kabupaten Situbondo";"JAWA TIMUR";"68359";"Indonesia";" 085236523636";"";"";"-7.725127";"113.618558";"https://maps.google.com/?cid=0x0:0x67796717b2784660";""
"hotel";"hotel";"Marisa Hotel  Cafe";"Jalan Raya No.Km. 146, Bungor, Banyuglugur, Kec. Banyuglugur, Kabupaten Situbondo, Jawa Timur";"Kabupaten Situbondo, Jawa Timur";"JAWA TIMUR";"";"Indonesia";" 0338892082";"";"";"-7.7250428";"113.6104266";"https://maps.google.com/?cid=0x0:0x7b7dcc5216e7f2d";""
"hotel";"hotel";"Hotel Panarukan";"Kompa, Wringinanom, Kec. Panarukan, Kabupaten Situbondo, Jawa Timur 68351";"Wringinanom, Kec. Panarukan, Kabupaten Situbondo";"JAWA TIMUR";"68351";"Indonesia";" 02129707601";"";"/url?q>>u003dhttps://www.oyorooms.com/ID/hotels-in-Situbondo/%3Futm_source%3DGMB_ID_SO%26utm_medium%3DOrganic%26utm_campaign%3DID_UDC003%26locale%3Did>>u0026opi>>u003d79508299>>u0026sa>>u003dU>>u0026ved>>u003d0ahUKEwjQo92v9tOLAxWh8TgGHbfGA1gQ61gIFigS>>u0026usg>>u003dAOvVaw1RbQpPZTdVg9yNXnDtrFMN";"-7.6999057";"113.9498783";"https://maps.google.com/?cid=0x0:0x516d2b408563040d";""
"hotel";"hotel";"Jawa Timur 68371";"Kec. Arjasa, Kabupaten Situbondo, Jawa Timur";"Kabupaten Situbondo, Jawa Timur";"JAWA TIMUR";"";"Indonesia";"";"";"";"-7.862886";"114.1320446";"https://maps.google.com/?cid=0x0:0x1c00c5eb5b542de0";""
"hotel";"hotel";"Rumah Kos Arafah";"Jl. Raya Surabaya-Situbondo, Dusun Krajan, Bhinor, Kec. Paiton, Kabupaten Probolinggo, Jawa Timur 67291";"Dusun Krajan, Bhinor, Kec. Paiton, Kabupaten Probolinggo";"JAWA TIMUR";"67291";"Indonesia";" 02129707601";"";"/url?q>>u003dhttps://www.oyorooms.com/ID/214303/%3Futm_source%3DGMB_ID%26utm_medium%3DOrganic%26utm_campaign%3DID_PLO041%26latitude%3D-7.7183092746831505%26longitude%3D113.55385484173894%26locale%3Did>>u0026opi>>u003d79508299>>u0026sa>>u003dU>>u0026ved>>u003d0ahUKEwjfl7iw9tOLAxXHwzgGHaF_BBAQ61gIFigS>>u0026usg>>u003dAOvVaw0J3-S_OC0q_WSIc_Tlzeg1";"-7.7183009";"113.5538612";"https://maps.google.com/?cid=0x0:0x4d6331352190cfab";""
"hotel";"hotel";"Hotel Alliya";"Jl. Mayjend Sutoyo No.115, Patokan, Kec. Kraksaan, Kabupaten Probolinggo, Jawa Timur 67282";"Patokan, Kec. Kraksaan, Kabupaten Probolinggo";"JAWA TIMUR";"67282";"Indonesia";" 082331574904";"";"/url?q>>u003dhttp://wa.me/6282331574904>>u0026opi>>u003d79508299>>u0026sa>>u003dU>>u0026ved>>u003d0ahUKEwjPk8Gw9tOLAxVazDgGHfFKPSkQ61gIFigS>>u0026usg>>u003dAOvVaw024V5zHsjNnZQ3UdkzGuLC";"-7.759359";"113.418849";"https://maps.google.com/?cid=0x0:0x411badeff73a2c85";""
"hotel";"hotel";"Penginapan 88";"Jl. Anggrek Bulan No.88, Parse, Dawuhan, Kec. Situbondo, Kabupaten Situbondo, Jawa Timur 68312";"Parse, Dawuhan, Kec. Situbondo, Kabupaten Situbondo";"JAWA TIMUR";"68312";"Indonesia";" 081138807333";"";"";"-7.697214";"113.9999258";"https://maps.google.com/?cid=0x0:0xbf7cc2e78a0d2b4";""
"hotel";"hotel";"N/A";"";"";"JAWA TIMUR";"";"Indonesia";"";"";"";"";"";"https://maps.google.com/?cid=0x0:0xe398dfdc5cc12c27%7C/g/1pzqtfg6p%7Cen-ID";""
"hotel";"hotel";"Hotel Mogasari";"Jl. Seroja No.51, Parse, Dawuhan, Kec. Situbondo, Kabupaten Situbondo, Jawa Timur 68311";"Parse, Dawuhan, Kec. Situbondo, Kabupaten Situbondo";"JAWA TIMUR";"68311";"Indonesia";" 02129707601";"";"/url?q>>u003dhttps://www.oyorooms.com/ID/90618/%3Futm_source%3DGMB_ID%26utm_medium%3DOrganic%26utm_campaign%3DID_UDC002%26latitude%3D-7.7062249184003%26longitude%3D114.001872763038%26locale%3Did>>u0026opi>>u003d79508299>>u0026sa>>u003dU>>u0026ved>>u003d0ahUKEwiF_Jyx9tOLAxVsRmcHHWhRNncQ61gIFigS>>u0026usg>>u003dAOvVaw0J7Rx6afnbPd8BA9LZ0D6A";"-7.7059531";"114.0018785";"https://maps.google.com/?cid=0x0:0xe398dfdc5cc12c27";""
"hotel";"hotel";"OYO 90065 Homestay Barokah Park";"Jl. Raya Banyuwangi, Krajan Timur, Trigonco, Kec. Asembagus, Kabupaten Situbondo, Jawa Timur 68373";"Krajan Timur, Trigonco, Kec. Asembagus, Kabupaten Situbondo";"JAWA TIMUR";"68373";"Indonesia";" 02129707601";"";"/url?q>>u003dhttps://www.oyorooms.com/ID/hotels-in-Situbondo/%3Futm_source%3DGMB_ID_SO%26utm_medium%3DOrganic%26utm_campaign%3DID_UDC004%26locale%3Did>>u0026opi>>u003d79508299>>u0026sa>>u003dU>>u0026ved>>u003d0ahUKEwiUvsGx9tOLAxVLSWwGHRE7FCsQ61gIFigS>>u0026usg>>u003dAOvVaw2kDqZwYkVlkT9EO2mh7YPC";"-7.7511582";"114.2347421";"https://maps.google.com/?cid=0x0:0x490c905a860e910b";""
"hotel";"Hotel";"Hotel Jundi Aidil (Kangean)";"Lambang Daya, Kalikatak, Arjasa, Kabupaten Sumenep, Jawa Timur 69491";"Kalikatak, Arjasa, Kabupaten Sumenep";"JAWA TIMUR";"69491";"Indonesia";" 087850111353";"";"";"-6.8512918";"115.2869296";"https://maps.google.com/?cid=0x0:0x42bc07c056d63190";""
"hotel";"Penginapan";"Herlinda Homestay";"Dsn. Nyangkreng, Arjasa, Kabupaten Sumenep, Jawa Timur 69491";"Arjasa, Kabupaten Sumenep";"JAWA TIMUR";"69491";"Indonesia";" 082234881432";"";"";"-6.8579375";"115.2900625";"https://maps.google.com/?cid=0x0:0x550516c7f7cce77";""
"hotel";"Hotel";"Hotel Jundi Aidil 2 (kangean)";"47PP+F55, Area Hutan, Arjasa, Kabupaten Sumenep, Jawa Timur 69491";"Area Hutan, Arjasa, Kabupaten Sumenep";"JAWA TIMUR";"69491";"Indonesia";" 082177474439";"";"";"-6.863681";"115.2862868";"https://maps.google.com/?cid=0x0:0xa3e4650db0ac8b23";""
"hotel";"Hotel";"Dolar rupiah";"47RM+24Q, Gg. I, Area Hutan, Arjasa, Kabupaten Sumenep, Jawa Timur 69491";"Gg. I, Area Hutan, Arjasa, Kabupaten Sumenep";"JAWA TIMUR";"69491";"Indonesia";"";"";"";"-6.8599049";"115.2828499";"https://maps.google.com/?cid=0x0:0x9d42aa470c512f09";""
"hotel";"Hotel";"Hotel Jami'i";"47WV+X7P, Angon Angon, Angon-angon, Arjasa, Kabupaten Sumenep, Jawa Timur 69491";"Angon Angon, Angon-angon, Arjasa, Kabupaten Sumenep";"JAWA TIMUR";"69491";"Indonesia";"";"";"";"-6.8525263";"115.2932029";"https://maps.google.com/?cid=0x0:0x78c6a11648168c49";""
"hotel";"hotel";"Arjasa";"Kabupaten Sumenep, Jawa Timur";"Kabupaten Sumenep, Jawa Timur";"JAWA TIMUR";"";"Indonesia";"";"";"";"-6.9079872";"115.3074646";"https://maps.google.com/?cid=0x0:0xdf1da35369993d40";""
"hotel";"hotel";"OYO 93381 New Asembagus 3";"Traditional Market Situbondo, 1 Jl.Raya Asembagus, Krajan, Wringinanom, Asembagus Kabupaten Situbondo Jawaban Timur, Trigonco Timur, Trigonco, Asembagus, Situbondo Regency, East Java 68373";"1 Jl.Raya Asembagus, Krajan, Wringinanom, Asembagus Kabupaten Situbondo Jawaban Timur, Trigonco Timur, Trigonco, Asembagus, Situbondo Regency";"JAWA TIMUR";"68373";"Indonesia";" 02129707601";"";"";"-7.7525246";"114.2344342";"https://maps.google.com/?cid=0x0:0xbc34fe3950bd14e";""
"hotel";"hotel";"Hotel asembagus";"66XM+GVJ, Jl. Raya Asembagus, Krajan, Wringinanom, Asembagus, Kabupaten Situbondo Jawaban Timur, Trigonco Timur, Trigonco, Kec. Asembagus, Kabupaten Situbondo, Jawa Timur 68373";"Jl. Raya Asembagus, Krajan, Wringinanom, Asembagus, Kabupaten Situbondo Jawaban Timur, Trigonco Timur, Trigonco, Kec. Asembagus, Kabupaten Situbondo";"JAWA TIMUR";"68373";"Indonesia";"";"";"";"-7.7511727";"114.2346446";"https://maps.google.com/?cid=0x0:0x57db25b6d10afc64";""
"hotel";"hotel";"Hotel Baru";"Jl. Basuki Rahmat No.219, Mimbaan Utara, Mimbaan, Kec. Situbondo, Kabupaten Situbondo, Jawa Timur 68322";"Mimbaan Utara, Mimbaan, Kec. Situbondo, Kabupaten Situbondo";"JAWA TIMUR";"68322";"Indonesia";" 0338672190";"";"";"-7.7038154";"114.0111797";"https://maps.google.com/?cid=0x0:0xb8d75a8d9e8ca153";""
"hotel";"hotel";"New Catimore Heritage 1894 Blawan";"2569+GWX, Plalangan II, Kalianyar, Kec. Ijen, Kabupaten Bondowoso, Jawa Timur 68288";"Plalangan II, Kalianyar, Kec. Ijen, Kabupaten Bondowoso";"JAWA TIMUR";"68288";"Indonesia";" 085186808661";"";"";"-7.9886375";"114.1698594";"https://maps.google.com/?cid=0x0:0x3a75f7887fa85cb";""
"hotel";"hotel";"SPOT ON 1958 Asembagus Family";"Jl. Raya Asembagus, Krajan, Wringinanom, Kec. Asembagus, Kabupaten Situbondo, Jawa Timur 68373";"Krajan, Wringinanom, Kec. Asembagus, Kabupaten Situbondo";"JAWA TIMUR";"68373";"Indonesia";" 02129707601";"";"/url?q>>u003dhttps://www.oyorooms.com/ID/86272/%3Futm_source%3DGMB_ID%26utm_medium%3DOrganic%26utm_campaign%3DID_UDC001%26latitude%3D-7.75113483695156%26longitude%3D114.234388433397%26locale%3Did>>u0026opi>>u003d79508299>>u0026sa>>u003dU>>u0026ved>>u003d0ahUKEwjQx6vT9tOLAxVSxzgGHYjQI6UQ61gIFigS>>u0026usg>>u003dAOvVaw3cBFcTPzefObbszXliA0zp";"-7.75113";"114.2343872";"https://maps.google.com/?cid=0x0:0xb34348da6ccbc7c2";""
"hotel";"hotel";"N/A";"";"";"JAWA TIMUR";"";"Indonesia";"";"";"";"";"";"https://maps.google.com/?cid=0x0:0xb34348da6ccbc7c2%7C/g/11h88gt8f8%7Cen-ID";""
"hotel";"hotel";"OYO 93384 New Asembagus 2";"traditional Market Situbondo, 1 Jl.Raya Asembagus, Krajan, Wringinanom, Asembagus, Kabupaten, Jawaban Timur, Trigonco Timur, Trigonco, Asembagus, Situbondo Regency, East Java 68373";"1 Jl.Raya Asembagus, Krajan, Wringinanom, Asembagus, Kabupaten, Jawaban Timur, Trigonco Timur, Trigonco, Asembagus, Situbondo Regency";"JAWA TIMUR";"68373";"Indonesia";" 02129707601";"";"/url?q>>u003dhttps://www.oyorooms.com/224182/>>u0026opi>>u003d79508299>>u0026sa>>u003dU>>u0026ved>>u003d0ahUKEwj7vIDU9tOLAxUIXWwGHTqrF3oQ61gIFigS>>u0026usg>>u003dAOvVaw2DcMnjkCtYzd-xJ2WXGxD9";"-7.7508214";"114.2343738";"https://maps.google.com/?cid=0x0:0xf820be384a69f2a2";""
"hotel";"hotel";"Hotel asembagus";"66XM+GVJ, Jl. Raya Asembagus, Krajan, Wringinanom, Asembagus, Kabupaten Situbondo Jawaban Timur, Trigonco Timur, Trigonco, Kec. Asembagus, Kabupaten Situbondo, Jawa Timur 68373";"Jl. Raya Asembagus, Krajan, Wringinanom, Asembagus, Kabupaten Situbondo Jawaban Timur, Trigonco Timur, Trigonco, Kec. Asembagus, Kabupaten Situbondo";"JAWA TIMUR";"68373";"Indonesia";"";"";"";"-7.7511727";"114.2346446";"https://maps.google.com/?cid=0x0:0x57db25b6d10afc64";""
"hotel";"hotel";"OYO 90065 Homestay Barokah Park";"Jl. Raya Banyuwangi, Krajan Timur, Trigonco, Kec. Asembagus, Kabupaten Situbondo, Jawa Timur 68373";"Krajan Timur, Trigonco, Kec. Asembagus, Kabupaten Situbondo";"JAWA TIMUR";"68373";"Indonesia";" 02129707601";"";"/url?q>>u003dhttps://www.oyorooms.com/ID/hotels-in-Situbondo/%3Futm_source%3DGMB_ID_SO%26utm_medium%3DOrganic%26utm_campaign%3DID_UDC004%26locale%3Did>>u0026opi>>u003d79508299>>u0026sa>>u003dU>>u0026ved>>u003d0ahUKEwjnraDU9tOLAxVOzjgGHYwNFGIQ61gIFigS>>u0026usg>>u003dAOvVaw04qzB4kZadQJ5GehJ2LQxo";"-7.7511582";"114.2347421";"https://maps.google.com/?cid=0x0:0x490c905a860e910b";""
"hotel";"hotel";"Rosa’s Ecolodge";"Sidomulyo, Sumberwaru, Kec. Banyuputih, Kabupaten Situbondo, Jawa Timur 68374";"Sumberwaru, Kec. Banyuputih, Kabupaten Situbondo";"JAWA TIMUR";"68374";"Indonesia";" 082111127902";"";"";"-7.7758125";"114.3113125";"https://maps.google.com/?cid=0x0:0x1993fbd80b42d456";""
"hotel";"hotel";"Arabica Homestay";"2522+88H, Jl. Kawah Ijen, Kalisari, Kalisat, Kec. Ijen, Kabupaten Bondowoso, Jawa Timur 68288";"Jl. Kawah Ijen, Kalisari, Kalisat, Kec. Ijen, Kabupaten Bondowoso";"JAWA TIMUR";"68288";"Indonesia";" 085259595955";"";"";"-7.9991815";"114.1508497";"https://maps.google.com/?cid=0x0:0x2fcfff67fde31f29";""
"hotel";"hotel";"Hotel Bintang";"Jl. Raya Banyuglugur, Bungor, Banyuglugur, Kec. Banyuglugur, Kabupaten Situbondo, Jawa Timur 68359";"Bungor, Banyuglugur, Kec. Banyuglugur, Kabupaten Situbondo";"JAWA TIMUR";"68359";"Indonesia";" 085236523636";"";"";"-7.725127";"113.618558";"https://maps.google.com/?cid=0x0:0x67796717b2784660";""
"hotel";"hotel";"Hotel Panarukan";"Kompa, Wringinanom, Kec. Panarukan, Kabupaten Situbondo, Jawa Timur 68351";"Wringinanom, Kec. Panarukan, Kabupaten Situbondo";"JAWA TIMUR";"68351";"Indonesia";" 02129707601";"";"/url?q>>u003dhttps://www.oyorooms.com/ID/hotels-in-Situbondo/%3Futm_source%3DGMB_ID_SO%26utm_medium%3DOrganic%26utm_campaign%3DID_UDC003%26locale%3Did>>u0026opi>>u003d79508299>>u0026sa>>u003dU>>u0026ved>>u003d0ahUKEwiDicTV9tOLAxXZTmwGHd24IIIQ61gIFigS>>u0026usg>>u003dAOvVaw0NQNVbp0Kb0F8nhPGeh37B";"-7.6999057";"113.9498783";"https://maps.google.com/?cid=0x0:0x516d2b408563040d";""
"hotel";"hotel";"N/A";"";"";"JAWA TIMUR";"";"Indonesia";"";"";"";"";"";"https://maps.google.com/?cid=0x0:0xe398dfdc5cc12c27%7C/g/1pzqtfg6p%7Cen-ID";""
"hotel";"hotel";"RETA GUEST HOUSE";"39HR+44H, Jl. Pandean, Randu Agung, Wonorejo, Kec. Banyuputih, Kabupaten Situbondo, Jawa Timur 68374";"Jl. Pandean, Randu Agung, Wonorejo, Kec. Banyuputih, Kabupaten Situbondo";"JAWA TIMUR";"68374";"Indonesia";" 085975044542";"";"";"-7.9222225";"114.3898594";"https://maps.google.com/?cid=0x0:0x6266df7468b5977";""
"hotel";"hotel";"Hotel Baru";"Jl. Basuki Rahmat No.219, Mimbaan Utara, Mimbaan, Kec. Situbondo, Kabupaten Situbondo, Jawa Timur 68322";"Mimbaan Utara, Mimbaan, Kec. Situbondo, Kabupaten Situbondo";"JAWA TIMUR";"68322";"Indonesia";" 0338672190";"";"";"-7.7038154";"114.0111797";"https://maps.google.com/?cid=0x0:0xb8d75a8d9e8ca153";""
"hotel";"hotel";"Hotel Mogasari";"Jl. Seroja No.51, Parse, Dawuhan, Kec. Situbondo, Kabupaten Situbondo, Jawa Timur 68311";"Parse, Dawuhan, Kec. Situbondo, Kabupaten Situbondo";"JAWA TIMUR";"68311";"Indonesia";" 02129707601";"";"";"-7.7059531";"114.0018785";"https://maps.google.com/?cid=0x0:0xe398dfdc5cc12c27";""
"hotel";"hotel";"Penginapan 88";"Jl. Anggrek Bulan No.88, Parse, Dawuhan, Kec. Situbondo, Kabupaten Situbondo, Jawa Timur 68312";"Parse, Dawuhan, Kec. Situbondo, Kabupaten Situbondo";"JAWA TIMUR";"68312";"Indonesia";" 081138807333";"";"";"-7.697214";"113.9999258";"https://maps.google.com/?cid=0x0:0xbf7cc2e78a0d2b4";""
"hotel";"hotel";"BANG ARYO HOMESTAY";"7X62+V3V, Jalan Raya, Blangguran, Bugeman, Kendit, Situbondo Regency, East Java 68352";"Jalan Raya, Blangguran, Bugeman, Kendit, Situbondo Regency";"JAWA TIMUR";"68352";"Indonesia";" 085234629770";"";"";"-7.7377561";"113.9501789";"https://maps.google.com/?cid=0x0:0x94e05a090ca6b06";""
"hotel";"hotel";"Near Resort Baluran";"3CJ4+246, Pandean, Wonorejo, Kec. Banyuputih, Kabupaten Situbondo, Jawa Timur 68374";"Pandean, Wonorejo, Kec. Banyuputih, Kabupaten Situbondo";"JAWA TIMUR";"68374";"Indonesia";"";"";"";"-7.91996";"114.4052569";"https://maps.google.com/?cid=0x0:0x2e19b37fbccbbade";""
"hotel";"hotel";"Jawa Timur 68373";"Kec. Asembagus, Kabupaten Situbondo, Jawa Timur";"Kabupaten Situbondo, Jawa Timur";"JAWA TIMUR";"";"Indonesia";"";"";"";"-7.8880228";"114.2152731";"https://maps.google.com/?cid=0x0:0x1c00c5eb5b542e00";""
"hotel";"hotel";"Jeru Homestay";"Curahjeru Timur, Curah Jeru, Kec. Panji, Kabupaten Situbondo, Jawa Timur 68323";"Curah Jeru, Kec. Panji, Kabupaten Situbondo";"JAWA TIMUR";"68323";"Indonesia";" 082131184264";"";"";"-7.6927504";"114.0265011";"https://maps.google.com/?cid=0x0:0x9898ac3e7b225e7b";""
"hotel";"hotel";"Hotel Karisma Situbondo";"Jl. Banyuwangi No.KM.3,7, Karang Malang, Kesambi Rampak, Kec. Kapongan, Kabupaten Situbondo, Jawa Timur 68362";"Karang Malang, Kesambi Rampak, Kec. Kapongan, Kabupaten Situbondo";"JAWA TIMUR";"68362";"Indonesia";" 085104550111";"";"";"-7.6929658";"114.046744";"https://maps.google.com/?cid=0x0:0x40b4ec02aba39cf2";""
"hotel";"hotel";"Rosali Hotel";"Jl. Pb. Sudirman No.52, Karangasem, Patokan, Kec. Situbondo, Kabupaten Situbondo, Jawa Timur 68312";"Karangasem, Patokan, Kec. Situbondo, Kabupaten Situbondo";"JAWA TIMUR";"68312";"Indonesia";" 087851515500";"";"";"-7.709963";"113.992539";"https://maps.google.com/?cid=0x0:0xd2702a109db4d9c1";""
"hotel";"hotel";"Lotus EDHOTEL";"Jl. Gunung Arjuno No.17, Mimbaan Tengah, Mimbaan, Kec. Panji, Kabupaten Situbondo, Jawa Timur 68323";"Mimbaan Tengah, Mimbaan, Kec. Panji, Kabupaten Situbondo";"JAWA TIMUR";"68323";"Indonesia";" 0338677323";"";"";"-7.7043339";"114.0224754";"https://maps.google.com/?cid=0x0:0x6d184adf4b422a92";""
"hotel";"hotel";"N/A";"";"";"JAWA TIMUR";"";"Indonesia";"";"";"";"";"";"https://maps.google.com/?cid=0x0:0xd2702a109db4d9c1%7C/g/1hm2n2qjd%7Cen-ID";""
"hotel";"hotel";"Motel Ramayana";"Jl. Sepudi No.11A, Mimbaan Barat, Mimbaan, Kec. Panji, Kabupaten Situbondo, Jawa Timur 68323";"Mimbaan Barat, Mimbaan, Kec. Panji, Kabupaten Situbondo";"JAWA TIMUR";"68323";"Indonesia";" 0338671921";"";"/url?q>>u003dhttp://www.ramayana.co.id/>>u0026opi>>u003d79508299>>u0026sa>>u003dU>>u0026ved>>u003d0ahUKEwiF87rZ9tOLAxVJxzgGHVj8NKYQ61gIFigS>>u0026usg>>u003dAOvVaw0qZYPFDGOx2s37k9xM6gaD";"-7.7061109";"114.0120436";"https://maps.google.com/?cid=0x0:0x6d55a1cad4891c0b";""
"hotel";"hotel";"Kost H.SOEROSO Situbondo";"Jl. Anggrek No.39, Krajan Patokan, Patokan, Kec. Situbondo, Kabupaten Situbondo, Jawa Timur 68312";"Krajan Patokan, Patokan, Kec. Situbondo, Kabupaten Situbondo";"JAWA TIMUR";"68312";"Indonesia";" 085221106752";"";"";"-7.6964544";"113.9938027";"https://maps.google.com/?cid=0x0:0x88bfbdf1f8606413";""
"hotel";"hotel";"HOTEL NIRWANA RESTO  KARAOKE";"jl.raya No.145, Bungor, Banyuglugur, Situbondo Regency, East Java 68359";"Bungor, Banyuglugur, Situbondo Regency";"JAWA TIMUR";"68359";"Indonesia";" 0895417300072";"";"";"-7.7235171";"113.6069671";"https://maps.google.com/?cid=0x0:0x6056226ed2ef2bcb";""
"hotel";"hotel";"CERAH HOTEL";"Jl. Raya Paiton No.km 137, Dusun Krajan, Sumberanyar, Kec. Paiton, Kabupaten Probolinggo, Jawa Timur 67291";"Dusun Krajan, Sumberanyar, Kec. Paiton, Kabupaten Probolinggo";"JAWA TIMUR";"67291";"Indonesia";" 0335773777";"";"";"-7.7179735";"113.5305014";"https://maps.google.com/?cid=0x0:0x3870c94ca203203c";""
"hotel";"hotel";"Wisata Paiton Cottage";"Jl. Raya Paiton No.Km. 137, Dusun Matikan, Sumberejo, Kec. Paiton, Kabupaten Probolinggo, Jawa Timur 67291";"Dusun Matikan, Sumberejo, Kec. Paiton, Kabupaten Probolinggo";"JAWA TIMUR";"67291";"Indonesia";" 081515008130";"";"/url?q>>u003dhttp://www.wisatapaiton.net/>>u0026opi>>u003d79508299>>u0026sa>>u003dU>>u0026ved>>u003d0ahUKEwjf8Zjr9tOLAxVJTGwGHfY1HtQQ61gIFigS>>u0026usg>>u003dAOvVaw3C1q5OvwbeQq2ev8uR0oee";"-7.7184359";"113.5372918";"https://maps.google.com/?cid=0x0:0x856417a7becac944";""
"hotel";"hotel";"DreamLand Hotel  Lounge Bondowoso";"Jl. Kis Mangunsarkoro No.999, Lumbung, Tamansari, Kec. Bondowoso, Kabupaten Bondowoso, Jawa Timur 68216";"Lumbung, Tamansari, Kec. Bondowoso, Kabupaten Bondowoso";"JAWA TIMUR";"68216";"Indonesia";" 081357122277";"";"";"-7.9276162";"113.8258669";"https://maps.google.com/?cid=0x0:0x62a1a190bb54401d";""
"hotel";"hotel";"N/A";"";"";"JAWA TIMUR";"";"Indonesia";"";"";"";"";"";"https://maps.google.com/?cid=0x0:0x20cd6bae89036b0b%7C/g/1hm5hnq8b%7Cen-ID";""
"hotel";"hotel";"PAITON RESORT HOTEL 1";"Jl. Raya Surabaya-Situbondo No.KM. 140, Area Sawah, Bhinor, Kec. Paiton, Kabupaten Probolinggo, Jawa Timur 67291";"Area Sawah, Bhinor, Kec. Paiton, Kabupaten Probolinggo";"JAWA TIMUR";"67291";"Indonesia";"";"";"/url?q>>u003dhttp://paitonresorthotel.blogspot.com/>>u0026opi>>u003d79508299>>u0026sa>>u003dU>>u0026ved>>u003d0ahUKEwj1yPnr9tOLAxW02DgGHVFjNVoQ61gIEigO>>u0026usg>>u003dAOvVaw0rYp7c7Q9H5acm1Y_vCz7u";"-7.7126267";"113.5737869";"https://maps.google.com/?cid=0x0:0x20cd6bae89036b0b";""
"hotel";"hotel";"Hotel Bintang";"Jl. Raya Banyuglugur, Bungor, Banyuglugur, Kec. Banyuglugur, Kabupaten Situbondo, Jawa Timur 68359";"Bungor, Banyuglugur, Kec. Banyuglugur, Kabupaten Situbondo";"JAWA TIMUR";"68359";"Indonesia";" 085236523636";"";"";"-7.725127";"113.618558";"https://maps.google.com/?cid=0x0:0x67796717b2784660";""
"hotel";"hotel";"Grand Padis Hotel";"Jl. Ahmad Yani No.28, Potos, Badean, Kec. Bondowoso, Kabupaten Bondowoso, Jawa Timur 68214";"Potos, Badean, Kec. Bondowoso, Kabupaten Bondowoso";"JAWA TIMUR";"68214";"Indonesia";" 082132902277";"";"/url?q>>u003dhttp://grandpadishotel.com/>>u0026opi>>u003d79508299>>u0026sa>>u003dU>>u0026ved>>u003d0ahUKEwi6z9bs9tOLAxUpxTgGHVCAMiEQ61gIFigS>>u0026usg>>u003dAOvVaw22c0uvJyIk1uSL8reZir4t";"-7.9160205";"113.8198869";"https://maps.google.com/?cid=0x0:0x96e3933dec68cde5";""
"hotel";"hotel";"N/A";"";"";"JAWA TIMUR";"";"Indonesia";"";"";"";"";"";"https://maps.google.com/?cid=0x0:0x96e3933dec68cde5%7C/g/11fhr0l28l%7Cen-ID";""
"hotel";"hotel";"Petani Hill Hotel";"Jl. Raya Kalianget, Bungor, Banyuglugur, Kec. Banyuglugur, Kabupaten Situbondo, Jawa Timur 68359";"Bungor, Banyuglugur, Kec. Banyuglugur, Kabupaten Situbondo";"JAWA TIMUR";"68359";"Indonesia";" 0338891303";"";"";"-7.7255985";"113.6115271";"https://maps.google.com/?cid=0x0:0x5655da6a0f96a67b";""
"hotel";"hotel";"Riverside Homestay";"Krajan, Koncer Kidul, Kec. Bondowoso, Kabupaten Bondowoso, Jawa Timur";"Kabupaten Bondowoso, Jawa Timur";"JAWA TIMUR";"";"Indonesia";" 081323200042";"";"/url?q>>u003dhttps://linktr.ee/Riverside.homestay>>u0026opi>>u003d79508299>>u0026sa>>u003dU>>u0026ved>>u003d0ahUKEwjOprzt9tOLAxXiyzgGHddIF-4Q61gIFigS>>u0026usg>>u003dAOvVaw19uR7fz8lJ4ZSo300lwoi4";"-7.9318705";"113.8245337";"https://maps.google.com/?cid=0x0:0xbe1098ec4fcf3d2e";""
"hotel";"hotel";"Baratha Hotel  Resto";"Jl. Saliwiryo Pranowo Gg. Taman No.11, Pattian, Kotakulon, Kec. Bondowoso, Kabupaten Bondowoso, Jawa Timur 68213";"Pattian, Kotakulon, Kec. Bondowoso, Kabupaten Bondowoso";"JAWA TIMUR";"68213";"Indonesia";" 082228111778";"";"/url?q>>u003dhttp://www.barathahotel.com/>>u0026opi>>u003d79508299>>u0026sa>>u003dU>>u0026ved>>u003d0ahUKEwjMxsbt9tOLAxVWSGcHHVK3JHQQ61gIFigS>>u0026usg>>u003dAOvVaw0s5N_nGIsWPD7X8ATRj8YY";"-7.9093255";"113.8103867";"https://maps.google.com/?cid=0x0:0xdf0667af9e288f3e";""
"hotel";"hotel";"N/A";"";"";"JAWA TIMUR";"";"Indonesia";"";"";"";"";"";"https://maps.google.com/?cid=0x0:0xdf0667af9e288f3e%7C/g/11h5qnr287%7Cen-ID";""
"hotel";"hotel";"N/A";"";"";"JAWA TIMUR";"";"Indonesia";"";"";"";"";"";"https://maps.google.com/?cid=0x0:0x4b83cce47b0d7499%7C/g/11cfhpdv0%7Cen-ID";""
"hotel";"hotel";"Hotel Palm Bondowoso Kota";"Jl. Ahmad Yani No.32, Lumbung, Badean, Kec. Bondowoso, Kabupaten Bondowoso, Jawa Timur 68214";"Lumbung, Badean, Kec. Bondowoso, Kabupaten Bondowoso";"JAWA TIMUR";"68214";"Indonesia";" 0332421201";"";"/url?q>>u003dhttp://www.palm-hotel.net/>>u0026opi>>u003d79508299>>u0026sa>>u003dU>>u0026ved>>u003d0ahUKEwjasqXu9tOLAxV4SGwGHWKEJngQ61gIFigS>>u0026usg>>u003dAOvVaw0v4YYZyG8X5NXMRt8LhNbU";"-7.9169857";"113.8190816";"https://maps.google.com/?cid=0x0:0x4b83cce47b0d7499";""
"hotel";"hotel";"N/A";"";"";"JAWA TIMUR";"";"Indonesia";"";"";"";"";"";"https://maps.google.com/?cid=0x0:0x11adc39e7e6188f5%7C/g/1tczmskh%7Cen-ID";""
"hotel";"hotel";"The Pasir Putih Villas";"Karang Anyar RT. 007 RW. 004 Kembang Sambi Barat (Timur, Pasir Putih, Kec. Bungatan, Kabupaten Situbondo, Jawa Timur 68358";"Pasir Putih, Kec. Bungatan, Kabupaten Situbondo";"JAWA TIMUR";"68358";"Indonesia";" 081259039993";"";"";"-7.6879804";"113.8326363";"https://maps.google.com/?cid=0x0:0x82008ca39e5d6c2b";""
"hotel";"hotel";"Ijen View Hotel Resort  Restaurant";"Jl. Kis Mangunsarkoro No.888, Tegalelo, Tamansari, Kec. Bondowoso, Kabupaten Bondowoso, Jawa Timur 68216";"Tegalelo, Tamansari, Kec. Bondowoso, Kabupaten Bondowoso";"JAWA TIMUR";"68216";"Indonesia";" 0332431000";"";"/url?q>>u003dhttps://www.hotelijenview.com/>>u0026opi>>u003d79508299>>u0026sa>>u003dU>>u0026ved>>u003d0ahUKEwiGr8fu9tOLAxVBa2wGHWkVJnoQ61gIFigS>>u0026usg>>u003dAOvVaw0QK2tPBb_7vr3j6dV9jJfg";"-7.9288961";"113.8241424";"https://maps.google.com/?cid=0x0:0x11adc39e7e6188f5";""
"hotel";"hotel";"Marisa Hotel  Cafe";"Jalan Raya No.Km. 146, Bungor, Banyuglugur, Kec. Banyuglugur, Kabupaten Situbondo, Jawa Timur";"Kabupaten Situbondo, Jawa Timur";"JAWA TIMUR";"";"Indonesia";" 0338892082";"";"";"-7.7250428";"113.6104266";"https://maps.google.com/?cid=0x0:0x7b7dcc5216e7f2d";""
"hotel";"hotel";"Labuan Resort Pasir Putih Situbondo";"Karang Anyar, RT.007/RW.004, Kembang, Sambi Barat, Kabupaten Situbondo, Jawa Timur 68358";"RT.007/RW.004, Kembang, Sambi Barat, Kabupaten Situbondo";"JAWA TIMUR";"68358";"Indonesia";" 081252654443";"";"";"-7.687773";"113.8345392";"https://maps.google.com/?cid=0x0:0xba74576aa0be3118";""
"hotel";"hotel";"PAITON RESORT HOTEL 2";"Jl. Raya Surabaya-Situbondo No.Km.138, Dusun Pesisir, Bhinor, Kec. Paiton, Kabupaten Probolinggo, Jawa Timur 67291";"Dusun Pesisir, Bhinor, Kec. Paiton, Kabupaten Probolinggo";"JAWA TIMUR";"67291";"Indonesia";" 0335774500";"";"";"-7.714785";"113.5583007";"https://maps.google.com/?cid=0x0:0x3f3623656e5b7324";""
"hotel";"hotel";"N/A";"";"";"JAWA TIMUR";"";"Indonesia";"";"";"";"";"";"https://maps.google.com/?cid=0x0:0x3f3623656e5b7324%7C/g/1hm2qpqr7%7Cen-ID";""
"hotel";"hotel";"Salsabila Sweet Home And Capsule Syariah";"Jl. Khairil Anwar, Badean, Kec. Bondowoso, Kabupaten Bondowoso, Jawa Timur 68214";"Badean, Kec. Bondowoso, Kabupaten Bondowoso";"JAWA TIMUR";"68214";"Indonesia";" 03325556602";"";"";"-7.9178508";"113.8141724";"https://maps.google.com/?cid=0x0:0xfa2ff876a9c07eb";""
"hotel";"hotel";"Jack East Villa";"Jl. Raya Pasir Putih No.04, Gunungsari, Bungatan, Kec. Bungatan, Kabupaten Situbondo, Jawa Timur 68358";"Gunungsari, Bungatan, Kec. Bungatan, Kabupaten Situbondo";"JAWA TIMUR";"68358";"Indonesia";" 081230839555";"";"/url?q>>u003dhttps://www.booking.com/hotel/id/jack-east-villa.html%3Faid%3D318615%3Blabel%3DEnglish_Indonesia_EN_ID_28546570705-G6blYurG1wv5nxy_NQuKzQS108255839185:pl:ta:p1:p2:ac:ap:neg:fi70402273418:tiaud-294889294693:dsa-209721654025:lp1007715:li:dec:dm%3Bsid%3Df71219b46abba2205efdddae3bb476be%3Bdest_id%3D-2691524%3Bdest_type%3Dcity%3Bdist%3D0%3Bgroup_adults%3D2%3Bgroup_children%3D0%3Bhapos%3D1%3Bhpos%3D1%3Bno_rooms%3D1%3Broom1%3DA,A%3Bsb_price_type%3Dtotal%3Bsr_order%3Dpopularity%3Bsrepoch%3D1604591294%3Bsrpvid%3D67c46f1e4144015a%3Btype%3Dtotal%3Bucfs%3D1%26%23hotelTmpl>>u0026opi>>u003d79508299>>u0026sa>>u003dU>>u0026ved>>u003d0ahUKEwjD8t_w9tOLAxUo1jgGHZi9HbEQ61gIFigS>>u0026usg>>u003dAOvVaw1xsz_Xl9oIevsGqzGEnzdE";"-7.7222671";"113.8010768";"https://maps.google.com/?cid=0x0:0xa93cc0855e3b738b";""
"hotel";"hotel";"Villa De Voltaf";"Pasir putih RT 07 RW 04 , Bungatan, Pasir Putih, Situbondo, Kabupaten Situbondo, Jawa Timur 68358";"Bungatan, Pasir Putih, Situbondo, Kabupaten Situbondo";"JAWA TIMUR";"68358";"Indonesia";" 082337652027";"";"";"-7.6876689";"113.8341108";"https://maps.google.com/?cid=0x0:0xe69a03b2a164023a";""
"hotel";"hotel";"Jawa Timur 68359";"Kec. Banyuglugur, Kabupaten Situbondo, Jawa Timur";"Kabupaten Situbondo, Jawa Timur";"JAWA TIMUR";"";"Indonesia";"";"";"";"-7.7515716";"113.6323674";"https://maps.google.com/?cid=0x0:0x1c00c5eb5b542da0";""
"hotel";"hotel";"Hotel Bumi Bermi Permai";"Dusun Selatan, Bermi, Kec. Krucil, Kabupaten Probolinggo, Jawa Timur 67288";"Bermi, Kec. Krucil, Kabupaten Probolinggo";"JAWA TIMUR";"67288";"Indonesia";" 0895417300072";"";"";"-7.9622481";"113.490113";"https://maps.google.com/?cid=0x0:0xb232d52629cae261";""
"hotel";"hotel";"Penginapan Banyu Biruku kost";"Jl. Kotaanyar No.8, Dusun Sefar, Sumberanyar, Kec. Paiton, Kabupaten Probolinggo, Jawa Timur 67291";"Dusun Sefar, Sumberanyar, Kec. Paiton, Kabupaten Probolinggo";"JAWA TIMUR";"67291";"Indonesia";" 081916001982";"";"";"-7.7278729";"113.5253081";"https://maps.google.com/?cid=0x0:0xf67a392502d406b6";""
"hotel";"hotel";"Rumah Kos Arafah";"Jl. Raya Surabaya-Situbondo, Dusun Krajan, Bhinor, Kec. Paiton, Kabupaten Probolinggo, Jawa Timur 67291";"Dusun Krajan, Bhinor, Kec. Paiton, Kabupaten Probolinggo";"JAWA TIMUR";"67291";"Indonesia";" 02129707601";"";"/url?q>>u003dhttps://www.oyorooms.com/ID/214303/%3Futm_source%3DGMB_ID%26utm_medium%3DOrganic%26utm_campaign%3DID_PLO041%26latitude%3D-7.7183092746831505%26longitude%3D113.55385484173894%26locale%3Did>>u0026opi>>u003d79508299>>u0026sa>>u003dU>>u0026ved>>u003d0ahUKEwiZkJny9tOLAxWBU2wGHYaxJtsQ61gIFigS>>u0026usg>>u003dAOvVaw3ic4EoUzlgc1skoQorjfan";"-7.7183009";"113.5538612";"https://maps.google.com/?cid=0x0:0x4d6331352190cfab";""
"hotel";"hotel";"DreamLand Hotel  Lounge Bondowoso";"Jl. Kis Mangunsarkoro No.999, Lumbung, Tamansari, Kec. Bondowoso, Kabupaten Bondowoso, Jawa Timur 68216";"Lumbung, Tamansari, Kec. Bondowoso, Kabupaten Bondowoso";"JAWA TIMUR";"68216";"Indonesia";" 081357122277";"";"";"-7.9276162";"113.8258669";"https://maps.google.com/?cid=0x0:0x62a1a190bb54401d";""
"hotel";"hotel";"Riverside Homestay";"Krajan, Koncer Kidul, Kec. Bondowoso, Kabupaten Bondowoso, Jawa Timur";"Kabupaten Bondowoso, Jawa Timur";"JAWA TIMUR";"";"Indonesia";" 081323200042";"";"/url?q>>u003dhttps://linktr.ee/Riverside.homestay>>u0026opi>>u003d79508299>>u0026sa>>u003dU>>u0026ved>>u003d0ahUKEwiE4_SC99OLAxV1d2wGHZNQHHcQ61gIFigS>>u0026usg>>u003dAOvVaw2DbSslAoU7fJ7P12xAyvsw";"-7.9318705";"113.8245337";"https://maps.google.com/?cid=0x0:0xbe1098ec4fcf3d2e";""
"hotel";"hotel";"Grand Padis Hotel";"Jl. Ahmad Yani No.28, Potos, Badean, Kec. Bondowoso, Kabupaten Bondowoso, Jawa Timur 68214";"Potos, Badean, Kec. Bondowoso, Kabupaten Bondowoso";"JAWA TIMUR";"68214";"Indonesia";" 082132902277";"";"";"-7.9160205";"113.8198869";"https://maps.google.com/?cid=0x0:0x96e3933dec68cde5";""
"hotel";"hotel";"Jack East Villa";"Jl. Raya Pasir Putih No.04, Gunungsari, Bungatan, Kec. Bungatan, Kabupaten Situbondo, Jawa Timur 68358";"Gunungsari, Bungatan, Kec. Bungatan, Kabupaten Situbondo";"JAWA TIMUR";"68358";"Indonesia";" 081230839555";"";"/url?q>>u003dhttps://www.booking.com/hotel/id/jack-east-villa.html%3Faid%3D318615%3Blabel%3DEnglish_Indonesia_EN_ID_28546570705-G6blYurG1wv5nxy_NQuKzQS108255839185:pl:ta:p1:p2:ac:ap:neg:fi70402273418:tiaud-294889294693:dsa-209721654025:lp1007715:li:dec:dm%3Bsid%3Df71219b46abba2205efdddae3bb476be%3Bdest_id%3D-2691524%3Bdest_type%3Dcity%3Bdist%3D0%3Bgroup_adults%3D2%3Bgroup_children%3D0%3Bhapos%3D1%3Bhpos%3D1%3Bno_rooms%3D1%3Broom1%3DA,A%3Bsb_price_type%3Dtotal%3Bsr_order%3Dpopularity%3Bsrepoch%3D1604591294%3Bsrpvid%3D67c46f1e4144015a%3Btype%3Dtotal%3Bucfs%3D1%26%23hotelTmpl>>u0026opi>>u003d79508299>>u0026sa>>u003dU>>u0026ved>>u003d0ahUKEwjItMaD99OLAxXmyjgGHchZKnEQ61gIFigS>>u0026usg>>u003dAOvVaw1dgUZxrkc76iOAArLrNU2o";"-7.7222671";"113.8010768";"https://maps.google.com/?cid=0x0:0xa93cc0855e3b738b";""
"hotel";"hotel";"Baratha Hotel  Resto";"Jl. Saliwiryo Pranowo Gg. Taman No.11, Pattian, Kotakulon, Kec. Bondowoso, Kabupaten Bondowoso, Jawa Timur 68213";"Pattian, Kotakulon, Kec. Bondowoso, Kabupaten Bondowoso";"JAWA TIMUR";"68213";"Indonesia";" 082228111778";"";"";"-7.9093255";"113.8103867";"https://maps.google.com/?cid=0x0:0xdf0667af9e288f3e";""
"hotel";"hotel";"Ijen View Hotel Resort  Restaurant";"Jl. Kis Mangunsarkoro No.888, Tegalelo, Tamansari, Kec. Bondowoso, Kabupaten Bondowoso, Jawa Timur 68216";"Tegalelo, Tamansari, Kec. Bondowoso, Kabupaten Bondowoso";"JAWA TIMUR";"68216";"Indonesia";" 0332431000";"";"/url?q>>u003dhttps://www.hotelijenview.com/>>u0026opi>>u003d79508299>>u0026sa>>u003dU>>u0026ved>>u003d0ahUKEwi47tWD99OLAxW64zgGHcr7HRQQ61gIFigS>>u0026usg>>u003dAOvVaw2_IdxGykIYbvWI-VC7WLP3";"-7.9288961";"113.8241424";"https://maps.google.com/?cid=0x0:0x11adc39e7e6188f5";""
"hotel";"hotel";"N/A";"";"";"JAWA TIMUR";"";"Indonesia";"";"";"";"";"";"https://maps.google.com/?cid=0x0:0x11adc39e7e6188f5%7C/g/1tczmskh%7Cen-ID";""
"hotel";"hotel";"N/A";"";"";"JAWA TIMUR";"";"Indonesia";"";"";"";"";"";"https://maps.google.com/?cid=0x0:0xdf0667af9e288f3e%7C/g/11h5qnr287%7Cen-ID";""
"hotel";"hotel";"Salsabila Sweet Home And Capsule Syariah";"Jl. Khairil Anwar, Badean, Kec. Bondowoso, Kabupaten Bondowoso, Jawa Timur 68214";"Badean, Kec. Bondowoso, Kabupaten Bondowoso";"JAWA TIMUR";"68214";"Indonesia";" 03325556602";"";"";"-7.9178508";"113.8141724";"https://maps.google.com/?cid=0x0:0xfa2ff876a9c07eb";""
"hotel";"hotel";"HOTEL NIRWANA RESTO  KARAOKE";"jl.raya No.145, Bungor, Banyuglugur, Situbondo Regency, East Java 68359";"Bungor, Banyuglugur, Situbondo Regency";"JAWA TIMUR";"68359";"Indonesia";" 0895417300072";"";"";"-7.7235171";"113.6069671";"https://maps.google.com/?cid=0x0:0x6056226ed2ef2bcb";""
"hotel";"hotel";"Hotel Palm Bondowoso Kota";"Jl. Ahmad Yani No.32, Lumbung, Badean, Kec. Bondowoso, Kabupaten Bondowoso, Jawa Timur 68214";"Lumbung, Badean, Kec. Bondowoso, Kabupaten Bondowoso";"JAWA TIMUR";"68214";"Indonesia";" 0332421201";"";"/url?q>>u003dhttp://www.palm-hotel.net/>>u0026opi>>u003d79508299>>u0026sa>>u003dU>>u0026ved>>u003d0ahUKEwiv6OaF99OLAxUsxzgGHTL5ExUQ61gIFigS>>u0026usg>>u003dAOvVaw23qINAvYW0w9J-dKBQdZJc";"-7.9169857";"113.8190816";"https://maps.google.com/?cid=0x0:0x4b83cce47b0d7499";""
"hotel";"hotel";"RedDoorz Syariah @ Bondowoso City Center";"Jl. Dr. Wahidin Sudiro Husodo No.13, Blindungan, Kec. Bondowoso, Kabupaten Bondowoso, Jawa Timur 68212";"Blindungan, Kec. Bondowoso, Kabupaten Bondowoso";"JAWA TIMUR";"68212";"Indonesia";" 0895417300072";"";"";"-7.9098043";"113.827501";"https://maps.google.com/?cid=0x0:0xba533bdfa8f85a7d";""
"hotel";"hotel";"N/A";"";"";"JAWA TIMUR";"";"Indonesia";"";"";"";"";"";"https://maps.google.com/?cid=0x0:0x4b83cce47b0d7499%7C/g/11cfhpdv0%7Cen-ID";""
"hotel";"hotel";"N/A";"";"";"JAWA TIMUR";"";"Indonesia";"";"";"";"";"";"https://maps.google.com/?cid=0x0:0xba533bdfa8f85a7d%7C/g/11j5c5ct3b%7Cen-ID";""
"hotel";"hotel";"Ijen Bondowoso Homestay";"Jl. Diponegoro Gg. I No.19, Kauman, Kotakulon, Kec. Bondowoso, Kabupaten Bondowoso, Jawa Timur 68213";"Kauman, Kotakulon, Kec. Bondowoso, Kabupaten Bondowoso";"JAWA TIMUR";"68213";"Indonesia";" 08123488119";"";"/url?q>>u003dhttp://ijen-bondowoso-home-stay-id.book.direct/>>u0026opi>>u003d79508299>>u0026sa>>u003dU>>u0026ved>>u003d0ahUKEwi59OuG99OLAxWh8TgGHbfGA1gQ61gIFigS>>u0026usg>>u003dAOvVaw3FLAUptGNn525uMDiFK8mh";"-7.911548";"113.8205453";"https://maps.google.com/?cid=0x0:0xd7569f6f471b955f";""
"hotel";"hotel";"SPOT ON 92665 Yoko Kost Syariah";"Rsud Bondo, Jalan Kapten Jl. Piere Tendean No.31, Lumbung, Dabasah, Bondowoso, Bondowoso Regency, East Java 68213";"Jalan Kapten Jl. Piere Tendean No.31, Lumbung, Dabasah, Bondowoso, Bondowoso Regency";"JAWA TIMUR";"68213";"Indonesia";" 02129707601";"";"/url?q>>u003dhttps://www.oyorooms.com/ID/214302/%3Futm_source%3DGMB_ID%26utm_medium%3DOrganic%26utm_campaign%3DID_NDO002%26latitude%3D-7.919691681528802%26longitude%3D113.81530048325658%26locale%3Did>>u0026opi>>u003d79508299>>u0026sa>>u003dU>>u0026ved>>u003d0ahUKEwjYh4yH99OLAxVc1TgGHeQYHjIQ61gIFigS>>u0026usg>>u003dAOvVaw0BzCC23KmFY8Rsxv6UrmbK";"-7.9196917";"113.8153005";"https://maps.google.com/?cid=0x0:0x7368272e512b9f98";""
"hotel";"hotel";"Anugerah Hotel";"Jl. Mayjen Sutoyo No.12, Lumbung, Dabasah, Kec. Bondowoso, Kabupaten Bondowoso, Jawa Timur 68211";"Lumbung, Dabasah, Kec. Bondowoso, Kabupaten Bondowoso";"JAWA TIMUR";"68211";"Indonesia";" 082302177348";"";"";"-7.9169834";"113.8206936";"https://maps.google.com/?cid=0x0:0xfea8e13f2dbe3e0";""
"hotel";"hotel";"Wisma Bhayangkari Primkoppol";"Jl. Raya Pasir Putih No. 258 Mlandingan, Pandansari, Pasir Putih, Kec. Bungatan, Kabupaten Situbondo, Jawa Timur 68358";"Pandansari, Pasir Putih, Kec. Bungatan, Kabupaten Situbondo";"JAWA TIMUR";"68358";"Indonesia";" 02129707601";"";"/url?q>>u003dhttps://www.oyorooms.com/ID/213209/%3Futm_source%3DGMB_ID%26utm_medium%3DOrganic%26utm_campaign%3DID_UDC006%26latitude%3D-7.694341066151557%26longitude%3D113.8285494223237%26locale%3Did>>u0026opi>>u003d79508299>>u0026sa>>u003dU>>u0026ved>>u003d0ahUKEwi3i9GH99OLAxUH2DgGHYoWN1kQ61gIFigS>>u0026usg>>u003dAOvVaw16NhasrwM7gWqGhQK_9x9Z";"-7.6943363";"113.8285484";"https://maps.google.com/?cid=0x0:0x91a13bfdc932d196";""
"hotel";"hotel";"Alicia Bondowoso";"Jl. DR. Sutomo No.2A, Potos, Badean, Kec. Bondowoso, Kabupaten Bondowoso, Jawa Timur 68214";"Potos, Badean, Kec. Bondowoso, Kabupaten Bondowoso";"JAWA TIMUR";"68214";"Indonesia";" 081288862602";"";"";"-7.9163538";"113.8189312";"https://maps.google.com/?cid=0x0:0xe5ceb6140afcd11e";""
"hotel";"hotel";"Cottage Utama Raya";"Krajan, Banyuglugur, Kec. Banyuglugur, Kabupaten Situbondo, Jawa Timur 68359";"Banyuglugur, Kec. Banyuglugur, Kabupaten Situbondo";"JAWA TIMUR";"68359";"Indonesia";" 081231511602";"";"/url?q>>u003dhttp://www.utamaraya.com/>>u0026opi>>u003d79508299>>u0026sa>>u003dU>>u0026ved>>u003d0ahUKEwiz3JGI99OLAxWZxjgGHRTCN5IQ61gIFigS>>u0026usg>>u003dAOvVaw3UjvHtfwrpaS803m5WI5aT";"-7.7218843";"113.6220241";"https://maps.google.com/?cid=0x0:0xac76bd94926ed064";""
"hotel";"hotel";"Hotel Wisda Rengganis";"Pandansari, Pasir Putih, Kec. Bungatan, Kabupaten Situbondo, Jawa Timur 68358";"Pasir Putih, Kec. Bungatan, Kabupaten Situbondo";"JAWA TIMUR";"68358";"Indonesia";" 081313233334";"";"/url?q>>u003dhttps://www.instagram.com/hotel.wisdarengganis/>>u0026opi>>u003d79508299>>u0026sa>>u003dU>>u0026ved>>u003d0ahUKEwik77WI99OLAxWcUGcHHdjfFnkQ61gIFigS>>u0026usg>>u003dAOvVaw0xGCIbo0zI197tSz2HQ8ZA";"-7.6952926";"113.8278044";"https://maps.google.com/?cid=0x0:0x44ef534e6ce120f9";""
"hotel";"hotel";"Hotel Arjuna";"Jalan Raya, Kemploko, Sembung, Kec. Banyuputih, Kabupaten Batang, Jawa Tengah 51271";"Kemploko, Sembung, Kec. Banyuputih, Kabupaten Batang";"JAWA TIMUR";"51271";"Indonesia";" 08122898181";"";"";"-6.9675648";"109.9418652";"https://maps.google.com/?cid=0x0:0xe7b44b39b1c49d11";""
"hotel";"hotel";"N/A";"";"";"JAWA TIMUR";"";"Indonesia";"";"";"";"";"";"https://maps.google.com/?cid=0x0:0x44ef534e6ce120f9%7C/g/11fsk16vs4%7Cen-ID";""
"hotel";"hotel";"Hotel Baru";"Jl. Ra. Kartini No.26, Patemon, Blindungan, Kec. Bondowoso, Kabupaten Bondowoso, Jawa Timur 68212";"Patemon, Blindungan, Kec. Bondowoso, Kabupaten Bondowoso";"JAWA TIMUR";"68212";"Indonesia";" 081232628685";"";"";"-7.9110564";"113.8246701";"https://maps.google.com/?cid=0x0:0xd32695f18d0e73ea";""
"hotel";"hotel";"Pondok Panorama 18";"4R3J+882, Jl. Kh. Ali, Jurang Kuda Timur, Sekarputih, Kec. Tegalampel, Kabupaten Bondowoso, Jawa Timur 68291";"Jl. Kh. Ali, Jurang Kuda Timur, Sekarputih, Kec. Tegalampel, Kabupaten Bondowoso";"JAWA TIMUR";"68291";"Indonesia";"";"";"";"-7.8967352";"113.8307636";"https://maps.google.com/?cid=0x0:0x5485c763b6850f7a";""
"hotel";"hotel";"Banyuputih";"Kec. Wringin, Kabupaten Bondowoso, Jawa Timur";"Kabupaten Bondowoso, Jawa Timur";"JAWA TIMUR";"";"Indonesia";"";"";"";"-7.813178";"113.7424575";"https://maps.google.com/?cid=0x0:0xbf7ff3328da7ef06";""
"hotel";"hotel";"Hotel Sendang Sari Batang Jateng";"Jl. Jendral Sudirman No.29, Kasepuhan, Kec. Batang, Kabupaten Batang, Jawa Tengah 51216";"Kasepuhan, Kec. Batang, Kabupaten Batang";"JAWA TIMUR";"51216";"Indonesia";" 0285392100";"";"";"-6.906258";"109.724773";"https://maps.google.com/?cid=0x0:0xe3751271e9f3088";""
"hotel";"hotel";"N/A";"";"";"JAWA TIMUR";"";"Indonesia";"";"";"";"";"";"https://maps.google.com/?cid=0x0:0xe3751271e9f3088%7C/g/1tdhhn2q%7Cen-ID";""
"hotel";"hotel";"HOTEL Wikost Premiere Inn";"Jl. Raya Semarang - Batang No.17, Ngrau, Plelen, Kec. Gringsing, Kabupaten Batang, Jawa Tengah 51281";"Ngrau, Plelen, Kec. Gringsing, Kabupaten Batang";"JAWA TIMUR";"51281";"Indonesia";" 085641590168";"";"";"-6.9708627";"110.0140244";"https://maps.google.com/?cid=0x0:0xca725ac8d33dee4e";""
"hotel";"hotel";"DreamLand Hotel  Lounge Bondowoso";"Jl. Kis Mangunsarkoro No.999, Lumbung, Tamansari, Kec. Bondowoso, Kabupaten Bondowoso, Jawa Timur 68216";"Lumbung, Tamansari, Kec. Bondowoso, Kabupaten Bondowoso";"JAWA TIMUR";"68216";"Indonesia";" 081357122277";"";"";"-7.9276162";"113.8258669";"https://maps.google.com/?cid=0x0:0x62a1a190bb54401d";""
"hotel";"hotel";"Grand Padis Hotel";"Jl. Ahmad Yani No.28, Potos, Badean, Kec. Bondowoso, Kabupaten Bondowoso, Jawa Timur 68214";"Potos, Badean, Kec. Bondowoso, Kabupaten Bondowoso";"JAWA TIMUR";"68214";"Indonesia";" 082132902277";"";"/url?q>>u003dhttp://grandpadishotel.com/>>u0026opi>>u003d79508299>>u0026sa>>u003dU>>u0026ved>>u003d0ahUKEwiWjbOc99OLAxV4yzgGHejeNMcQ61gIFigS>>u0026usg>>u003dAOvVaw0B4XSFHqr2Bdek5oAVmesy";"-7.9160205";"113.8198869";"https://maps.google.com/?cid=0x0:0x96e3933dec68cde5";""
"hotel";"hotel";"Riverside Homestay";"Krajan, Koncer Kidul, Kec. Bondowoso, Kabupaten Bondowoso, Jawa Timur";"Kabupaten Bondowoso, Jawa Timur";"JAWA TIMUR";"";"Indonesia";" 081323200042";"";"/url?q>>u003dhttps://linktr.ee/Riverside.homestay>>u0026opi>>u003d79508299>>u0026sa>>u003dU>>u0026ved>>u003d0ahUKEwiL95Wc99OLAxXRR2cHHXViLv4Q61gIFigS>>u0026usg>>u003dAOvVaw0zD8ZJzds2csXRV4-Rl0z2";"-7.9318705";"113.8245337";"https://maps.google.com/?cid=0x0:0xbe1098ec4fcf3d2e";""
"hotel";"hotel";"Baratha Hotel  Resto";"Jl. Saliwiryo Pranowo Gg. Taman No.11, Pattian, Kotakulon, Kec. Bondowoso, Kabupaten Bondowoso, Jawa Timur 68213";"Pattian, Kotakulon, Kec. Bondowoso, Kabupaten Bondowoso";"JAWA TIMUR";"68213";"Indonesia";" 082228111778";"";"/url?q>>u003dhttp://www.barathahotel.com/>>u0026opi>>u003d79508299>>u0026sa>>u003dU>>u0026ved>>u003d0ahUKEwjY_eic99OLAxW18DgGHXYEMe8Q61gIFigS>>u0026usg>>u003dAOvVaw0Xf_4t6w5tzD-qUJuHqzg3";"-7.9093255";"113.8103867";"https://maps.google.com/?cid=0x0:0xdf0667af9e288f3e";""
"hotel";"hotel";"N/A";"";"";"JAWA TIMUR";"";"Indonesia";"";"";"";"";"";"https://maps.google.com/?cid=0x0:0xdf0667af9e288f3e%7C/g/11h5qnr287%7Cen-ID";""
"hotel";"hotel";"Ijen View Hotel Resort  Restaurant";"Jl. Kis Mangunsarkoro No.888, Tegalelo, Tamansari, Kec. Bondowoso, Kabupaten Bondowoso, Jawa Timur 68216";"Tegalelo, Tamansari, Kec. Bondowoso, Kabupaten Bondowoso";"JAWA TIMUR";"68216";"Indonesia";" 0332431000";"";"/url?q>>u003dhttps://www.hotelijenview.com/>>u0026opi>>u003d79508299>>u0026sa>>u003dU>>u0026ved>>u003d0ahUKEwjyyLWd99OLAxWcSmwGHSC2OnMQ61gIFigS>>u0026usg>>u003dAOvVaw2OIGcSb0rh8yg0aG7tNexE";"-7.9288961";"113.8241424";"https://maps.google.com/?cid=0x0:0x11adc39e7e6188f5";""
"hotel";"hotel";"N/A";"";"";"JAWA TIMUR";"";"Indonesia";"";"";"";"";"";"https://maps.google.com/?cid=0x0:0x11adc39e7e6188f5%7C/g/1tczmskh%7Cen-ID";""
"hotel";"hotel";"Jack East Villa";"Jl. Raya Pasir Putih No.04, Gunungsari, Bungatan, Kec. Bungatan, Kabupaten Situbondo, Jawa Timur 68358";"Gunungsari, Bungatan, Kec. Bungatan, Kabupaten Situbondo";"JAWA TIMUR";"68358";"Indonesia";" 081230839555";"";"/url?q>>u003dhttps://www.booking.com/hotel/id/jack-east-villa.html%3Faid%3D318615%3Blabel%3DEnglish_Indonesia_EN_ID_28546570705-G6blYurG1wv5nxy_NQuKzQS108255839185:pl:ta:p1:p2:ac:ap:neg:fi70402273418:tiaud-294889294693:dsa-209721654025:lp1007715:li:dec:dm%3Bsid%3Df71219b46abba2205efdddae3bb476be%3Bdest_id%3D-2691524%3Bdest_type%3Dcity%3Bdist%3D0%3Bgroup_adults%3D2%3Bgroup_children%3D0%3Bhapos%3D1%3Bhpos%3D1%3Bno_rooms%3D1%3Broom1%3DA,A%3Bsb_price_type%3Dtotal%3Bsr_order%3Dpopularity%3Bsrepoch%3D1604591294%3Bsrpvid%3D67c46f1e4144015a%3Btype%3Dtotal%3Bucfs%3D1%26%23hotelTmpl>>u0026opi>>u003d79508299>>u0026sa>>u003dU>>u0026ved>>u003d0ahUKEwj0y_Gd99OLAxXrT2cHHem2GX4Q61gIFigS>>u0026usg>>u003dAOvVaw16BD-09VxIZ-r7bE3B58MN";"-7.7222671";"113.8010768";"https://maps.google.com/?cid=0x0:0xa93cc0855e3b738b";""
"hotel";"hotel";"N/A";"";"";"JAWA TIMUR";"";"Indonesia";"";"";"";"";"";"https://maps.google.com/?cid=0x0:0x4b83cce47b0d7499%7C/g/11cfhpdv0%7Cen-ID";""
"hotel";"hotel";"Hotel Palm Bondowoso Kota";"Jl. Ahmad Yani No.32, Lumbung, Badean, Kec. Bondowoso, Kabupaten Bondowoso, Jawa Timur 68214";"Lumbung, Badean, Kec. Bondowoso, Kabupaten Bondowoso";"JAWA TIMUR";"68214";"Indonesia";" 0332421201";"";"/url?q>>u003dhttp://www.palm-hotel.net/>>u0026opi>>u003d79508299>>u0026sa>>u003dU>>u0026ved>>u003d0ahUKEwjw4aie99OLAxVA8zgGHdTJN-cQ61gIFigS>>u0026usg>>u003dAOvVaw1FwTgBfGSWosgsGXyit3gJ";"-7.9169857";"113.8190816";"https://maps.google.com/?cid=0x0:0x4b83cce47b0d7499";""
"hotel";"hotel";"HOTEL NIRWANA RESTO  KARAOKE";"jl.raya No.145, Bungor, Banyuglugur, Situbondo Regency, East Java 68359";"Bungor, Banyuglugur, Situbondo Regency";"JAWA TIMUR";"68359";"Indonesia";" 0895417300072";"";"";"-7.7235171";"113.6069671";"https://maps.google.com/?cid=0x0:0x6056226ed2ef2bcb";""
"hotel";"hotel";"Salsabila Sweet Home And Capsule Syariah";"Jl. Khairil Anwar, Badean, Kec. Bondowoso, Kabupaten Bondowoso, Jawa Timur 68214";"Badean, Kec. Bondowoso, Kabupaten Bondowoso";"JAWA TIMUR";"68214";"Indonesia";" 03325556602";"";"";"-7.9178508";"113.8141724";"https://maps.google.com/?cid=0x0:0xfa2ff876a9c07eb";""
"hotel";"hotel";"Ijen Bondowoso Homestay";"Jl. Diponegoro Gg. I No.19, Kauman, Kotakulon, Kec. Bondowoso, Kabupaten Bondowoso, Jawa Timur 68213";"Kauman, Kotakulon, Kec. Bondowoso, Kabupaten Bondowoso";"JAWA TIMUR";"68213";"Indonesia";" 08123488119";"";"/url?q>>u003dhttp://ijen-bondowoso-home-stay-id.book.direct/>>u0026opi>>u003d79508299>>u0026sa>>u003dU>>u0026ved>>u003d0ahUKEwjKtpCf99OLAxXZyjgGHTlVO-wQ61gIFigS>>u0026usg>>u003dAOvVaw1EvZZuftj4AVayQ-BXvW6U";"-7.911548";"113.8205453";"https://maps.google.com/?cid=0x0:0xd7569f6f471b955f";""
"hotel";"hotel";"Alicia Bondowoso";"Jl. DR. Sutomo No.2A, Potos, Badean, Kec. Bondowoso, Kabupaten Bondowoso, Jawa Timur 68214";"Potos, Badean, Kec. Bondowoso, Kabupaten Bondowoso";"JAWA TIMUR";"68214";"Indonesia";" 081288862602";"";"";"-7.9163538";"113.8189312";"https://maps.google.com/?cid=0x0:0xe5ceb6140afcd11e";""
"hotel";"hotel";"Anugerah Hotel";"Jl. Mayjen Sutoyo No.12, Lumbung, Dabasah, Kec. Bondowoso, Kabupaten Bondowoso, Jawa Timur 68211";"Lumbung, Dabasah, Kec. Bondowoso, Kabupaten Bondowoso";"JAWA TIMUR";"68211";"Indonesia";" 082302177348";"";"";"-7.9169834";"113.8206936";"https://maps.google.com/?cid=0x0:0xfea8e13f2dbe3e0";""
"hotel";"hotel";"RedDoorz Syariah @ Bondowoso City Center";"Jl. Dr. Wahidin Sudiro Husodo No.13, Blindungan, Kec. Bondowoso, Kabupaten Bondowoso, Jawa Timur 68212";"Blindungan, Kec. Bondowoso, Kabupaten Bondowoso";"JAWA TIMUR";"68212";"Indonesia";" 0895417300072";"";"";"-7.9098043";"113.827501";"https://maps.google.com/?cid=0x0:0xba533bdfa8f85a7d";""
"hotel";"hotel";"Wisma Bhayangkari Primkoppol";"Jl. Raya Pasir Putih No. 258 Mlandingan, Pandansari, Pasir Putih, Kec. Bungatan, Kabupaten Situbondo, Jawa Timur 68358";"Pandansari, Pasir Putih, Kec. Bungatan, Kabupaten Situbondo";"JAWA TIMUR";"68358";"Indonesia";" 02129707601";"";"/url?q>>u003dhttps://www.oyorooms.com/ID/213209/%3Futm_source%3DGMB_ID%26utm_medium%3DOrganic%26utm_campaign%3DID_UDC006%26latitude%3D-7.694341066151557%26longitude%3D113.8285494223237%26locale%3Did>>u0026opi>>u003d79508299>>u0026sa>>u003dU>>u0026ved>>u003d0ahUKEwjbrOGf99OLAxWJUGcHHa-7OXoQ61gIFigS>>u0026usg>>u003dAOvVaw0QA--LM0xibdApEERihApn";"-7.6943363";"113.8285484";"https://maps.google.com/?cid=0x0:0x91a13bfdc932d196";""
"hotel";"hotel";"N/A";"";"";"JAWA TIMUR";"";"Indonesia";"";"";"";"";"";"https://maps.google.com/?cid=0x0:0xba533bdfa8f85a7d%7C/g/11j5c5ct3b%7Cen-ID";""
"hotel";"hotel";"Cottage Utama Raya";"Krajan, Banyuglugur, Kec. Banyuglugur, Kabupaten Situbondo, Jawa Timur 68359";"Banyuglugur, Kec. Banyuglugur, Kabupaten Situbondo";"JAWA TIMUR";"68359";"Indonesia";" 081231511602";"";"/url?q>>u003dhttp://www.utamaraya.com/>>u0026opi>>u003d79508299>>u0026sa>>u003dU>>u0026ved>>u003d0ahUKEwiNo4-h99OLAxUyzjgGHRT8KUgQ61gIFigS>>u0026usg>>u003dAOvVaw0Qf7ifdqig_Y2-5yQJtymy";"-7.7218843";"113.6220241";"https://maps.google.com/?cid=0x0:0xac76bd94926ed064";""
"hotel";"hotel";"SPOT ON 92665 Yoko Kost Syariah";"Rsud Bondo, Jalan Kapten Jl. Piere Tendean No.31, Lumbung, Dabasah, Bondowoso, Bondowoso Regency, East Java 68213";"Jalan Kapten Jl. Piere Tendean No.31, Lumbung, Dabasah, Bondowoso, Bondowoso Regency";"JAWA TIMUR";"68213";"Indonesia";" 02129707601";"";"/url?q>>u003dhttps://www.oyorooms.com/ID/214302/%3Futm_source%3DGMB_ID%26utm_medium%3DOrganic%26utm_campaign%3DID_NDO002%26latitude%3D-7.919691681528802%26longitude%3D113.81530048325658%26locale%3Did>>u0026opi>>u003d79508299>>u0026sa>>u003dU>>u0026ved>>u003d0ahUKEwi85Iih99OLAxX8cGwGHRZDAR8Q61gIFigS>>u0026usg>>u003dAOvVaw0zFjhH8A1EggaC0vjmLV9T";"-7.9196917";"113.8153005";"https://maps.google.com/?cid=0x0:0x7368272e512b9f98";""
"hotel";"hotel";"Hotel Wisda Rengganis";"Pandansari, Pasir Putih, Kec. Bungatan, Kabupaten Situbondo, Jawa Timur 68358";"Pasir Putih, Kec. Bungatan, Kabupaten Situbondo";"JAWA TIMUR";"68358";"Indonesia";" 081313233334";"";"/url?q>>u003dhttps://www.instagram.com/hotel.wisdarengganis/>>u0026opi>>u003d79508299>>u0026sa>>u003dU>>u0026ved>>u003d0ahUKEwiP9quh99OLAxVhxTgGHY5gDGYQ61gIFigS>>u0026usg>>u003dAOvVaw1raXeCPhZzDXW_EnQdkJ4S";"-7.6952926";"113.8278044";"https://maps.google.com/?cid=0x0:0x44ef534e6ce120f9";""
"hotel";"hotel";"N/A";"";"";"JAWA TIMUR";"";"Indonesia";"";"";"";"";"";"https://maps.google.com/?cid=0x0:0x44ef534e6ce120f9%7C/g/11fsk16vs4%7Cen-ID";""
"hotel";"hotel";"Petani Hill Hotel";"Jl. Raya Kalianget, Bungor, Banyuglugur, Kec. Banyuglugur, Kabupaten Situbondo, Jawa Timur 68359";"Bungor, Banyuglugur, Kec. Banyuglugur, Kabupaten Situbondo";"JAWA TIMUR";"68359";"Indonesia";" 0338891303";"";"";"-7.7255985";"113.6115271";"https://maps.google.com/?cid=0x0:0x5655da6a0f96a67b";""
"hotel";"hotel";"Hotel Arjuna";"Jalan Raya, Kemploko, Sembung, Kec. Banyuputih, Kabupaten Batang, Jawa Tengah 51271";"Kemploko, Sembung, Kec. Banyuputih, Kabupaten Batang";"JAWA TIMUR";"51271";"Indonesia";" 08122898181";"";"";"-6.9675648";"109.9418652";"https://maps.google.com/?cid=0x0:0xe7b44b39b1c49d11";""
"hotel";"hotel";"Grand Hotel Bondowoso";"Jl. kh . Agus Salim, Lumbung, Blindungan, Kec. Bondowoso, Kabupaten Bondowoso, Jawa Timur 68212";"Lumbung, Blindungan, Kec. Bondowoso, Kabupaten Bondowoso";"JAWA TIMUR";"68212";"Indonesia";" 0332421549";"";"";"-7.9098456";"113.8257071";"https://maps.google.com/?cid=0x0:0x3f1ff10ced141ee5";""
"hotel";"hotel";"Banyuputih";"Kec. Wringin, Kabupaten Bondowoso, Jawa Timur";"Kabupaten Bondowoso, Jawa Timur";"JAWA TIMUR";"";"Indonesia";"";"";"";"-7.813178";"113.7424575";"https://maps.google.com/?cid=0x0:0xbf7ff3328da7ef06";""
"hotel";"hotel";"Hotel Sendang Sari Batang Jateng";"Jl. Jendral Sudirman No.29, Kasepuhan, Kec. Batang, Kabupaten Batang, Jawa Tengah 51216";"Kasepuhan, Kec. Batang, Kabupaten Batang";"JAWA TIMUR";"51216";"Indonesia";" 0285392100";"";"";"-6.906258";"109.724773";"https://maps.google.com/?cid=0x0:0xe3751271e9f3088";""
"hotel";"hotel";"N/A";"";"";"JAWA TIMUR";"";"Indonesia";"";"";"";"";"";"https://maps.google.com/?cid=0x0:0xe3751271e9f3088%7C/g/1tdhhn2q%7Cen-ID";""
"hotel";"hotel";"HOTEL Wikost Premiere Inn";"Jl. Raya Semarang - Batang No.17, Ngrau, Plelen, Kec. Gringsing, Kabupaten Batang, Jawa Tengah 51281";"Ngrau, Plelen, Kec. Gringsing, Kabupaten Batang";"JAWA TIMUR";"51281";"Indonesia";" 085641590168";"";"";"-6.9708627";"110.0140244";"https://maps.google.com/?cid=0x0:0xca725ac8d33dee4e";""
"hotel";"hotel";"Reddoorz door Reddoorz";"Jl. Pandean, Randu Agung, Wonorejo, Kec. Banyuputih, Kabupaten Banyuwangi, Jawa Timur 68374";"Randu Agung, Wonorejo, Kec. Banyuputih, Kabupaten Banyuwangi";"JAWA TIMUR";"68374";"Indonesia";" 0895417300072";"";"";"-7.9197689";"114.4053015";"https://maps.google.com/?cid=0x0:0xb1900e4c046339e8";""
"hotel";"hotel";"BIMA Homestay";"Jl. Pandean, Randu Agung, Wonorejo, Kec. Banyuputih, Kabupaten Situbondo, Jawa Timur 68374";"Randu Agung, Wonorejo, Kec. Banyuputih, Kabupaten Situbondo";"JAWA TIMUR";"68374";"Indonesia";" 085258006520";"";"/url?q>>u003dhttp://bimahomestay.blogspot.com/>>u0026opi>>u003d79508299>>u0026sa>>u003dU>>u0026ved>>u003d0ahUKEwiNsoW099OLAxU_zDgGHVbEDikQ61gIFigS>>u0026usg>>u003dAOvVaw0fn0uHlyl38DtUGRZDETUg";"-7.9225163";"114.3918226";"https://maps.google.com/?cid=0x0:0xdb69fcf1cfd53bda";""
"hotel";"hotel";"SPOT ON 1958 Asembagus Family";"Jl. Raya Asembagus, Krajan, Wringinanom, Kec. Asembagus, Kabupaten Situbondo, Jawa Timur 68373";"Krajan, Wringinanom, Kec. Asembagus, Kabupaten Situbondo";"JAWA TIMUR";"68373";"Indonesia";" 02129707601";"";"/url?q>>u003dhttps://www.oyorooms.com/ID/86272/%3Futm_source%3DGMB_ID%26utm_medium%3DOrganic%26utm_campaign%3DID_UDC001%26latitude%3D-7.75113483695156%26longitude%3D114.234388433397%26locale%3Did>>u0026opi>>u003d79508299>>u0026sa>>u003dU>>u0026ved>>u003d0ahUKEwjCpKO099OLAxWixTgGHVl3PUgQ61gIFigS>>u0026usg>>u003dAOvVaw1DME8XSP_JvCT_e180T7Jm";"-7.75113";"114.2343872";"https://maps.google.com/?cid=0x0:0xb34348da6ccbc7c2";""
"hotel";"hotel";"Grand Baluran Villa";"Jl. Raya Banyuwangi Situbondo No.9, Randu Agung, Wonorejo, Kec. Banyuputih, Kabupaten Situbondo, Jawa Timur 68374";"Randu Agung, Wonorejo, Kec. Banyuputih, Kabupaten Situbondo";"JAWA TIMUR";"68374";"Indonesia";" 081338716622";"";"";"-7.9246474";"114.3865248";"https://maps.google.com/?cid=0x0:0xf0d7e98c23cc8187";""
"hotel";"hotel";"OYO 93384 New Asembagus 2";"traditional Market Situbondo, 1 Jl.Raya Asembagus, Krajan, Wringinanom, Asembagus, Kabupaten, Jawaban Timur, Trigonco Timur, Trigonco, Asembagus, Situbondo Regency, East Java 68373";"1 Jl.Raya Asembagus, Krajan, Wringinanom, Asembagus, Kabupaten, Jawaban Timur, Trigonco Timur, Trigonco, Asembagus, Situbondo Regency";"JAWA TIMUR";"68373";"Indonesia";" 02129707601";"";"/url?q>>u003dhttps://www.oyorooms.com/224182/>>u0026opi>>u003d79508299>>u0026sa>>u003dU>>u0026ved>>u003d0ahUKEwjsyO2099OLAxV8-DgGHQUhJuEQ61gIFigS>>u0026usg>>u003dAOvVaw2SmlBqdZ9DbLjjrphyfzAm";"-7.7508214";"114.2343738";"https://maps.google.com/?cid=0x0:0xf820be384a69f2a2";""
"hotel";"hotel";"OYO 93381 New Asembagus 3";"Traditional Market Situbondo, 1 Jl.Raya Asembagus, Krajan, Wringinanom, Asembagus Kabupaten Situbondo Jawaban Timur, Trigonco Timur, Trigonco, Asembagus, Situbondo Regency, East Java 68373";"1 Jl.Raya Asembagus, Krajan, Wringinanom, Asembagus Kabupaten Situbondo Jawaban Timur, Trigonco Timur, Trigonco, Asembagus, Situbondo Regency";"JAWA TIMUR";"68373";"Indonesia";" 02129707601";"";"";"-7.7525246";"114.2344342";"https://maps.google.com/?cid=0x0:0xbc34fe3950bd14e";""
"hotel";"hotel";"RETA GUEST HOUSE";"39HR+44H, Jl. Pandean, Randu Agung, Wonorejo, Kec. Banyuputih, Kabupaten Situbondo, Jawa Timur 68374";"Jl. Pandean, Randu Agung, Wonorejo, Kec. Banyuputih, Kabupaten Situbondo";"JAWA TIMUR";"68374";"Indonesia";" 085975044542";"";"";"-7.9222225";"114.3898594";"https://maps.google.com/?cid=0x0:0x6266df7468b5977";""
"hotel";"hotel";"Baru Dua Beach Hotel";"Jl. Raya Situbondo No.KM. 12, Selogiri, Ketapang, Kec. Kalipuro, Kabupaten Banyuwangi, Jawa Timur 68455";"Selogiri, Ketapang, Kec. Kalipuro, Kabupaten Banyuwangi";"JAWA TIMUR";"68455";"Indonesia";" 082261908622";"";"/url?q>>u003dhttps://wa.me/6282261908622>>u0026opi>>u003d79508299>>u0026sa>>u003dU>>u0026ved>>u003d0ahUKEwjPys6199OLAxUc6jgGHb5-Dz0Q61gIFigS>>u0026usg>>u003dAOvVaw1TrbQAJ0axJOBnBOE5Z8q9";"-8.1025946";"114.4099174";"https://maps.google.com/?cid=0x0:0x6d39ff6adf92261e";""
"hotel";"hotel";"Baloeran Ecolodge";"Kendal, Wonorejo, Kec. Banyuputih, Kabupaten Situbondo, Jawa Timur 68374";"Wonorejo, Kec. Banyuputih, Kabupaten Situbondo";"JAWA TIMUR";"68374";"Indonesia";" 081230002612";"";"/url?q>>u003dhttp://www.baloeranecolodge.com/>>u0026opi>>u003d79508299>>u0026sa>>u003dU>>u0026ved>>u003d0ahUKEwig_PO199OLAxWCSWwGHQ5HM3wQ61gIFigS>>u0026usg>>u003dAOvVaw36z5G7BgRJdgMswLHbUhFY";"-7.9223971";"114.4000355";"https://maps.google.com/?cid=0x0:0xb7eb6e540df7485b";""
"hotel";"hotel";"Hotel asembagus";"66XM+GVJ, Jl. Raya Asembagus, Krajan, Wringinanom, Asembagus, Kabupaten Situbondo Jawaban Timur, Trigonco Timur, Trigonco, Kec. Asembagus, Kabupaten Situbondo, Jawa Timur 68373";"Jl. Raya Asembagus, Krajan, Wringinanom, Asembagus, Kabupaten Situbondo Jawaban Timur, Trigonco Timur, Trigonco, Kec. Asembagus, Kabupaten Situbondo";"JAWA TIMUR";"68373";"Indonesia";"";"";"";"-7.7511727";"114.2346446";"https://maps.google.com/?cid=0x0:0x57db25b6d10afc64";""
"hotel";"hotel";"Rosa’s Ecolodge";"Sidomulyo, Sumberwaru, Kec. Banyuputih, Kabupaten Situbondo, Jawa Timur 68374";"Sumberwaru, Kec. Banyuputih, Kabupaten Situbondo";"JAWA TIMUR";"68374";"Indonesia";" 082111127902";"";"";"-7.7758125";"114.3113125";"https://maps.google.com/?cid=0x0:0x1993fbd80b42d456";""
"hotel";"hotel";"Forest Ranger Homestay";"39HR+2CC, Jl. Pandean, Desa Wonorejo, Kec. Banyuputih, Randu Agung, Randuangung, Wonorejo, Kabupaten Situbondo, Jawa Timur 68374";"Jl. Pandean, Desa Wonorejo, Kec. Banyuputih, Randu Agung, Randuangung, Wonorejo, Kabupaten Situbondo";"JAWA TIMUR";"68374";"Indonesia";" 082145955780";"";"";"-7.9224433";"114.3910245";"https://maps.google.com/?cid=0x0:0x7d0c20d83e2ce5ee";""
"hotel";"hotel";"OYO 90065 Homestay Barokah Park";"Jl. Raya Banyuwangi, Krajan Timur, Trigonco, Kec. Asembagus, Kabupaten Situbondo, Jawa Timur 68373";"Krajan Timur, Trigonco, Kec. Asembagus, Kabupaten Situbondo";"JAWA TIMUR";"68373";"Indonesia";" 02129707601";"";"/url?q>>u003dhttps://www.oyorooms.com/ID/hotels-in-Situbondo/%3Futm_source%3DGMB_ID_SO%26utm_medium%3DOrganic%26utm_campaign%3DID_UDC004%26locale%3Did>>u0026opi>>u003d79508299>>u0026sa>>u003dU>>u0026ved>>u003d0ahUKEwjDt5K399OLAxWLTWcHHe8UJqMQ61gIFigS>>u0026usg>>u003dAOvVaw01MABUk0-sPX9uq9LUXH29";"-7.7511582";"114.2347421";"https://maps.google.com/?cid=0x0:0x490c905a860e910b";""
"hotel";"hotel";"Hotel Bintang";"Jl. Raya Banyuglugur, Bungor, Banyuglugur, Kec. Banyuglugur, Kabupaten Situbondo, Jawa Timur 68359";"Bungor, Banyuglugur, Kec. Banyuglugur, Kabupaten Situbondo";"JAWA TIMUR";"68359";"Indonesia";" 085236523636";"";"";"-7.725127";"113.618558";"https://maps.google.com/?cid=0x0:0x67796717b2784660";""
"hotel";"hotel";"Hotel Sido Muncul 1";"Jl. Raya Pasir Putih No.87 Pasir Putih, Bungatan, Pandansari, Pasir Putih, Situbondo, Kabupaten Situbondo, Jawa Timur 68358";"Bungatan, Pandansari, Pasir Putih, Situbondo, Kabupaten Situbondo";"JAWA TIMUR";"68358";"Indonesia";" 0338390320";"";"";"-7.6939079";"113.828651";"https://maps.google.com/?cid=0x0:0x4085f0af86eb8f75";""
"hotel";"hotel";"Hotel Sido Muncul 2";"8R29+GXH, Pasir Putih, Kec. Bungatan, Kabupaten Situbondo, Jawa Timur 68358";"Pasir Putih, Kec. Bungatan, Kabupaten Situbondo";"JAWA TIMUR";"68358";"Indonesia";" 085233222232";"";"";"-7.69868";"113.8199914";"https://maps.google.com/?cid=0x0:0xf6b6cfaf8b6c2224";""
"hotel";"hotel";"Near Resort Baluran";"3CJ4+246, Pandean, Wonorejo, Kec. Banyuputih, Kabupaten Situbondo, Jawa Timur 68374";"Pandean, Wonorejo, Kec. Banyuputih, Kabupaten Situbondo";"JAWA TIMUR";"68374";"Indonesia";"";"";"";"-7.91996";"114.4052569";"https://maps.google.com/?cid=0x0:0x2e19b37fbccbbade";""
"hotel";"hotel";"Hotel Baru";"Jl. Basuki Rahmat No.219, Mimbaan Utara, Mimbaan, Kec. Situbondo, Kabupaten Situbondo, Jawa Timur 68322";"Mimbaan Utara, Mimbaan, Kec. Situbondo, Kabupaten Situbondo";"JAWA TIMUR";"68322";"Indonesia";" 0338672190";"";"";"-7.7038154";"114.0111797";"https://maps.google.com/?cid=0x0:0xb8d75a8d9e8ca153";""
"hotel";"hotel";"Jawa Timur 68374";"Kec. Banyuputih, Kabupaten Situbondo, Jawa Timur";"Kabupaten Situbondo, Jawa Timur";"JAWA TIMUR";"";"Indonesia";"";"";"";"-7.8577079";"114.3816818";"https://maps.google.com/?cid=0x0:0x1c00c5eb5b542e10";""
"hotel";"hotel";"Rosali Hotel";"Jl. Pb. Sudirman No.52, Karangasem, Patokan, Kec. Situbondo, Kabupaten Situbondo, Jawa Timur 68312";"Karangasem, Patokan, Kec. Situbondo, Kabupaten Situbondo";"JAWA TIMUR";"68312";"Indonesia";" 087851515500";"";"";"-7.709963";"113.992539";"https://maps.google.com/?cid=0x0:0xd2702a109db4d9c1";""
"hotel";"hotel";"N/A";"";"";"JAWA TIMUR";"";"Indonesia";"";"";"";"";"";"https://maps.google.com/?cid=0x0:0xd2702a109db4d9c1%7C/g/1hm2n2qjd%7Cen-ID";""
"hotel";"hotel";"Home Stay Bunder";"Kemanduran, Bangsring, Kec. Wongsorejo, Kabupaten Banyuwangi, Jawa Timur 68453";"Bangsring, Kec. Wongsorejo, Kabupaten Banyuwangi";"JAWA TIMUR";"68453";"Indonesia";" 08155941059";"";"";"-8.0547386";"114.4305976";"https://maps.google.com/?cid=0x0:0x91fc2fb5bd138d9f";""
"hotel";"hotel";"N/A";"";"";"JAWA TIMUR";"";"Indonesia";"";"";"";"";"";"https://maps.google.com/?cid=0x0:0xe398dfdc5cc12c27%7C/g/1pzqtfg6p%7Cen-ID";""
"hotel";"hotel";"Hotel Mogasari";"Jl. Seroja No.51, Parse, Dawuhan, Kec. Situbondo, Kabupaten Situbondo, Jawa Timur 68311";"Parse, Dawuhan, Kec. Situbondo, Kabupaten Situbondo";"JAWA TIMUR";"68311";"Indonesia";" 02129707601";"";"/url?q>>u003dhttps://www.oyorooms.com/ID/90618/%3Futm_source%3DGMB_ID%26utm_medium%3DOrganic%26utm_campaign%3DID_UDC002%26latitude%3D-7.7062249184003%26longitude%3D114.001872763038%26locale%3Did>>u0026opi>>u003d79508299>>u0026sa>>u003dU>>u0026ved>>u003d0ahUKEwiZjOK599OLAxU7wzgGHZYdDAsQ61gIFigS>>u0026usg>>u003dAOvVaw1w6trYpWLxxodV-OFU4HAA";"-7.7059531";"114.0018785";"https://maps.google.com/?cid=0x0:0xe398dfdc5cc12c27";""
"hotel";"hotel";"Hotel San Sui";"Jl. Raya Pasir Putih, Gundit, Klatakan, Kec. Kendit, Kabupaten Situbondo, Jawa Timur 68352";"Gundit, Klatakan, Kec. Kendit, Kabupaten Situbondo";"JAWA TIMUR";"68352";"Indonesia";" 081336666660";"";"";"-7.6924637";"113.8880754";"https://maps.google.com/?cid=0x0:0x9dd315d6b42a7233";""
"hotel";"hotel";"Hotel Panarukan";"Kompa, Wringinanom, Kec. Panarukan, Kabupaten Situbondo, Jawa Timur 68351";"Wringinanom, Kec. Panarukan, Kabupaten Situbondo";"JAWA TIMUR";"68351";"Indonesia";" 02129707601";"";"/url?q>>u003dhttps://www.oyorooms.com/ID/hotels-in-Situbondo/%3Futm_source%3DGMB_ID_SO%26utm_medium%3DOrganic%26utm_campaign%3DID_UDC003%26locale%3Did>>u0026opi>>u003d79508299>>u0026sa>>u003dU>>u0026ved>>u003d0ahUKEwimx7q699OLAxWfS2cHHdBvKXsQ61gIFigS>>u0026usg>>u003dAOvVaw2h_rKE4L72r-MdRMoi1si3";"-7.6999057";"113.9498783";"https://maps.google.com/?cid=0x0:0x516d2b408563040d";""
"hotel";"hotel";"Lojikka Hotel";"Jl. KH Agus Salim No.73-75, Kenayan, Kec. Tulungagung, Kabupaten Tulungagung, Jawa Timur 66212";"Kenayan, Kec. Tulungagung, Kabupaten Tulungagung";"JAWA TIMUR";"66212";"Indonesia";" 0355332377";"";"";"-8.0606413";"111.9020309";"https://maps.google.com/?cid=0x0:0x7c25abe78b2af03b";""
"hotel";"hotel";"N/A";"";"";"JAWA TIMUR";"";"Indonesia";"";"";"";"";"";"https://maps.google.com/?cid=0x0:0x7c25abe78b2af03b%7C/g/1hdz8f_jf%7Cen-ID";""
"hotel";"hotel";"Karanggoso Indah Hotel Trenggalek";"Jl Tasikmadu Prigi, Karanggongso, Tasikmadu, Kec. Watulimo, Kabupaten Trenggalek, Jawa Timur";"Kabupaten Trenggalek, Jawa Timur";"JAWA TIMUR";"";"Indonesia";" 082257610465";"";"";"-8.3029329";"111.7447477";"https://maps.google.com/?cid=0x0:0x1980b187ceed846d";""
"hotel";"hotel";"N/A";"";"";"JAWA TIMUR";"";"Indonesia";"";"";"";"";"";"https://maps.google.com/?cid=0x0:0x399de9db71d00eb2%7C/g/1pzts03_d%7Cen-ID";""
"hotel";"hotel";"HOTEL PRIGI";"Jl. Raya Pantai Tasikmadu, Ketawang, Tasikmadu, Kec. Watulimo, Kabupaten Trenggalek, Jawa Timur 66382";"Ketawang, Tasikmadu, Kec. Watulimo, Kabupaten Trenggalek";"JAWA TIMUR";"66382";"Indonesia";" 081231632024";"";"";"-8.2856563";"111.7261934";"https://maps.google.com/?cid=0x0:0xde114d3d547dc62d";""
"hotel";"hotel";"Pondok Prigi";"Jl. Pantai Karanggongso Prigi, Karanggongso, Tasikmadu, Kec. Watulimo, Kabupaten Trenggalek, Jawa Timur 66382";"Karanggongso, Tasikmadu, Kec. Watulimo, Kabupaten Trenggalek";"JAWA TIMUR";"66382";"Indonesia";" >A>AReview>ASaya menginap selama 3 hari di hotel ini dan merasa sangat puas. Kamar nyaman, AC dingin, dan Wi-Fi stabil. Sarapan juga lezat dengan berbagai pilihan menu. Pelayanan staf sangat ramah dan profesional. Fasilitas keamanan dan parkir juga terjamin. Lokasinya strategis, dekat dengan pusat kota. Sangat cocok untuk liburan atau bisnis. 5/5!";"";"";"-8.3053705";"111.7466041";"https://maps.google.com/?cid=0x0:0x238a7fcfb1ede68b";""
"hotel";"hotel";"OYO 2978 Karanggoso Indah Hotel";"Karanggongso, Tasikmadu, Kec. Watulimo, Kabupaten Trenggalek, Jawa Timur";"Kabupaten Trenggalek, Jawa Timur";"JAWA TIMUR";"";"Indonesia";" 02129707601";"";"/url?q>>u003dhttps://www.oyorooms.com/ID/hotels-in-Trenggalek/%3Futm_source%3DGMB_ID_SO%26utm_medium%3DOrganic%26utm_campaign%3DID_ENG003%26locale%3Did>>u0026opi>>u003d79508299>>u0026sa>>u003dU>>u0026ved>>u003d0ahUKEwiG0pjM99OLAxXXTWwGHc5mJdsQ61gIFigS>>u0026usg>>u003dAOvVaw20-TUeiXHOcFqMRogiKjbl";"-8.302979";"111.7446092";"https://maps.google.com/?cid=0x0:0x189c96e02cfa0d7";""
"hotel";"hotel";"N/A";"";"";"JAWA TIMUR";"";"Indonesia";"";"";"";"";"";"https://maps.google.com/?cid=0x0:0x189c96e02cfa0d7%7C/g/11fp9hj7_z%7Cen-ID";""
"hotel";"hotel";"VIlLLA SHOFIA homestay pantai prigi";"Jl. Raya Pantai Prigi No.360, Ketawang, Tasikmadu, Kec. Watulimo, Kabupaten Trenggalek, Jawa Timur 66382";"Ketawang, Tasikmadu, Kec. Watulimo, Kabupaten Trenggalek";"JAWA TIMUR";"66382";"Indonesia";" 082132111169";"";"";"-8.2871102";"111.7225839";"https://maps.google.com/?cid=0x0:0x1ffd25e6cc64a294";""
"hotel";"hotel";"OYO 93628 Scorpion Guest House  Beach";"Jawa, Indonesia Pantai Gemah Tulungagung, Jalur Lintas Selatan, Keboireng, Tulungagung Regency, East Java 66382";"Indonesia Pantai Gemah Tulungagung, Jalur Lintas Selatan, Keboireng, Tulungagung Regency";"JAWA TIMUR";"66382";"Indonesia";" 02129707601";"";"/url?q>>u003dhttps://www.oyorooms.com/229757/>>u0026opi>>u003d79508299>>u0026sa>>u003dU>>u0026ved>>u003d0ahUKEwje14LN99OLAxWIVWwGHT0jJ3wQ61gIFigS>>u0026usg>>u003dAOvVaw1qc0tlGK6Rl8FjgPhGvONU";"-8.264888";"111.7698895";"https://maps.google.com/?cid=0x0:0xf564faff755b2367";""
"hotel";"hotel";"Anisa Homestay";"Soireng, Keboireng, Kec. Besuki, Kabupaten Tulungagung, Jawa Timur";"Kabupaten Tulungagung, Jawa Timur";"JAWA TIMUR";"";"Indonesia";" 02129707601";"";"/url?q>>u003dhttps://www.oyorooms.com/229748/>>u0026opi>>u003d79508299>>u0026sa>>u003dU>>u0026ved>>u003d0ahUKEwj42IDN99OLAxVd3DgGHQrzNXkQ61gIFigS>>u0026usg>>u003dAOvVaw35wvFySC4NKAST3UFAx8Qr";"-8.2625625";"111.7713125";"https://maps.google.com/?cid=0x0:0xd3fa96172498b33a";""
"hotel";"hotel";"Villa Dimar";"PPM4+27J, Ketok Lor, Margomulyo, Kec. Watulimo, Kabupaten Trenggalek, Jawa Timur 66382";"Ketok Lor, Margomulyo, Kec. Watulimo, Kabupaten Trenggalek";"JAWA TIMUR";"66382";"Indonesia";" 082142805605";"";"";"-8.2679108";"111.7063067";"https://maps.google.com/?cid=0x0:0xe96f66c6cb5ddcf1";""
"hotel";"hotel";"OYO Life 91177 Desa Wisata Duren Sari";"Unnamed Road, Tenggong, Sawahan, Watulimo, Trenggalek Regency, East Java 66382";"Tenggong, Sawahan, Watulimo, Trenggalek Regency";"JAWA TIMUR";"66382";"Indonesia";" 02129707601";"";"/url?q>>u003dhttps://www.oyorooms.com/ID/177517/%3Futm_source%3DGMB_ID%26utm_medium%3DOrganic%26utm_campaign%3DID_ENG005%26latitude%3D-8.26671688052947%26longitude%3D111.686788592488%26locale%3Did>>u0026opi>>u003d79508299>>u0026sa>>u003dU>>u0026ved>>u003d0ahUKEwiXjuTN99OLAxXt2DgGHb2MNvwQ61gIFigS>>u0026usg>>u003dAOvVaw0qAwaY-4mYRihsgOiAEkUU";"-8.2667185";"111.6867881";"https://maps.google.com/?cid=0x0:0xb2973eef837335aa";""
"hotel";"hotel";"Hotel Bintang";"Jl. Raya Banyuglugur, Bungor, Banyuglugur, Kec. Banyuglugur, Kabupaten Situbondo, Jawa Timur 68359";"Bungor, Banyuglugur, Kec. Banyuglugur, Kabupaten Situbondo";"JAWA TIMUR";"68359";"Indonesia";" 085236523636";"";"";"-7.725127";"113.618558";"https://maps.google.com/?cid=0x0:0x67796717b2784660";""
"hotel";"hotel";"Marisa Hotel  Cafe";"Jalan Raya No.Km. 146, Bungor, Banyuglugur, Kec. Banyuglugur, Kabupaten Situbondo, Jawa Timur";"Kabupaten Situbondo, Jawa Timur";"JAWA TIMUR";"";"Indonesia";" 0338892082";"";"";"-7.7250428";"113.6104266";"https://maps.google.com/?cid=0x0:0x7b7dcc5216e7f2d";""
"hotel";"hotel";"Hotel Baru";"Jl. Basuki Rahmat No.219, Mimbaan Utara, Mimbaan, Kec. Situbondo, Kabupaten Situbondo, Jawa Timur 68322";"Mimbaan Utara, Mimbaan, Kec. Situbondo, Kabupaten Situbondo";"JAWA TIMUR";"68322";"Indonesia";" 0338672190";"";"";"-7.7038154";"114.0111797";"https://maps.google.com/?cid=0x0:0xb8d75a8d9e8ca153";""
"hotel";"hotel";"Jawa Timur 66275";"Kec. Besuki, Kabupaten Tulungagung, Jawa Timur";"Kabupaten Tulungagung, Jawa Timur";"JAWA TIMUR";"";"Indonesia";"";"";"";"-8.2346795";"111.7853143";"https://maps.google.com/?cid=0x0:0x1c00c5eb5b541970";""
"hotel";"hotel";"Wonorejo Hotel mitra RedDoorz";"Jl. Raya Waduk Wonorejo, Bantengan, Mulyosari, Kec. Pagerwojo, Kabupaten Tulungagung, Jawa Timur 66262";"Bantengan, Mulyosari, Kec. Pagerwojo, Kabupaten Tulungagung";"JAWA TIMUR";"66262";"Indonesia";" 0895417300072";"";"";"-8.0170607";"111.8078833";"https://maps.google.com/?cid=0x0:0x16df4719b8ab9ec0";""
"hotel";"hotel";"Swaloh Resort  Spa";"Bendungan Wonorejo, Bantengan, Mulyosari, Kec. Pagerwojo, Kabupaten Tulungagung, Jawa Timur 66262";"Bantengan, Mulyosari, Kec. Pagerwojo, Kabupaten Tulungagung";"JAWA TIMUR";"66262";"Indonesia";" 0355335500";"";"";"-8.0105182";"111.8097632";"https://maps.google.com/?cid=0x0:0xffdcf6967ec1b4b3";""
"hotel";"hotel";"Batusuki Hotel";"Jl. Bukit Berbunga No.20 - 24, Sidomulyo, Kec. Batu, Kota Batu, Jawa Timur 65317";"Sidomulyo, Kec. Batu, Kota Batu";"JAWA TIMUR";"65317";"Indonesia";" 03415025350";"";"/url?q>>u003dhttp://batusukihotel.com/>>u0026opi>>u003d79508299>>u0026sa>>u003dU>>u0026ved>>u003d0ahUKEwjkk7nP99OLAxU7TGwGHXzyJX8Q61gIFigS>>u0026usg>>u003dAOvVaw0IoiaM6aWiDnPvCbR-0fgN";"-7.85948";"112.52712";"https://maps.google.com/?cid=0x0:0x363db9c8fe845600";""
"hotel";"hotel";"Alba Suites Home Stay";"Jl. Panglima Sudirman Gg. 8 No.3, Kepatihan, Kec. Tulungagung, Kabupaten Tulungagung, Jawa Timur 66219";"Kepatihan, Kec. Tulungagung, Kabupaten Tulungagung";"JAWA TIMUR";"66219";"Indonesia";" 02129707601";"";"/url?q>>u003dhttps://www.oyorooms.com/ID/91010/%3Futm_source%3DGMB_ID%26utm_medium%3DOrganic%26utm_campaign%3DID_LUN003%26latitude%3D-8.063002%26longitude%3D111.90788%26locale%3Did>>u0026opi>>u003d79508299>>u0026sa>>u003dU>>u0026ved>>u003d0ahUKEwjB0_LP99OLAxVOg2MGHTH6AI8Q61gIFigS>>u0026usg>>u003dAOvVaw2xVjptoJQwBch1ijUpKul0";"-8.0629967";"111.9078809";"https://maps.google.com/?cid=0x0:0xc12a1819ad94573c";""
"hotel";"hotel";"N/A";"";"";"JAWA TIMUR";"";"Indonesia";"";"";"";"";"";"https://maps.google.com/?cid=0x0:0xc12a1819ad94573c%7C/g/11cnd9qqxd%7Cen-ID";""
"hotel";"hotel";"Raya Resort Hotel";"Jl. Yos Sudarso No.21-23, Pakelan, Kec. Kota, Kota Kediri, Jawa Timur 64129";"Pakelan, Kec. Kota, Kota Kediri";"JAWA TIMUR";"64129";"Indonesia";"";"";"";"-7.8144926";"112.0086951";"https://maps.google.com/?cid=0x0:0x63248d4e78890c6d";""
"hotel";"hotel";"Super OYO 92433 Sirih Gading Family Guest House";"1, Jalan Hasanuddin, Kedungwaru, Kec. Tulungagung, Kabupaten Tulungagung, Jawa Timur 66223";"Jalan Hasanuddin, Kedungwaru, Kec. Tulungagung, Kabupaten Tulungagung";"JAWA TIMUR";"66223";"Indonesia";" 02129707601";"";"/url?q>>u003dhttps://www.oyorooms.com/ID/208188/%3Futm_source%3DGMB_ID%26utm_medium%3DOrganic%26utm_campaign%3DID_LUN021%26latitude%3D-8.0554085%26longitude%3D111.9163616%26locale%3Did>>u0026opi>>u003d79508299>>u0026sa>>u003dU>>u0026ved>>u003d0ahUKEwjl6djQ99OLAxWySGwGHbFAC3kQ61gIFigS>>u0026usg>>u003dAOvVaw2x6fawPg-1JRrEwP-mJCTD";"-8.0553476";"111.9163969";"https://maps.google.com/?cid=0x0:0xdaaf9082aa838ffe";""
"hotel";"hotel";"Narita Hotel Kota Tulungagung";"Jl. KH Agus Salim No.87-89, Kenayan, Kec. Tulungagung, Kabupaten Tulungagung, Jawa Timur 66212";"Kenayan, Kec. Tulungagung, Kabupaten Tulungagung";"JAWA TIMUR";"66212";"Indonesia";" 0355321608";"";"/url?q>>u003dhttp://www.naritahotel.com/>>u0026opi>>u003d79508299>>u0026sa>>u003dU>>u0026ved>>u003d0ahUKEwiz0ePQ99OLAxWu1TgGHUuJIhEQ61gIFigS>>u0026usg>>u003dAOvVaw3qPnz2bhlQFwmQIf3cFfCJ";"-8.060624";"111.900954";"https://maps.google.com/?cid=0x0:0xa6fd561200b816f9";""
"hotel";"hotel";"N/A";"";"";"JAWA TIMUR";"";"Indonesia";"";"";"";"";"";"https://maps.google.com/?cid=0x0:0xa6fd561200b816f9%7C/g/1tk20c5t%7Cen-ID";""
"hotel";"hotel";"Hotel Surakarta";"Jl. MH Thamrin No.5, RW.7, Kenayan, Kampungdalem, Kec. Tulungagung, Kabupaten Tulungagung, Jawa Timur 66212";"RW.7, Kenayan, Kampungdalem, Kec. Tulungagung, Kabupaten Tulungagung";"JAWA TIMUR";"66212";"Indonesia";" 0355321194";"";"";"-8.0625306";"111.9037038";"https://maps.google.com/?cid=0x0:0x280841ed907c8dbc";""
"hotel";"hotel";"Penginapan Trisna Patihan Resort Homestay  Resto";"Jl. Panglima Sudirman No.61-63, RT.001/RW.005, Kepatihan, Kec. Tulungagung, Kabupaten Tulungagung, Jawa Timur 66212";"RT.001/RW.005, Kepatihan, Kec. Tulungagung, Kabupaten Tulungagung";"JAWA TIMUR";"66212";"Indonesia";" 085281809991";"";"";"-8.0634535";"111.9074462";"https://maps.google.com/?cid=0x0:0x8f246e66c90ba0a5";""
"hotel";"hotel";"OYO 90730 Padekosan";"30 Jl. Jenderal Ahmad Yani Timur Gg. III, Bago, Kabupaten, Tulungagung, Tulungagung Regency, East Java 66217";"Bago, Kabupaten, Tulungagung, Tulungagung Regency";"JAWA TIMUR";"66217";"Indonesia";" 02129707601";"";"/url?q>>u003dhttps://www.oyorooms.com/ID/156261/%3Futm_source%3DGMB_ID%26utm_medium%3DOrganic%26utm_campaign%3DID_LUN010%26latitude%3D-8.06932071532715%26longitude%3D111.904271822423%26locale%3Did>>u0026opi>>u003d79508299>>u0026sa>>u003dU>>u0026ved>>u003d0ahUKEwjzzd7R99OLAxVryjgGHWwQEecQ61gIFigS>>u0026usg>>u003dAOvVaw1Kvk9VmpAhDxjtDX7GxX8_";"-8.0693207";"111.9042718";"https://maps.google.com/?cid=0x0:0x4ac93c28bf53d7aa";""
"hotel";"hotel";"Hotel Bintang";"Jl. Raya Banyuglugur, Bungor, Banyuglugur, Kec. Banyuglugur, Kabupaten Situbondo, Jawa Timur 68359";"Bungor, Banyuglugur, Kec. Banyuglugur, Kabupaten Situbondo";"JAWA TIMUR";"68359";"Indonesia";" 085236523636";"";"";"-7.725127";"113.618558";"https://maps.google.com/?cid=0x0:0x67796717b2784660";""
"hotel";"hotel";"Marisa Hotel  Cafe";"Jalan Raya No.Km. 146, Bungor, Banyuglugur, Kec. Banyuglugur, Kabupaten Situbondo, Jawa Timur";"Kabupaten Situbondo, Jawa Timur";"JAWA TIMUR";"";"Indonesia";" 0338892082";"";"";"-7.7250428";"113.6104266";"https://maps.google.com/?cid=0x0:0x7b7dcc5216e7f2d";""
"hotel";"hotel";"Hotel Baru";"Jl. Basuki Rahmat No.219, Mimbaan Utara, Mimbaan, Kec. Situbondo, Kabupaten Situbondo, Jawa Timur 68322";"Mimbaan Utara, Mimbaan, Kec. Situbondo, Kabupaten Situbondo";"JAWA TIMUR";"68322";"Indonesia";" 0338672190";"";"";"-7.7038154";"114.0111797";"https://maps.google.com/?cid=0x0:0xb8d75a8d9e8ca153";""
"hotel";"hotel";"Besuki";"Besuki, Kec. Besuki, Kabupaten Situbondo, Jawa Timur";"Kabupaten Situbondo, Jawa Timur";"JAWA TIMUR";"";"Indonesia";"";"";"";"-7.736798";"113.689003";"https://maps.google.com/?cid=0x0:0x18d509bbfec1ac43";""
"hotel";"hotel";"Ijen View Hotel Resort  Restaurant";"Jl. Kis Mangunsarkoro No.888, Tegalelo, Tamansari, Kec. Bondowoso, Kabupaten Bondowoso, Jawa Timur 68216";"Tegalelo, Tamansari, Kec. Bondowoso, Kabupaten Bondowoso";"JAWA TIMUR";"68216";"Indonesia";" 0332431000";"";"";"-7.9288961";"113.8241424";"https://maps.google.com/?cid=0x0:0x11adc39e7e6188f5";""
"hotel";"hotel";"CERAH HOTEL";"Jl. Raya Paiton No.km 137, Dusun Krajan, Sumberanyar, Kec. Paiton, Kabupaten Probolinggo, Jawa Timur 67291";"Dusun Krajan, Sumberanyar, Kec. Paiton, Kabupaten Probolinggo";"JAWA TIMUR";"67291";"Indonesia";" 0335773777";"";"";"-7.7179735";"113.5305014";"https://maps.google.com/?cid=0x0:0x3870c94ca203203c";""
"hotel";"hotel";"N/A";"";"";"JAWA TIMUR";"";"Indonesia";"";"";"";"";"";"https://maps.google.com/?cid=0x0:0x11adc39e7e6188f5%7C/g/1tczmskh%7Cen-ID";""
"hotel";"hotel";"Petani Hill Hotel";"Jl. Raya Kalianget, Bungor, Banyuglugur, Kec. Banyuglugur, Kabupaten Situbondo, Jawa Timur 68359";"Bungor, Banyuglugur, Kec. Banyuglugur, Kabupaten Situbondo";"JAWA TIMUR";"68359";"Indonesia";" 0338891303";"";"";"-7.7255985";"113.6115271";"https://maps.google.com/?cid=0x0:0x5655da6a0f96a67b";""
"hotel";"hotel";"Rosali Hotel";"Jl. Pb. Sudirman No.52, Karangasem, Patokan, Kec. Situbondo, Kabupaten Situbondo, Jawa Timur 68312";"Karangasem, Patokan, Kec. Situbondo, Kabupaten Situbondo";"JAWA TIMUR";"68312";"Indonesia";" 087851515500";"";"";"-7.709963";"113.992539";"https://maps.google.com/?cid=0x0:0xd2702a109db4d9c1";""
"hotel";"hotel";"N/A";"";"";"JAWA TIMUR";"";"Indonesia";"";"";"";"";"";"https://maps.google.com/?cid=0x0:0xd2702a109db4d9c1%7C/g/1hm2n2qjd%7Cen-ID";""
"hotel";"hotel";"Labuan Resort Pasir Putih Situbondo";"Karang Anyar, RT.007/RW.004, Kembang, Sambi Barat, Kabupaten Situbondo, Jawa Timur 68358";"RT.007/RW.004, Kembang, Sambi Barat, Kabupaten Situbondo";"JAWA TIMUR";"68358";"Indonesia";" 081252654443";"";"";"-7.687773";"113.8345392";"https://maps.google.com/?cid=0x0:0xba74576aa0be3118";""
"hotel";"hotel";"Jack East Villa";"Jl. Raya Pasir Putih No.04, Gunungsari, Bungatan, Kec. Bungatan, Kabupaten Situbondo, Jawa Timur 68358";"Gunungsari, Bungatan, Kec. Bungatan, Kabupaten Situbondo";"JAWA TIMUR";"68358";"Indonesia";" 081230839555";"";"/url?q>>u003dhttps://www.booking.com/hotel/id/jack-east-villa.html%3Faid%3D318615%3Blabel%3DEnglish_Indonesia_EN_ID_28546570705-G6blYurG1wv5nxy_NQuKzQS108255839185:pl:ta:p1:p2:ac:ap:neg:fi70402273418:tiaud-294889294693:dsa-209721654025:lp1007715:li:dec:dm%3Bsid%3Df71219b46abba2205efdddae3bb476be%3Bdest_id%3D-2691524%3Bdest_type%3Dcity%3Bdist%3D0%3Bgroup_adults%3D2%3Bgroup_children%3D0%3Bhapos%3D1%3Bhpos%3D1%3Bno_rooms%3D1%3Broom1%3DA,A%3Bsb_price_type%3Dtotal%3Bsr_order%3Dpopularity%3Bsrepoch%3D1604591294%3Bsrpvid%3D67c46f1e4144015a%3Btype%3Dtotal%3Bucfs%3D1%26%23hotelTmpl>>u0026opi>>u003d79508299>>u0026sa>>u003dU>>u0026ved>>u003d0ahUKEwjmwbn299OLAxUDxTgGHWdZHgkQ61gIFigS>>u0026usg>>u003dAOvVaw1kSs4DOFUC7bn8PKeTgcPN";"-7.7222671";"113.8010768";"https://maps.google.com/?cid=0x0:0xa93cc0855e3b738b";""
"hotel";"hotel";"The Pasir Putih Villas";"Karang Anyar RT. 007 RW. 004 Kembang Sambi Barat (Timur, Pasir Putih, Kec. Bungatan, Kabupaten Situbondo, Jawa Timur 68358";"Pasir Putih, Kec. Bungatan, Kabupaten Situbondo";"JAWA TIMUR";"68358";"Indonesia";" 081259039993";"";"";"-7.6879804";"113.8326363";"https://maps.google.com/?cid=0x0:0x82008ca39e5d6c2b";""
"hotel";"hotel";"Kampong Nelayan Resort";"Jl. Raya Surabaya-Situbondo No.Km 183, Kapong, Klatakan, Kec. Kendit, Kabupaten Situbondo, Jawa Timur 68352";"Kapong, Klatakan, Kec. Kendit, Kabupaten Situbondo";"JAWA TIMUR";"68352";"Indonesia";" 085320206738";"";"/url?q>>u003dhttp://kampongnelayanresort.com/>>u0026opi>>u003d79508299>>u0026sa>>u003dU>>u0026ved>>u003d0ahUKEwiJ5oX399OLAxUTTWwGHc-zAbwQ61gIFigS>>u0026usg>>u003dAOvVaw0HYRfAQh1Sy5QnF-HLclYu";"-7.6994388";"113.9080868";"https://maps.google.com/?cid=0x0:0xdbb35c36c2c0d1ab";""
"hotel";"hotel";"K'Pandawa Cottages Situbondo";"Jl. Raya Pasir Putih, Kali, Pasir Putih, Kec. Bungatan, Kabupaten Situbondo, Jawa Timur";"Kabupaten Situbondo, Jawa Timur";"JAWA TIMUR";"";"Indonesia";" 081232282255";"";"";"-7.6879615";"113.8328503";"https://maps.google.com/?cid=0x0:0xa8e7947db5868d97";""
"hotel";"hotel";"CERAH HOTEL";"Jl. Raya Paiton No.km 137, Dusun Krajan, Sumberanyar, Kec. Paiton, Kabupaten Probolinggo, Jawa Timur 67291";"Dusun Krajan, Sumberanyar, Kec. Paiton, Kabupaten Probolinggo";"JAWA TIMUR";"67291";"Indonesia";" 0335773777";"";"";"-7.7179735";"113.5305014";"https://maps.google.com/?cid=0x0:0x3870c94ca203203c";""
"hotel";"hotel";"Ijen View Hotel Resort  Restaurant";"Jl. Kis Mangunsarkoro No.888, Tegalelo, Tamansari, Kec. Bondowoso, Kabupaten Bondowoso, Jawa Timur 68216";"Tegalelo, Tamansari, Kec. Bondowoso, Kabupaten Bondowoso";"JAWA TIMUR";"68216";"Indonesia";" 0332431000";"";"/url?q>>u003dhttps://www.hotelijenview.com/>>u0026opi>>u003d79508299>>u0026sa>>u003dU>>u0026ved>>u003d0ahUKEwjC4uz399OLAxWYSmwGHUqpCzsQ61gIFigS>>u0026usg>>u003dAOvVaw1L2Mbp2Rfa4dhcIt9OQn8I";"-7.9288961";"113.8241424";"https://maps.google.com/?cid=0x0:0x11adc39e7e6188f5";""
"hotel";"hotel";"N/A";"";"";"JAWA TIMUR";"";"Indonesia";"";"";"";"";"";"https://maps.google.com/?cid=0x0:0x11adc39e7e6188f5%7C/g/1tczmskh%7Cen-ID";""
"hotel";"hotel";"N/A";"";"";"JAWA TIMUR";"";"Indonesia";"";"";"";"";"";"https://maps.google.com/?cid=0x0:0x44ef534e6ce120f9%7C/g/11fsk16vs4%7Cen-ID";""
"hotel";"hotel";"Hotel Wisda Rengganis";"Pandansari, Pasir Putih, Kec. Bungatan, Kabupaten Situbondo, Jawa Timur 68358";"Pasir Putih, Kec. Bungatan, Kabupaten Situbondo";"JAWA TIMUR";"68358";"Indonesia";" 081313233334";"";"/url?q>>u003dhttps://www.instagram.com/hotel.wisdarengganis/>>u0026opi>>u003d79508299>>u0026sa>>u003dU>>u0026ved>>u003d0ahUKEwiu5Kf499OLAxVgwTgGHeWlJ2cQ61gIFigS>>u0026usg>>u003dAOvVaw2k71oycugMzEspwu-2Tm7I";"-7.6952926";"113.8278044";"https://maps.google.com/?cid=0x0:0x44ef534e6ce120f9";""
"hotel";"hotel";"Wisma Bhayangkari Primkoppol";"Jl. Raya Pasir Putih No. 258 Mlandingan, Pandansari, Pasir Putih, Kec. Bungatan, Kabupaten Situbondo, Jawa Timur 68358";"Pandansari, Pasir Putih, Kec. Bungatan, Kabupaten Situbondo";"JAWA TIMUR";"68358";"Indonesia";" 02129707601";"";"";"-7.6943363";"113.8285484";"https://maps.google.com/?cid=0x0:0x91a13bfdc932d196";""
"hotel";"hotel";"N/A";"";"";"JAWA TIMUR";"";"Indonesia";"";"";"";"";"";"https://maps.google.com/?cid=0x0:0xdf0667af9e288f3e%7C/g/11h5qnr287%7Cen-ID";""
"hotel";"hotel";"Baratha Hotel  Resto";"Jl. Saliwiryo Pranowo Gg. Taman No.11, Pattian, Kotakulon, Kec. Bondowoso, Kabupaten Bondowoso, Jawa Timur 68213";"Pattian, Kotakulon, Kec. Bondowoso, Kabupaten Bondowoso";"JAWA TIMUR";"68213";"Indonesia";" 082228111778";"";"/url?q>>u003dhttp://www.barathahotel.com/>>u0026opi>>u003d79508299>>u0026sa>>u003dU>>u0026ved>>u003d0ahUKEwid4rP599OLAxWZSGcHHcW3K34Q61gIFigS>>u0026usg>>u003dAOvVaw07p1cC9x0ZJ-bYrMLNYtX-";"-7.9093255";"113.8103867";"https://maps.google.com/?cid=0x0:0xdf0667af9e288f3e";""
"hotel";"hotel";"Baru Dua Beach Hotel";"Jl. Raya Situbondo No.KM. 12, Selogiri, Ketapang, Kec. Kalipuro, Kabupaten Banyuwangi, Jawa Timur 68455";"Selogiri, Ketapang, Kec. Kalipuro, Kabupaten Banyuwangi";"JAWA TIMUR";"68455";"Indonesia";" 082261908622";"";"/url?q>>u003dhttps://wa.me/6282261908622>>u0026opi>>u003d79508299>>u0026sa>>u003dU>>u0026ved>>u003d0ahUKEwjY3b7599OLAxUGxTgGHbkkFBwQ61gIFigS>>u0026usg>>u003dAOvVaw2LRdTfi8Axel47RFx0bwcO";"-8.1025946";"114.4099174";"https://maps.google.com/?cid=0x0:0x6d39ff6adf92261e";""
