Category;Real Category;Business Name;Address;City;State;Postal Code;Country;Phone;Email;Website;Latitude;Longitude;Map Link;Details Link
"mall";"Minimarket";"Plaza Asia Tasikmalaya";"Jl. HZ. Mustofa No.326, Tugujaya, Kec. Cihideung, Kab. Tasikmalaya, Jawa Barat 46125";"Tugujaya, Kec. Cihideung, Kab. Tasikmalaya";"JAWA BARAT";"46125";"Indonesia";" 02652352215";"";"/url?q>>u003dhttps://www.asiatoserba.com/plaza-asia-tasikmalaya>>u0026opi>>u003d79508299>>u0026sa>>u003dU>>u0026ved>>u003d0ahUKEwiHxvqotdiLAxXXxzgGHdSyLFoQ61gIFigS>>u0026usg>>u003dAOvVaw3Vrt0WPSn6Q0p9NQe2q2ME";"-7.3430288";"108.2169357";"https://maps.google.com/?cid=0x0:0x911e5e4095a1b4a2";""
"mall";"Toko";"Toko Deran";"G8X3+CXH, Malatisuka, Kec. Gunungtanjung, Kabupaten Tasikmalaya, Jawa Barat 46168";"Malatisuka, Kec. Gunungtanjung, Kabupaten Tasikmalaya";"JAWA BARAT";"46168";"Indonesia";"";"";"";"-7.4514387";"108.3049839";"https://maps.google.com/?cid=0x0:0x87afe93a66b1484e";""
"mall";"Bengkel Sepeda Motor";"RINDU IBU MOTOR";"Giriwangi, Kec. Gunungtanjung, Kabupaten Tasikmalaya, Jawa Barat 46168";"Kec. Gunungtanjung, Kabupaten Tasikmalaya";"JAWA BARAT";"46168";"Indonesia";" 081224270681";"";"";"-7.4388336";"108.3004117";"https://maps.google.com/?cid=0x0:0xe3845d2c41baede";""
"mall";"Pusat Perbelanjaan";"Bangg Binn stokist Nasa Tasik";"Cibeber, Kec. Manonjaya, Kabupaten Tasikmalaya, Jawa Barat 46197";"Kec. Manonjaya, Kabupaten Tasikmalaya";"JAWA BARAT";"46197";"Indonesia";" 085222344772";"";"";"-7.3832948";"108.2969467";"https://maps.google.com/?cid=0x0:0x7a61e68e6e792d65";""
"mall";"Pemasok Perlengkapan Toko";"MR Service Hape";"Kp, Jl. Kalangsari No.Rt 03/02, Bojongsari, Kec. Gunungtanjung, Kabupaten Tasikmalaya, Jawa Barat 46418";"Jl. Kalangsari No.Rt 03/02, Bojongsari, Kec. Gunungtanjung, Kabupaten Tasikmalaya";"JAWA BARAT";"46418";"Indonesia";" 085722977013";"";"";"-7.3914719";"108.3155487";"https://maps.google.com/?cid=0x0:0x8d5c92904f280534";""
"mall";"Bengkel Sepeda Motor";"Bengkel motor dan Matrial Tb Mandiri";"G8X4+C2R, Unnamed Road, Malatisuka, Kec. Gunungtanjung, Kabupaten Tasikmalaya, Jawa Barat 46418";"Unnamed Road, Malatisuka, Kec. Gunungtanjung, Kabupaten Tasikmalaya";"JAWA BARAT";"46418";"Indonesia";"";"";"";"-7.4513782";"108.3050285";"https://maps.google.com/?cid=0x0:0xffb77d4d3e756f54";""
"mall";"Pusat Perbelanjaan";"Bilal Mart";"Batusumur, RT 07/02, Batusumur, Kec. Manonjaya, Kabupaten Tasikmalaya, Jawa Barat 46197";"RT 07/02, Batusumur, Kec. Manonjaya, Kabupaten Tasikmalaya";"JAWA BARAT";"46197";"Indonesia";" 085215847113";"";"";"-7.3885216";"108.3360468";"https://maps.google.com/?cid=0x0:0x37ff8d4e2572ab39";""
"mall";"Toko";"TOKO H. UJANG";"Gunungtanjung, Kec. Gunungtanjung, Kabupaten Tasikmalaya, Jawa Barat";"Kabupaten Tasikmalaya, Jawa Barat";"JAWA BARAT";"";"Indonesia";" 081223132444";"";"/url?q>>u003dhttps://bit.ly/3Clmntt>>u0026opi>>u003d79508299>>u0026sa>>u003dU>>u0026ved>>u003d0ahUKEwiPy5qrtdiLAxXtXGwGHQMDGpYQ61gIFigS>>u0026usg>>u003dAOvVaw3i_knCLQK9JrnINX6nqySZ";"-7.4088329";"108.2843684";"https://maps.google.com/?cid=0x0:0x7d4fc97c93bcf878";""
"mall";"Pusat Perbelanjaan";"Kiripik Kang Umai";"J8MV+VHP, Jl. Raya Cineam, Pasirbatang, Kec. Manonjaya, Kabupaten Tasikmalaya, Jawa Barat 46197";"Jl. Raya Cineam, Pasirbatang, Kec. Manonjaya, Kabupaten Tasikmalaya";"JAWA BARAT";"46197";"Indonesia";" 081394133604";"";"";"-7.3652842";"108.3439512";"https://maps.google.com/?cid=0x0:0x71f8169764fac49";""
"mall";"Pusat Perbelanjaan";"Bascil Buyung";"H7WF+XF3, Tamansari, Kec. Tamansari, Kab. Tasikmalaya, Jawa Barat 46196";"Tamansari, Kec. Tamansari, Kab. Tasikmalaya";"JAWA BARAT";"46196";"Indonesia";" 082321848412";"";"";"-7.4026218";"108.2736852";"https://maps.google.com/?cid=0x0:0x88f687b9ad0aaa8a";""
"mall";"Pusat Perbelanjaan";"Warung Azka Agni";"G8Q4+GMM, Unnamed Road, Malatisuka, Kec. Gunungtanjung, Kabupaten Tasikmalaya, Jawa Barat 46418";"Unnamed Road, Malatisuka, Kec. Gunungtanjung, Kabupaten Tasikmalaya";"JAWA BARAT";"46418";"Indonesia";"";"";"";"-7.4611656";"108.306676";"https://maps.google.com/?cid=0x0:0xa4cf11cba45348fc";""
"mall";"Toko";"Toko CAHAYA MANDIRI";"H8GV+RC4, Cikondang, Kec. Cineam, Kabupaten Tasikmalaya, Jawa Barat 46198";"Cikondang, Kec. Cineam, Kabupaten Tasikmalaya";"JAWA BARAT";"46198";"Indonesia";"";"";"";"-7.4229829";"108.3435835";"https://maps.google.com/?cid=0x0:0x8fa81e452448ec49";""
"mall";"Pusat Perbelanjaan";"Toko Q-ta";"H7F2+XJ2, Setiawargi, Kec. Tamansari, Kab. Tasikmalaya, Jawa Barat 46196";"Setiawargi, Kec. Tamansari, Kab. Tasikmalaya";"JAWA BARAT";"46196";"Indonesia";"";"";"";"-7.4251024";"108.2515243";"https://maps.google.com/?cid=0x0:0x9eec21589045144d";""
"mall";"Pusat Perbelanjaan";"Toko Baru AcessoriesToy's (AgenEceran)";"J7H9+644, Jl. Padati, Ciakar, Kec. Cibeureum, Kab. Tasikmalaya, Jawa Barat 46196";"Jl. Padati, Ciakar, Kec. Cibeureum, Kab. Tasikmalaya";"JAWA BARAT";"46196";"Indonesia";" 081563761280";"";"";"-7.3719997";"108.2678367";"https://maps.google.com/?cid=0x0:0xa98e558599c387f6";""
"mall";"Pasar";"Tajur Mekar Jaya";"H6PQ+CJ4, Jl. Setiawargi, Setiawargi, Kec. Tamansari, Kab. Tasikmalaya, Jawa Barat 46196";"Jl. Setiawargi, Setiawargi, Kec. Tamansari, Kab. Tasikmalaya";"JAWA BARAT";"46196";"Indonesia";"";"";"";"-7.413989";"108.2390714";"https://maps.google.com/?cid=0x0:0x68327d2dc72843ac";""
"mall";"Pasar";"Pasar Coblong";"F7MC+RX2, Jl. Raya Salopa, Kawitan, Kec. Salopa, Kabupaten Tasikmalaya, Jawa Barat 46192";"Jl. Raya Salopa, Kawitan, Kec. Salopa, Kabupaten Tasikmalaya";"JAWA BARAT";"46192";"Indonesia";"";"";"";"-7.5154753";"108.2724007";"https://maps.google.com/?cid=0x0:0x26303c1a9b7e930a";""
"mall";"Pusat Perbelanjaan";"Ahzami Store Official";"Jl. Raya Salopa Jl. Raya Manonjaya, Kawitan, Kec. Salopa, Kabupaten Tasikmalaya, Jawa Barat 46192";"Kawitan, Kec. Salopa, Kabupaten Tasikmalaya";"JAWA BARAT";"46192";"Indonesia";" 085223320280";"";"";"-7.5048011";"108.2685467";"https://maps.google.com/?cid=0x0:0x203eb860ad53a4bd";""
"mall";"Pom bensin/SPBU";"POM MINI (dang Ismail)";"Unnamed Road, Cisarua, Kec. Cineam, Kabupaten Tasikmalaya, Jawa Barat 46198";"Cisarua, Kec. Cineam, Kabupaten Tasikmalaya";"JAWA BARAT";"46198";"Indonesia";" 085294127755";"";"";"-7.4586316";"108.3532687";"https://maps.google.com/?cid=0x0:0x96b6adfeddf147b8";""
"mall";"mall";"Jawa Barat 46168";"Malatisuka, Kec. Gunungtanjung, Kabupaten Tasikmalaya, Jawa Barat";"Kabupaten Tasikmalaya, Jawa Barat";"JAWA BARAT";"";"Indonesia";"";"";"";"-7.4521442";"108.3148665";"https://maps.google.com/?cid=0x0:0x442c29a706bf4909";""
"mall";"Pusat Perbelanjaan";"Toko nadia";"83PG+28W, Bantarkalong, Kec. Bantarkalong, Kabupaten Tasikmalaya, Jawa Barat";"Kabupaten Tasikmalaya, Jawa Barat";"JAWA BARAT";"";"Indonesia";" 085861208489";"";"";"-7.6648753";"108.0758354";"https://maps.google.com/?cid=0x0:0xc7dba2a9721d7d24";""
"mall";"Pusat Perbelanjaan";"Sentra Golok Ki Behor";"GCC2+4XC, Citalahab, Kec. Karangjaya, Kabupaten Tasikmalaya, Jawa Barat 46198";"Citalahab, Kec. Karangjaya, Kabupaten Tasikmalaya";"JAWA BARAT";"46198";"Indonesia";"";"";"";"-7.4796888";"108.4023843";"https://maps.google.com/?cid=0x0:0x3f20822fad897630";""
"mall";"Toko";"Jl bantarsari";"Jl. Bantarsari No.014, RT./RW/RW.05/05, Bantarsari, Kec. Bungursari, Kab. Tasikmalaya, Jawa Barat 46151";"RT./RW/RW.05/05, Bantarsari, Kec. Bungursari, Kab. Tasikmalaya";"JAWA BARAT";"46151";"Indonesia";"";"";"";"-7.3224992";"108.1898186";"https://maps.google.com/?cid=0x0:0x42ae81cfd7f77b6e";""
"mall";"Toko bahan makanan";"titan mart";"J85Q+XC8, Unnamed Road, Batusumur, Kec. Manonjaya, Kabupaten Tasikmalaya, Jawa Barat 46197";"Unnamed Road, Batusumur, Kec. Manonjaya, Kabupaten Tasikmalaya";"JAWA BARAT";"46197";"Indonesia";" 085795181821";"";"";"-7.3900808";"108.3385728";"https://maps.google.com/?cid=0x0:0x7002729a0eee8814";""
"mall";"Toko";"warung babeh pengkolan";"Mugarsari, Kec. Tamansari, Kab. Tasikmalaya, Jawa Barat 46196";"Kec. Tamansari, Kab. Tasikmalaya";"JAWA BARAT";"46196";"Indonesia";" 089655293446";"";"";"-7.3818654";"108.2569766";"https://maps.google.com/?cid=0x0:0x56286a398da1004e";""
"mall";"Toko umum";"Pasir angin";"G6RF+4W3, Unnamed Road, Neglasari, Kec. Jatiwaras, Kabupaten Tasikmalaya, Jawa Barat 46185";"Unnamed Road, Neglasari, Kec. Jatiwaras, Kabupaten Tasikmalaya";"JAWA BARAT";"46185";"Indonesia";"";"";"";"-7.4597479";"108.2247889";"https://maps.google.com/?cid=0x0:0x3f49f202565524ea";""
"mall";"Pusat Perbelanjaan";"Bahrul Ulum ( Pk. B.U )";"G7P8+R89, Kaputihan, Kec. Jatiwaras, Kabupaten Tasikmalaya, Jawa Barat 46185";"Kaputihan, Kec. Jatiwaras, Kabupaten Tasikmalaya";"JAWA BARAT";"46185";"Indonesia";" 085318592849";"";"";"-7.4629668";"108.2658494";"https://maps.google.com/?cid=0x0:0xe28fb9f59f69e958";""
"mall";"Toko Swalayan";"Warung atang";"G6MJ+PCF, Jl. Translok, Neglasari, Kec. Jatiwaras, Kabupaten Tasikmalaya, Jawa Barat 46185";"Jl. Translok, Neglasari, Kec. Jatiwaras, Kabupaten Tasikmalaya";"JAWA BARAT";"46185";"Indonesia";" 085315210434";"";"";"-7.4656999";"108.2310599";"https://maps.google.com/?cid=0x0:0x23e61cd097637cb0";""
"mall";"Pusat Perbelanjaan";"Transmart Tasikmalaya";"Jl. Ir. H. Juanda No.82, Panglayungan, Kec. Bungursari, Kab. Tasikmalaya, Jawa Barat 46134";"Panglayungan, Kec. Bungursari, Kab. Tasikmalaya";"JAWA BARAT";"46134";"Indonesia";"";"";"";"-7.3178149";"108.1993367";"https://maps.google.com/?cid=0x0:0xa4bda160ea596102";""
"mall";"Pusat Perbelanjaan";"TOHA KULANGKALING";"Jl. Raya Pamijahan No.2, Pamijahan, Kec. Bantarkalong, Kabupaten Tasikmalaya, Jawa Barat 46187";"Pamijahan, Kec. Bantarkalong, Kabupaten Tasikmalaya";"JAWA BARAT";"46187";"Indonesia";" 085321955626";"";"";"-7.57002";"108.0629087";"https://maps.google.com/?cid=0x0:0x4024e20b3a49ba0c";""
"mall";"Pusat Perbelanjaan";"TOHA KULANGKALING";"Jl. Raya Pamijahan No.2, Pamijahan, Kec. Bantarkalong, Kabupaten Tasikmalaya, Jawa Barat 46187";"Pamijahan, Kec. Bantarkalong, Kabupaten Tasikmalaya";"JAWA BARAT";"46187";"Indonesia";" 085321955626";"";"";"-7.57002";"108.0629087";"https://maps.google.com/?cid=0x0:0x4024e20b3a49ba0c";""
"mall";"Pusat Perbelanjaan";"TOKO PADALOMA berkah";"Simpang, Kec. Bantarkalong, Kabupaten Tasikmalaya, Jawa Barat 46187";"Kec. Bantarkalong, Kabupaten Tasikmalaya";"JAWA BARAT";"46187";"Indonesia";" 081220066553";"";"";"-7.6232454";"108.1049134";"https://maps.google.com/?cid=0x0:0x50ef69ff0a2a23ae";""
"mall";"Pusat Perbelanjaan";"Tb. Mulya Jaya Bubuay";"F348+C8P, Jalan Raya Pamijahan, Wangunsari, Bantarkalong, Tasikmalaya Regency, West Java 46187";"Jalan Raya Pamijahan, Wangunsari, Bantarkalong, Tasikmalaya Regency";"JAWA BARAT";"46187";"Indonesia";" 082242540824";"";"";"-7.5439242";"108.0658206";"https://maps.google.com/?cid=0x0:0xa44071fc42d01ef7";""
"mall";"Pusat Perbelanjaan";"H. Nurdin";"F3CM+7F5, Unnamed Road, Wakap, Kec. Bantarkalong, Kabupaten Tasikmalaya, Jawa Barat 46187";"Unnamed Road, Wakap, Kec. Bantarkalong, Kabupaten Tasikmalaya";"JAWA BARAT";"46187";"Indonesia";"";"";"";"-7.5293635";"108.0837398";"https://maps.google.com/?cid=0x0:0x99da114719b41cf8";""
"mall";"Pusat Perbelanjaan";"M.S.Y Shop";"Kp Mekarsari 01/09, Hegarwangi, Kec. Bantarkalong, Kabupaten Tasikmalaya, Jawa Barat 46187";"Hegarwangi, Kec. Bantarkalong, Kabupaten Tasikmalaya";"JAWA BARAT";"46187";"Indonesia";" 085216402889";"";"";"-7.6068917";"108.0895066";"https://maps.google.com/?cid=0x0:0xf997e732bf5efd8c";""
"mall";"Toko bahan makanan";"Warung Najmudin";"Unnamed Road, Wakap, Kec. Bantarkalong, Kabupaten Tasikmalaya, Jawa Barat 46187";"Wakap, Kec. Bantarkalong, Kabupaten Tasikmalaya";"JAWA BARAT";"46187";"Indonesia";" 085316962632";"";"";"-7.5326299";"108.0847551";"https://maps.google.com/?cid=0x0:0xe46f28e3c9b112b4";""
"mall";"Pusat Perbelanjaan";"Kios Huda";"C3JM+WFJ, kaum, Pamijahan, Kec. Bantarkalong, Kabupaten Tasikmalaya, Jawa Barat 46187";"kaum, Pamijahan, Kec. Bantarkalong, Kabupaten Tasikmalaya";"JAWA BARAT";"46187";"Indonesia";" 085320193050";"";"";"-7.5676509";"108.0836379";"https://maps.google.com/?cid=0x0:0x78ec3f1abb0a0259";""
"mall";"Toko bahan makanan";"Warung Bi Juju";"83RH+RFF, Bantarkalong, Kec. Cipatujah, Kabupaten Tasikmalaya, Jawa Barat 46187";"Bantarkalong, Kec. Cipatujah, Kabupaten Tasikmalaya";"JAWA BARAT";"46187";"Indonesia";"";"";"";"-7.6579279";"108.0786804";"https://maps.google.com/?cid=0x0:0xc94550b6b17c14f7";""
"mall";"Toko Pakaian";"KaryajayaHardolin";"Jl. Cibuntu, Karyabakti, Kec. Parungponteng, Kabupaten Tasikmalaya, Jawa Barat 46185";"Karyabakti, Kec. Parungponteng, Kabupaten Tasikmalaya";"JAWA BARAT";"46185";"Indonesia";"";"";"";"-7.5184185";"108.115145";"https://maps.google.com/?cid=0x0:0x15b762902aa48523";""
"mall";"Pusat Perbelanjaan";"Toko Didin";"C3JC+Q8R, Jl. Raya Pamijahan, Hegarwangi, Kec. Bantarkalong, Kabupaten Tasikmalaya, Jawa Barat 46187";"Jl. Raya Pamijahan, Hegarwangi, Kec. Bantarkalong, Kabupaten Tasikmalaya";"JAWA BARAT";"46187";"Indonesia";" 082216880571";"";"";"-7.5680036";"108.0707596";"https://maps.google.com/?cid=0x0:0x482b36b18e1b4342";""
"mall";"Pusat Perbelanjaan";"Warung Pertigaan Mak Koi Burujul Kebon Kalapa";"939F+PQC, Unnamed Road, Sirnagalih, Kec. Bantarkalong, Kabupaten Tasikmalaya, Jawa Barat 46187";"Unnamed Road, Sirnagalih, Kec. Bantarkalong, Kabupaten Tasikmalaya";"JAWA BARAT";"46187";"Indonesia";" 08121960669";"";"";"-7.6306774";"108.0743772";"https://maps.google.com/?cid=0x0:0xafa48b6dd1f20b57";""
"mall";"Pusat Perbelanjaan";"Warung Ibu Tijah";"932C+XM8, Bantarkalong, Kec. Cipatujah, Kabupaten Tasikmalaya, Jawa Barat 46189";"Bantarkalong, Kec. Cipatujah, Kabupaten Tasikmalaya";"JAWA BARAT";"46189";"Indonesia";" 085221873776";"";"";"-7.6475814";"108.0716957";"https://maps.google.com/?cid=0x0:0x4597c3a68c3a008b";""
"mall";"Pusat Perbelanjaan";"Kios ADRIAN";"Pamijahan, Kec. Bantarkalong, Kabupaten Tasikmalaya, Jawa Barat 46187";"Kec. Bantarkalong, Kabupaten Tasikmalaya";"JAWA BARAT";"46187";"Indonesia";" 082129654567";"";"";"-7.5700306";"108.0844623";"https://maps.google.com/?cid=0x0:0x176e4577c85807c";""
"mall";"Pusat Perbelanjaan";"Toko nadia";"83PG+28W, Bantarkalong, Kec. Bantarkalong, Kabupaten Tasikmalaya, Jawa Barat";"Kabupaten Tasikmalaya, Jawa Barat";"JAWA BARAT";"";"Indonesia";" 085861208489";"";"";"-7.6648753";"108.0758354";"https://maps.google.com/?cid=0x0:0xc7dba2a9721d7d24";""
"mall";"Toko";"Warung Ibu Nonoh LBS";"Kampung lembursawah, Wangunsari, Kec. Bantarkalong, Kabupaten Tasikmalaya, Jawa Barat 46187";"Wangunsari, Kec. Bantarkalong, Kabupaten Tasikmalaya";"JAWA BARAT";"46187";"Indonesia";" 082320090099";"";"";"-7.5402835";"108.0391729";"https://maps.google.com/?cid=0x0:0xab0ce2b98194d80b";""
"mall";"Toko Pakaian";"Muslim kulang-kaling";"C3GQ+QCV, Pamijahan, Kec. Bantarkalong, Kabupaten Tasikmalaya, Jawa Barat 46187";"Pamijahan, Kec. Bantarkalong, Kabupaten Tasikmalaya";"JAWA BARAT";"46187";"Indonesia";" 081322923602";"";"";"-7.5730145";"108.0885544";"https://maps.google.com/?cid=0x0:0x8bad85fa9eca7fd4";""
"mall";"Pusat Perbelanjaan";"AZKIRA GROSIR";"94G4+HM4, Simpang, Kec. Bantarkalong, Kabupaten Tasikmalaya, Jawa Barat 46187";"Simpang, Kec. Bantarkalong, Kabupaten Tasikmalaya";"JAWA BARAT";"46187";"Indonesia";" 082315378933";"";"";"-7.623613";"108.1067107";"https://maps.google.com/?cid=0x0:0xa75c601ad8f533fe";""
"mall";"Pusat Perbelanjaan";"Subur Tani";"F37Q+6Q5, Sukamaju, Kec. Bantarkalong, Kabupaten Tasikmalaya, Jawa Barat 46187";"Sukamaju, Kec. Bantarkalong, Kabupaten Tasikmalaya";"JAWA BARAT";"46187";"Indonesia";" 085320830974";"";"";"-7.5369775";"108.0894796";"https://maps.google.com/?cid=0x0:0x1d67371d60b29861";""
"mall";"Toko Pakaian";"Toko mukena murah";"C3JG+CMH, Pamijahan, Kec. Bantarkalong, Kabupaten Tasikmalaya, Jawa Barat 46187";"Pamijahan, Kec. Bantarkalong, Kabupaten Tasikmalaya";"JAWA BARAT";"46187";"Indonesia";" 085320976838";"";"";"-7.5689332";"108.0767361";"https://maps.google.com/?cid=0x0:0x1ac2ebfed49a7726";""
"mall";"mall";"Jawa Barat 46187";"Kabupaten Tasikmalaya, Jawa Barat";"Kabupaten Tasikmalaya, Jawa Barat";"JAWA BARAT";"";"Indonesia";"";"";"";"-7.6227236";"108.0835783";"https://maps.google.com/?cid=0x0:0xb1766fa5314808da";""
"mall";"Toko Perhiasan";"Toko Emas Cantik";"C3HM+WQF, Depan Terminal, Pamijahan, Kec. Bantarkalong, Kabupaten Tasikmalaya, Jawa Barat 46187";"Depan Terminal, Pamijahan, Kec. Bantarkalong, Kabupaten Tasikmalaya";"JAWA BARAT";"46187";"Indonesia";" 083120247522";"";"";"-7.5701941";"108.0844101";"https://maps.google.com/?cid=0x0:0xccf6fce24e6d6a3c";""
"mall";"Toko";"Warkop Katineung";"F3GP+7W6, mekarjaya, Wakap, Kec. Bantarkalong, Kabupaten Tasikmalaya, Jawa Barat 46187";"mekarjaya, Wakap, Kec. Bantarkalong, Kabupaten Tasikmalaya";"JAWA BARAT";"46187";"Indonesia";" 081395498303";"";"";"-7.5243339";"108.0872749";"https://maps.google.com/?cid=0x0:0x3e0dd8331cf21808";""
"mall";"Pusat Perbelanjaan";"TOHA KULANGKALING";"Jl. Raya Pamijahan No.2, Pamijahan, Kec. Bantarkalong, Kabupaten Tasikmalaya, Jawa Barat 46187";"Pamijahan, Kec. Bantarkalong, Kabupaten Tasikmalaya";"JAWA BARAT";"46187";"Indonesia";" 085321955626";"";"";"-7.57002";"108.0629087";"https://maps.google.com/?cid=0x0:0x4024e20b3a49ba0c";""
"mall";"Pusat Perbelanjaan";"M.S.Y Shop";"Kp Mekarsari 01/09, Hegarwangi, Kec. Bantarkalong, Kabupaten Tasikmalaya, Jawa Barat 46187";"Hegarwangi, Kec. Bantarkalong, Kabupaten Tasikmalaya";"JAWA BARAT";"46187";"Indonesia";" 085216402889";"";"";"-7.6068917";"108.0895066";"https://maps.google.com/?cid=0x0:0xf997e732bf5efd8c";""
"mall";"Pusat Perbelanjaan";"TOKO PADALOMA berkah";"Simpang, Kec. Bantarkalong, Kabupaten Tasikmalaya, Jawa Barat 46187";"Kec. Bantarkalong, Kabupaten Tasikmalaya";"JAWA BARAT";"46187";"Indonesia";" 081220066553";"";"";"-7.6232454";"108.1049134";"https://maps.google.com/?cid=0x0:0x50ef69ff0a2a23ae";""
"mall";"Toko Pakaian";"Muslim kulang-kaling";"C3GQ+QCV, Pamijahan, Kec. Bantarkalong, Kabupaten Tasikmalaya, Jawa Barat 46187";"Pamijahan, Kec. Bantarkalong, Kabupaten Tasikmalaya";"JAWA BARAT";"46187";"Indonesia";" 081322923602";"";"";"-7.5730145";"108.0885544";"https://maps.google.com/?cid=0x0:0x8bad85fa9eca7fd4";""
"mall";"Pusat Perbelanjaan";"Toha cilumbu satu";"C3H7+X5V, Mekarlaksana, Kec. Culamega, Kabupaten Tasikmalaya, Jawa Barat 46188";"Mekarlaksana, Kec. Culamega, Kabupaten Tasikmalaya";"JAWA BARAT";"46188";"Indonesia";" 085321955626";"";"";"-7.570023";"108.0629141";"https://maps.google.com/?cid=0x0:0x3994f7fd89af8d0c";""
"mall";"Pusat Perbelanjaan";"Tb. Mulya Jaya Bubuay";"F348+C8P, Jalan Raya Pamijahan, Wangunsari, Bantarkalong, Tasikmalaya Regency, West Java 46187";"Jalan Raya Pamijahan, Wangunsari, Bantarkalong, Tasikmalaya Regency";"JAWA BARAT";"46187";"Indonesia";" 082242540824";"";"";"-7.5439242";"108.0658206";"https://maps.google.com/?cid=0x0:0xa44071fc42d01ef7";""
"mall";"Pusat Perbelanjaan";"Toko Didin";"C3JC+Q8R, Jl. Raya Pamijahan, Hegarwangi, Kec. Bantarkalong, Kabupaten Tasikmalaya, Jawa Barat 46187";"Jl. Raya Pamijahan, Hegarwangi, Kec. Bantarkalong, Kabupaten Tasikmalaya";"JAWA BARAT";"46187";"Indonesia";" 082216880571";"";"";"-7.5680036";"108.0707596";"https://maps.google.com/?cid=0x0:0x482b36b18e1b4342";""
"mall";"Pusat Perbelanjaan";"Kios Huda";"C3JM+WFJ, kaum, Pamijahan, Kec. Bantarkalong, Kabupaten Tasikmalaya, Jawa Barat 46187";"kaum, Pamijahan, Kec. Bantarkalong, Kabupaten Tasikmalaya";"JAWA BARAT";"46187";"Indonesia";" 085320193050";"";"";"-7.5676509";"108.0836379";"https://maps.google.com/?cid=0x0:0x78ec3f1abb0a0259";""
"mall";"Minimarket";"Plaza Asia Tasikmalaya";"Jl. HZ. Mustofa No.326, Tugujaya, Kec. Cihideung, Kab. Tasikmalaya, Jawa Barat 46125";"Tugujaya, Kec. Cihideung, Kab. Tasikmalaya";"JAWA BARAT";"46125";"Indonesia";" 02652352215";"";"/url?q>>u003dhttps://www.asiatoserba.com/plaza-asia-tasikmalaya>>u0026opi>>u003d79508299>>u0026sa>>u003dU>>u0026ved>>u003d0ahUKEwjcxtrgtdiLAxVGSmwGHd2zFYQQ61gIFigS>>u0026usg>>u003dAOvVaw3qrMm3IbpYLJ02hNCEoGpP";"-7.3430288";"108.2169357";"https://maps.google.com/?cid=0x0:0x911e5e4095a1b4a2";""
"mall";"Toko umum";"Berkah jaya";"C3C7+FRX, Unnamed Road, Mekarlaksana, Kec. Culamega, Kabupaten Tasikmalaya, Jawa Barat 46188";"Unnamed Road, Mekarlaksana, Kec. Culamega, Kabupaten Tasikmalaya";"JAWA BARAT";"46188";"Indonesia";"";"";"";"-7.5787734";"108.0645966";"https://maps.google.com/?cid=0x0:0xa30ce9cc3b0a988e";""
"mall";"Pusat Perbelanjaan";"Warung Ibu Tijah";"932C+XM8, Bantarkalong, Kec. Cipatujah, Kabupaten Tasikmalaya, Jawa Barat 46189";"Bantarkalong, Kec. Cipatujah, Kabupaten Tasikmalaya";"JAWA BARAT";"46189";"Indonesia";" 085221873776";"";"";"-7.6475814";"108.0716957";"https://maps.google.com/?cid=0x0:0x4597c3a68c3a008b";""
"mall";"Toko";"Warung Ibu Nonoh LBS";"Kampung lembursawah, Wangunsari, Kec. Bantarkalong, Kabupaten Tasikmalaya, Jawa Barat 46187";"Wangunsari, Kec. Bantarkalong, Kabupaten Tasikmalaya";"JAWA BARAT";"46187";"Indonesia";" 082320090099";"";"";"-7.5402835";"108.0391729";"https://maps.google.com/?cid=0x0:0xab0ce2b98194d80b";""
"mall";"Pusat Perbelanjaan";"Bahana Store By Catatan 76";"Mekarsari rt/rw 014/004, Nagrog, Kec. Cipatujah, Kabupaten Tasikmalaya, Jawa Barat 46189";"Nagrog, Kec. Cipatujah, Kabupaten Tasikmalaya";"JAWA BARAT";"46189";"Indonesia";" 085310489696";"";"/url?q>>u003dhttps://youtu.be/QQiSD05k-2M>>u0026opi>>u003d79508299>>u0026sa>>u003dU>>u0026ved>>u003d0ahUKEwiGxI7itdiLAxV41TgGHVqBGTIQ61gIFigS>>u0026usg>>u003dAOvVaw3xAzP70XQJ1-HeIWxIZwHW";"-7.6728606";"108.0254957";"https://maps.google.com/?cid=0x0:0x1eee2a8a01071258";""
"mall";"Pusat Perbelanjaan";"RUSDI RAHAYU";"Unnamed Road, Cipicung, Kec. Culamega, Kabupaten Tasikmalaya, Jawa Barat 46188";"Cipicung, Kec. Culamega, Kabupaten Tasikmalaya";"JAWA BARAT";"46188";"Indonesia";" 082130693121";"";"";"-7.5636199";"108.039342";"https://maps.google.com/?cid=0x0:0xc39ab469a10ca0e5";""
"mall";"Toko Perhiasan";"Toko Emas Cantik";"C3HM+WQF, Depan Terminal, Pamijahan, Kec. Bantarkalong, Kabupaten Tasikmalaya, Jawa Barat 46187";"Depan Terminal, Pamijahan, Kec. Bantarkalong, Kabupaten Tasikmalaya";"JAWA BARAT";"46187";"Indonesia";" 083120247522";"";"";"-7.5701941";"108.0844101";"https://maps.google.com/?cid=0x0:0xccf6fce24e6d6a3c";""
"mall";"Toko Pakaian";"Toko mukena murah";"C3JG+CMH, Pamijahan, Kec. Bantarkalong, Kabupaten Tasikmalaya, Jawa Barat 46187";"Pamijahan, Kec. Bantarkalong, Kabupaten Tasikmalaya";"JAWA BARAT";"46187";"Indonesia";" 085320976838";"";"";"-7.5689332";"108.0767361";"https://maps.google.com/?cid=0x0:0x1ac2ebfed49a7726";""
"mall";"Pusat Perbelanjaan";"Toko Al-Fajri";"C3JM+MCQ, Jl. Pamijahan Bongas, RT.11/RW.02, Pamijahan, Kec. Bantarkalong, Kabupaten Tasikmalaya";"Kabupaten Tasikmalaya, Jawa Barat";"JAWA BARAT";"";"Indonesia";" 085220273440";"";"";"-7.5682882";"108.0836098";"https://maps.google.com/?cid=0x0:0x7e59d0dded00cb7a";""
"mall";"Pusat Perbelanjaan";"Pasar Patmah Desa Wakap";"F3FM+X7W, Jl. Kubang Jaya, Wakap, Kec. Bantarkalong, Kabupaten Tasikmalaya, Jawa Barat 46187";"Jl. Kubang Jaya, Wakap, Kec. Bantarkalong, Kabupaten Tasikmalaya";"JAWA BARAT";"46187";"Indonesia";"";"";"";"-7.5250116";"108.0832171";"https://maps.google.com/?cid=0x0:0x5ba82977ecabbe59";""
"mall";"Pusat Perbelanjaan";"Toko nadia";"83PG+28W, Bantarkalong, Kec. Bantarkalong, Kabupaten Tasikmalaya, Jawa Barat";"Kabupaten Tasikmalaya, Jawa Barat";"JAWA BARAT";"";"Indonesia";" 085861208489";"";"";"-7.6648753";"108.0758354";"https://maps.google.com/?cid=0x0:0xc7dba2a9721d7d24";""
"mall";"mall";"Jawa Barat 46188";"Kec. Culamega, Kabupaten Tasikmalaya, Jawa Barat";"Kabupaten Tasikmalaya, Jawa Barat";"JAWA BARAT";"";"Indonesia";"";"";"";"-7.5941023";"108.024301";"https://maps.google.com/?cid=0x0:0x1c00c5eb568ee730";""
"mall";"Pusat Perbelanjaan";"Sw";"CX83+9MH, Unnamed Road, Wandasari, Kec. Bojonggambir, Kabupaten Tasikmalaya, Jawa Barat 46475";"Unnamed Road, Wandasari, Kec. Bojonggambir, Kabupaten Tasikmalaya";"JAWA BARAT";"46475";"Indonesia";" 08585868754";"";"";"-7.5840717";"107.9542234";"https://maps.google.com/?cid=0x0:0x39e280651e30bdc4";""
"mall";"Pusat Perbelanjaan";"Warung Teh Neneng Urug";"Unnamed Road, Cintabodas, Kec. Culamega, Kabupaten Tasikmalaya, Jawa Barat 46188";"Cintabodas, Kec. Culamega, Kabupaten Tasikmalaya";"JAWA BARAT";"46188";"Indonesia";" 085282228721";"";"";"-7.5966833";"108.0523994";"https://maps.google.com/?cid=0x0:0x32c0ad799554deca";""
"mall";"Toko umum";"Muara Cell";"C4M2+5XG, Mertajaya, Kec. Bojongasih, Kabupaten Tasikmalaya, Jawa Barat 46475";"Mertajaya, Kec. Bojongasih, Kabupaten Tasikmalaya";"JAWA BARAT";"46475";"Indonesia";" 082311758662";"";"";"-7.5670588";"108.1024531";"https://maps.google.com/?cid=0x0:0x9e9d8766b6cde6d7";""
"mall";"Minimarket";"Plaza Asia Tasikmalaya";"Jl. HZ. Mustofa No.326, Tugujaya, Kec. Cihideung, Kab. Tasikmalaya, Jawa Barat 46125";"Tugujaya, Kec. Cihideung, Kab. Tasikmalaya";"JAWA BARAT";"46125";"Indonesia";" 02652352215";"";"/url?q>>u003dhttps://www.asiatoserba.com/plaza-asia-tasikmalaya>>u0026opi>>u003d79508299>>u0026sa>>u003dU>>u0026ved>>u003d0ahUKEwjHluT3tdiLAxVsR2wGHXJqMn0Q61gIFigS>>u0026usg>>u003dAOvVaw0Wg_iceVOKiI7ziOqiwppp";"-7.3430288";"108.2169357";"https://maps.google.com/?cid=0x0:0x911e5e4095a1b4a2";""
"mall";"Toko bahan makanan";"Warung";"CX36+588, Bojongkapol, Kec. Bojonggambir, Kabupaten Tasikmalaya, Jawa Barat 46475";"Bojongkapol, Kec. Bojonggambir, Kabupaten Tasikmalaya";"JAWA BARAT";"46475";"Indonesia";" 082318418196";"";"";"-7.5970879";"107.9608134";"https://maps.google.com/?cid=0x0:0x5d8a7b7fd2e03d38";""
"mall";"Pusat Perbelanjaan";"Mall di tasikmalaya (pusat perbelajaan)";"Jl. Pasar Wetan No.11, Argasari, Kec. Cihideung, Kab. Tasikmalaya, Jawa Barat 46122";"Argasari, Kec. Cihideung, Kab. Tasikmalaya";"JAWA BARAT";"46122";"Indonesia";"";"";"";"-7.3257419";"108.2153915";"https://maps.google.com/?cid=0x0:0xae4d14b3891ef06b";""
"mall";"mall";"Jawa Barat 46475";"Kec. Bojongasih, Kabupaten Tasikmalaya, Jawa Barat";"Kabupaten Tasikmalaya, Jawa Barat";"JAWA BARAT";"";"Indonesia";"";"";"";"-7.5437021";"107.9887402";"https://maps.google.com/?cid=0x0:0x731f8cdb7f98f0a9";""
"mall";"Pusat Perbelanjaan";"bintang kaila octaviani";"C4PX+P22, Bojongasih, Kec. Bojongasih, Kabupaten Tasikmalaya, Jawa Barat 46475";"Bojongasih, Kec. Bojongasih, Kabupaten Tasikmalaya";"JAWA BARAT";"46475";"Indonesia";" 085777033873";"";"";"-7.5632353";"108.1475119";"https://maps.google.com/?cid=0x0:0x426ddf6c3ab3f978";""
"mall";"Toko";"alifa celuler";"C4JR+FF3, Bojongasih, Kec. Bojongasih, Kabupaten Tasikmalaya, Jawa Barat";"Kabupaten Tasikmalaya, Jawa Barat";"JAWA BARAT";"";"Indonesia";" 082118413086";"";"";"-7.568873";"108.141184";"https://maps.google.com/?cid=0x0:0xdef2bc33b9135d50";""
"mall";"Pusat Perbelanjaan";"Toko Mini BamRaskha";"C4V3+9QG, Merta Jaya, Mertajaya, Kec. Bojongasih, Kabupaten Tasikmalaya, Jawa Barat 46475";"Merta Jaya, Mertajaya, Kec. Bojongasih, Kabupaten Tasikmalaya";"JAWA BARAT";"46475";"Indonesia";" 085222006582";"";"";"-7.556567";"108.1044676";"https://maps.google.com/?cid=0x0:0xaa95d3f529266713";""
"mall";"Toko Beras";"Toko Sembako Neni";"F486+XWH, Toblongan, Kec. Bojongasih, Kabupaten Tasikmalaya, Jawa Barat 46475";"Toblongan, Kec. Bojongasih, Kabupaten Tasikmalaya";"JAWA BARAT";"46475";"Indonesia";" 085213045348";"";"";"-7.5325576";"108.1123705";"https://maps.google.com/?cid=0x0:0x7a561d55b1fa4d33";""
"mall";"Toko";"Warung A Gani";"Mertajaya, Kec. Bojongasih, Kabupaten Tasikmalaya, Jawa Barat 46475";"Kec. Bojongasih, Kabupaten Tasikmalaya";"JAWA BARAT";"46475";"Indonesia";" 081315270389";"";"";"-7.5441295";"108.1072472";"https://maps.google.com/?cid=0x0:0x10a80ef5428fa49";""
"mall";"Toko Swalayan";"Warung Baso Iis";"C4J3+J8G, Unnamed Road, Mertajaya, Kec. Bojongasih, Kabupaten Tasikmalaya, Jawa Barat 46475";"Unnamed Road, Mertajaya, Kec. Bojongasih, Kabupaten Tasikmalaya";"JAWA BARAT";"46475";"Indonesia";"";"";"";"-7.5684346";"108.103327";"https://maps.google.com/?cid=0x0:0x32aeeee6c3bee208";""
"mall";"Pusat Perbelanjaan";"Yagsa Mandiri Jual Potong Ayam Segar";"C497+JF, Girijaya, Kec. Bojongasih, Kabupaten Tasikmalaya, Jawa Barat";"Kabupaten Tasikmalaya, Jawa Barat";"JAWA BARAT";"";"Indonesia";"";"";"";"-7.5809375";"108.1136875";"https://maps.google.com/?cid=0x0:0x5a06ce8f203089e3";""
"mall";"Pusat Perbelanjaan";"Asur ayam";"CX54+2HF, Bojongkapol, Kec. Bojonggambir, Kabupaten Tasikmalaya, Jawa Barat 46475";"Bojongkapol, Kec. Bojonggambir, Kabupaten Tasikmalaya";"JAWA BARAT";"46475";"Indonesia";" 081224550445";"";"";"-7.5924466";"107.9564315";"https://maps.google.com/?cid=0x0:0x6e251525897adb6a";""
"mall";"Pusat Perbelanjaan";"Sw";"CX83+9MH, Unnamed Road, Wandasari, Kec. Bojonggambir, Kabupaten Tasikmalaya, Jawa Barat 46475";"Unnamed Road, Wandasari, Kec. Bojonggambir, Kabupaten Tasikmalaya";"JAWA BARAT";"46475";"Indonesia";" 08585868754";"";"";"-7.5840717";"107.9542234";"https://maps.google.com/?cid=0x0:0x39e280651e30bdc4";""
"mall";"Toko";"Toko cemara indah";"Jl. Raya Ciawi, Bojonggambir, Kec. Bojonggambir, Kabupaten Tasikmalaya, Jawa Barat 46475";"Bojonggambir, Kec. Bojonggambir, Kabupaten Tasikmalaya";"JAWA BARAT";"46475";"Indonesia";"";"";"";"-7.5135256";"107.9773817";"https://maps.google.com/?cid=0x0:0x72dfeda096898965";""
"mall";"Pusat Perbelanjaan";"Ra broiler";"Jln.Raya No.56, Wandasari, Kec. Bojonggambir, Kabupaten Tasikmalaya, Jawa Barat 46475";"Wandasari, Kec. Bojonggambir, Kabupaten Tasikmalaya";"JAWA BARAT";"46475";"Indonesia";" 085323382525";"";"";"-7.5654668";"107.9650353";"https://maps.google.com/?cid=0x0:0x311c972f509f36b7";""
"mall";"Peternakan";"Ngala Untung Domba";"FX3G+HQC, Girimukti, Kec. Bojonggambir, Kabupaten Tasikmalaya, Jawa Barat 46475";"Girimukti, Kec. Bojonggambir, Kabupaten Tasikmalaya";"JAWA BARAT";"46475";"Indonesia";" 085317637087";"";"";"-7.5460715";"107.9769039";"https://maps.google.com/?cid=0x0:0x51cfc99930511e8b";""
"mall";"Pusat Perbelanjaan";"Waroeng Mang Defri";"GX4J+Q9G, Purwaraharja, Kec. Bojonggambir, Kabupaten Tasikmalaya, Jawa Barat 46475";"Purwaraharja, Kec. Bojonggambir, Kabupaten Tasikmalaya";"JAWA BARAT";"46475";"Indonesia";" 085213522087";"";"";"-7.4930566";"107.9809662";"https://maps.google.com/?cid=0x0:0x6a01e4363acc3c1a";""
"mall";"Toko bahan makanan";"Warung";"CX36+588, Bojongkapol, Kec. Bojonggambir, Kabupaten Tasikmalaya, Jawa Barat 46475";"Bojongkapol, Kec. Bojonggambir, Kabupaten Tasikmalaya";"JAWA BARAT";"46475";"Indonesia";" 082318418196";"";"";"-7.5970879";"107.9608134";"https://maps.google.com/?cid=0x0:0x5d8a7b7fd2e03d38";""
"mall";"Pusat Perbelanjaan";"Warung DTS";"CXVP+MVV, Girimukti, Kec. Bojonggambir, Kabupaten Tasikmalaya, Jawa Barat 46475";"Girimukti, Kec. Bojonggambir, Kabupaten Tasikmalaya";"JAWA BARAT";"46475";"Indonesia";" 085293250341";"";"";"-7.5557501";"107.9871854";"https://maps.google.com/?cid=0x0:0xd128f05f8a057edd";""
"mall";"Pusat Perbelanjaan";"Cigintung grimukti bojonggambir pusat gula semut";"Girimukti, Kec. Bojonggambir, Kabupaten Tasikmalaya, Jawa Barat 46475";"Kec. Bojonggambir, Kabupaten Tasikmalaya";"JAWA BARAT";"46475";"Indonesia";" 085315028489";"";"";"-7.5420849";"107.9793615";"https://maps.google.com/?cid=0x0:0x4c22efbf5bc37404";""
"mall";"Pusat Perbelanjaan";"Asur ayam";"CX54+2HF, Bojongkapol, Kec. Bojonggambir, Kabupaten Tasikmalaya, Jawa Barat 46475";"Bojongkapol, Kec. Bojonggambir, Kabupaten Tasikmalaya";"JAWA BARAT";"46475";"Indonesia";" 081224550445";"";"";"-7.5924466";"107.9564315";"https://maps.google.com/?cid=0x0:0x6e251525897adb6a";""
"mall";"Pusat Perbelanjaan";"Toko Meysha";"F225+62J, Pedangkamulyan, Kec. Bojonggambir, Kabupaten Tasikmalaya, Jawa Barat 46475";"Pedangkamulyan, Kec. Bojonggambir, Kabupaten Tasikmalaya";"JAWA BARAT";"46475";"Indonesia";" 085322934191";"";"";"-7.5494154";"108.0075151";"https://maps.google.com/?cid=0x0:0x1e2ad303cd0be7fc";""
"mall";"Bengkel Mobil";"BPS SERVIS";"9XJ2+84H, Jl. Cicomre, Bojongkapol, Kec. Bojonggambir, Kabupaten Tasikmalaya, Jawa Barat 46475";"Jl. Cicomre, Bojongkapol, Kec. Bojonggambir, Kabupaten Tasikmalaya";"JAWA BARAT";"46475";"Indonesia";" 082316768404";"";"";"-7.6191651";"107.9503133";"https://maps.google.com/?cid=0x0:0xe7c4c5d9576e3284";""
"mall";"mall";"WARUNG SI MINCREUNG (teh widi)";"jl kampung genteng, Purwaraharja, Kec. Bojonggambir, Kabupaten Tasikmalaya, Jawa Barat 46475";"Purwaraharja, Kec. Bojonggambir, Kabupaten Tasikmalaya";"JAWA BARAT";"46475";"Indonesia";" 081222266004";"";"";"-7.4918474";"107.9828917";"https://maps.google.com/?cid=0x0:0xa768d4111677a300";""
"mall";"Toko umum";"Muara Cell";"C4M2+5XG, Mertajaya, Kec. Bojongasih, Kabupaten Tasikmalaya, Jawa Barat 46475";"Mertajaya, Kec. Bojongasih, Kabupaten Tasikmalaya";"JAWA BARAT";"46475";"Indonesia";" 082311758662";"";"";"-7.5670588";"108.1024531";"https://maps.google.com/?cid=0x0:0x9e9d8766b6cde6d7";""
"mall";"mall";"Hurip barokah jaya";"Jl. Ciparaya kampung Neglasari No.02/10, Bojonggambir, Tasikmalaya Regency, West Java 46475";"Bojonggambir, Tasikmalaya Regency";"JAWA BARAT";"46475";"Indonesia";"";"";"";"-7.5152544";"107.9729465";"https://maps.google.com/?cid=0x0:0x241c2730096b838";""
"mall";"Minimarket";"Plaza Asia Tasikmalaya";"Jl. HZ. Mustofa No.326, Tugujaya, Kec. Cihideung, Kab. Tasikmalaya, Jawa Barat 46125";"Tugujaya, Kec. Cihideung, Kab. Tasikmalaya";"JAWA BARAT";"46125";"Indonesia";" 02652352215";"";"/url?q>>u003dhttps://www.asiatoserba.com/plaza-asia-tasikmalaya>>u0026opi>>u003d79508299>>u0026sa>>u003dU>>u0026ved>>u003d0ahUKEwj24LqRttiLAxXNTGcHHZEeONUQ61gIFigS>>u0026usg>>u003dAOvVaw3PJoEdDcasbvxUeAwCqvD9";"-7.3430288";"108.2169357";"https://maps.google.com/?cid=0x0:0x911e5e4095a1b4a2";""
"mall";"Toko Swalayan";"Waroeng Bi Iting";"kp. sinargalih No.des, Kertanegla, Kec. Bojonggambir, Kabupaten Tasikmalaya, Jawa Barat 46475";"Kertanegla, Kec. Bojonggambir, Kabupaten Tasikmalaya";"JAWA BARAT";"46475";"Indonesia";" 081231187930";"";"";"-7.5188853";"107.9471356";"https://maps.google.com/?cid=0x0:0x47434972e4060c69";""
"mall";"Toko Pakaian";"KaryajayaHardolin";"Jl. Cibuntu, Karyabakti, Kec. Parungponteng, Kabupaten Tasikmalaya, Jawa Barat 46185";"Karyabakti, Kec. Parungponteng, Kabupaten Tasikmalaya";"JAWA BARAT";"46185";"Indonesia";"";"";"";"-7.5184185";"108.115145";"https://maps.google.com/?cid=0x0:0x15b762902aa48523";""
"mall";"Pusat Perbelanjaan";"WARUNG IBU YATI";"9XF6+25J, Bojongkapol, Kec. Bojonggambir, Kabupaten Tasikmalaya, Jawa Barat 46475";"Bojongkapol, Kec. Bojonggambir, Kabupaten Tasikmalaya";"JAWA BARAT";"46475";"Indonesia";"";"";"";"-7.6270066";"107.9609845";"https://maps.google.com/?cid=0x0:0x87da8231d561ec1f";""
"mall";"Pusat Perbelanjaan";"Waroeng Putra Putri";"FXP2+J74, Jl. Cipari, RT.01/RW.01, Kertanegla, Kec. Bojonggambir, Kabupaten Tasikmalaya, Jawa Barat 46475";"Jl. Cipari, RT.01/RW.01, Kertanegla, Kec. Bojonggambir, Kabupaten Tasikmalaya";"JAWA BARAT";"46475";"Indonesia";" 082213162682";"";"";"-7.5134882";"107.9506976";"https://maps.google.com/?cid=0x0:0xca9db6e960dc4f";""
"mall";"mall";"Jawa Barat 46475";"Kec. Bojongasih, Kabupaten Tasikmalaya, Jawa Barat";"Kabupaten Tasikmalaya, Jawa Barat";"JAWA BARAT";"";"Indonesia";"";"";"";"-7.5437021";"107.9887402";"https://maps.google.com/?cid=0x0:0x731f8cdb7f98f0a9";""
"mall";"Pusat Perbelanjaan";"Accesoris Fathan Fathin";"FXPG+MVC, Jl. Raya Ciawi, Mangkonjaya, Kec. Bojonggambir, Kabupaten Tasikmalaya, Jawa Barat 46475";"Jl. Raya Ciawi, Mangkonjaya, Kec. Bojonggambir, Kabupaten Tasikmalaya";"JAWA BARAT";"46475";"Indonesia";" 082118745555";"";"";"-7.5133101";"107.9771428";"https://maps.google.com/?cid=0x0:0xb413c4f74979817f";""
"mall";"Pusat Perbelanjaan";"MANDIRI JAYA PLAZA ( MJ Plaza )";"Jl. Cisinga, Indrajaya, Kec. Sukaratu, Kabupaten Tasikmalaya, Jawa Barat 46415";"Indrajaya, Kec. Sukaratu, Kabupaten Tasikmalaya";"JAWA BARAT";"46415";"Indonesia";" 02653165205";"";"";"-7.2653759";"108.1451637";"https://maps.google.com/?cid=0x0:0x3547bcac58db9654";""
"mall";"Pusat Perbelanjaan";"T'Qua Isi Ulang Air Mineral";"Bojonggambir, Kec. Bojonggambir, Kabupaten Tasikmalaya, Jawa Barat 46475";"Kec. Bojonggambir, Kabupaten Tasikmalaya";"JAWA BARAT";"46475";"Indonesia";" 085352249543";"";"";"-7.51334";"107.97708";"https://maps.google.com/?cid=0x0:0xde30e2f549b93b86";""
"mall";"Toko Perhiasan";"Toko Mas Indahjaya";"FXPG+PQG, Jl. Raya Ciawi, Bojonggambir, Kec. Bojonggambir, Kabupaten Tasikmalaya, Jawa Barat 46475";"Jl. Raya Ciawi, Bojonggambir, Kec. Bojonggambir, Kabupaten Tasikmalaya";"JAWA BARAT";"46475";"Indonesia";"";"";"";"-7.5131853";"107.976967";"https://maps.google.com/?cid=0x0:0xae67dd97ea74edb7";""
"mall";"Pusat Perbelanjaan";"Sari Barokah Oleh-oleh - Ciawi 2";"Jl. Mayjen H.R. Edi Sukma No.KM.2, Ciawi, Kec. Bogor Sel., Kota Bogor, Jawa Barat 16138";"Ciawi, Kec. Bogor Sel., Kota Bogor";"JAWA BARAT";"16138";"Indonesia";" 081299424934";"";"";"-6.6709753";"106.8470571";"https://maps.google.com/?cid=0x0:0x2ab023630cc34f69";""
"mall";"Toko";"Kios AZ-ZA";"Citapen, Kec. Ciawi, Kabupaten Bogor, Jawa Barat 16720";"Kec. Ciawi, Kabupaten Bogor";"JAWA BARAT";"16720";"Indonesia";"";"";"";"-6.6963341";"106.8697985";"https://maps.google.com/?cid=0x0:0x31b2b42b44b778be";""
"mall";"Toko Buah Kering";"Agus Buah Ciawi";"pasar, Jl. Raya Puncak, Ciawi, Kec. Ciawi, Kabupaten Bogor, Jawa Barat 16720";"Jl. Raya Puncak, Ciawi, Kec. Ciawi, Kabupaten Bogor";"JAWA BARAT";"16720";"Indonesia";"";"";"";"-6.6566297";"106.8469375";"https://maps.google.com/?cid=0x0:0xdbc5e138b99e472d";""
"mall";"Pusat Perbelanjaan";"OFISHOPBOGOR";"Jl. Karakal No.27, Jambu Luwuk, Kec. Ciawi, Kabupaten Bogor, Jawa Barat 16720";"Jambu Luwuk, Kec. Ciawi, Kabupaten Bogor";"JAWA BARAT";"16720";"Indonesia";" 085772129037";"";"";"-6.6899237";"106.8795387";"https://maps.google.com/?cid=0x0:0x7ed854679a1b3adc";""
"mall";"Pusat Perbelanjaan";"PJB / Pusat Jajanan Bogor (by : Mirna)";"Citapen, Kec. Ciawi, Kabupaten Bogor, Jawa Barat 16720";"Kec. Ciawi, Kabupaten Bogor";"JAWA BARAT";"16720";"Indonesia";" 085750388129";"";"";"-6.6966241";"106.8737796";"https://maps.google.com/?cid=0x0:0x22f3f65ae3c6e5f";""
"mall";"mall";"MFT'SHOP";"8R8W+J6G, Bitung Sari, Kec. Ciawi, Kabupaten Bogor, Jawa Barat 16720";"Bitung Sari, Kec. Ciawi, Kabupaten Bogor";"JAWA BARAT";"16720";"Indonesia";"";"";"";"-6.68344";"106.8455843";"https://maps.google.com/?cid=0x0:0x22d0acbbe277d634";""
"mall";"Pusat Perbelanjaan";"Mall BTM Bogor";"Jl. Ir. H. Juanda No.68, RT.01/RW.13, Paledang, Kecamatan Bogor Tengah, Kota Bogor, Jawa Barat 16122";"RT.01/RW.13, Paledang, Kecamatan Bogor Tengah, Kota Bogor";"JAWA BARAT";"16122";"Indonesia";" 02518401000";"";"";"-6.6047283";"106.7957997";"https://maps.google.com/?cid=0x0:0x82ab1619188f430e";""
"mall";"Toko";"SRATA paint";"Kp pondok menteng rt 1/2 no, RW.2, Citapen, Kec. Ciawi, Kabupaten Bogor, Jawa Barat 16720";"RW.2, Citapen, Kec. Ciawi, Kabupaten Bogor";"JAWA BARAT";"16720";"Indonesia";" 087884048453";"";"";"-6.7094524";"106.8794686";"https://maps.google.com/?cid=0x0:0xf27a557c5a1bcfd3";""
"mall";"Toko";"lb2n spedd shop";"8V56+H47, Citapen, Kec. Ciawi, Kabupaten Bogor, Jawa Barat 16720";"Citapen, Kec. Ciawi, Kabupaten Bogor";"JAWA BARAT";"16720";"Indonesia";" 085894876799";"";"";"-6.691094";"106.8602985";"https://maps.google.com/?cid=0x0:0xc4c2aed9c83b96b1";""
"mall";"Restoran";"M.A.M Frozen Food";"8VF6+5QG, Banjar Sari, Kec. Ciawi, Kabupaten Bogor, Jawa Barat 16720";"Banjar Sari, Kec. Ciawi, Kabupaten Bogor";"JAWA BARAT";"16720";"Indonesia";" 081210907656";"";"";"-6.6770571";"106.8619506";"https://maps.google.com/?cid=0x0:0xfcb8b9295143b8cc";""
"mall";"Pusat Perbelanjaan";"Kios Oleh Oleh 7";"Jl. Raya Ciawi - Sukabumi No.07, Bitung Sari, Kec. Ciawi, Kabupaten Bogor, Jawa Barat 16720";"Bitung Sari, Kec. Ciawi, Kabupaten Bogor";"JAWA BARAT";"16720";"Indonesia";" 085817440170";"";"";"-6.6836149";"106.8491222";"https://maps.google.com/?cid=0x0:0x6cbf70b6fa7b1e3a";""
"mall";"Toko Suku Cadang Mobil";"RNJ VARIASI";"Jl. Raya Sukaraja - Sukabumi No.16, Tlk. Pinang, Kec. Ciawi, Kabupaten Bogor, Jawa Barat 16720";"Tlk. Pinang, Kec. Ciawi, Kabupaten Bogor";"JAWA BARAT";"16720";"Indonesia";" 087820517274";"";"";"-6.6837576";"106.8490649";"https://maps.google.com/?cid=0x0:0x90eb97464639ba68";""
"mall";"Tempat Ibadah";"Majelis Al Barokah";"Jl. Karakal No.No, Jambu Luwuk, Kec. Ciawi, Kabupaten Bogor, Jawa Barat 16720";"Jambu Luwuk, Kec. Ciawi, Kabupaten Bogor";"JAWA BARAT";"16720";"Indonesia";" 081211513461";"";"";"-6.6915066";"106.8852506";"https://maps.google.com/?cid=0x0:0x9da51f26624171e5";""
"mall";"Toko bahan makanan";"Chepy Plastik";"8V9C+P2H, Jl. Veteran III, Banjar Sari, Kec. Ciawi, Kabupaten Bogor, Jawa Barat 16720";"Jl. Veteran III, Banjar Sari, Kec. Ciawi, Kabupaten Bogor";"JAWA BARAT";"16720";"Indonesia";" 081221967406";"";"";"-6.6806754";"106.8701069";"https://maps.google.com/?cid=0x0:0xca6a6ed80e729d06";""
"mall";"Toko Pakaian Bayi";"Toko KEMBAR FROZZEN  Perlengkapan Baby";"Jl. Karakal No.10, Bojong Murni, Kec. Ciawi, Kabupaten Bogor, Jawa Barat 16720";"Bojong Murni, Kec. Ciawi, Kabupaten Bogor";"JAWA BARAT";"16720";"Indonesia";" 085694030576";"";"";"-6.6974948";"106.894081";"https://maps.google.com/?cid=0x0:0x3ab164700f63bb1d";""
"mall";"Pusat Perbelanjaan";"Lippo Plaza Ekalokasari";"Jl. Siliwangi No.123, RT.02/RW.01, Sukasari, Kec. Bogor Tim., Kota Bogor, Jawa Barat 16142";"RT.02/RW.01, Sukasari, Kec. Bogor Tim., Kota Bogor";"JAWA BARAT";"16142";"Indonesia";" 02518318788";"";"";"-6.6216357";"106.8170643";"https://maps.google.com/?cid=0x0:0x2c118e7fe877e90a";""
"mall";"Gudang";"Gudang Telur Chepili";"Jl. Veteran III No.63, Jambu Luwuk, Kec. Ciawi, Kabupaten Bogor, Jawa Barat 16720";"Jambu Luwuk, Kec. Ciawi, Kabupaten Bogor";"JAWA BARAT";"16720";"Indonesia";"";"";"";"-6.6864935";"106.8724365";"https://maps.google.com/?cid=0x0:0x9ce62d1c7cfb4ff8";""
"mall";"Toko Makanan";"Kripik Singkong Pahlawan";"8VC8+HC3, Gg. Pahlawan, Banjar Sari, Kec. Ciawi, Kabupaten Bogor, Jawa Barat 16720";"Gg. Pahlawan, Banjar Sari, Kec. Ciawi, Kabupaten Bogor";"JAWA BARAT";"16720";"Indonesia";" 082129540212";"";"";"-6.6786236";"106.866055";"https://maps.google.com/?cid=0x0:0x194a9751ec0d7f6d";""
"mall";"Pusat Perbelanjaan";"Tiana Fashion";"Jl. Ke Arah Tapos, Tlk. Pinang, Kec. Ciawi, Kabupaten Bogor, Jawa Barat 16720";"Tlk. Pinang, Kec. Ciawi, Kabupaten Bogor";"JAWA BARAT";"16720";"Indonesia";" 085624513536";"";"/url?q>>u003dhttps://s.lazada.co.id/s.SZl5E>>u0026opi>>u003d79508299>>u0026sa>>u003dU>>u0026ved>>u003d0ahUKEwjWyIKrttiLAxVhbmwGHV3ZCyYQ61gIFigS>>u0026usg>>u003dAOvVaw3TVK0AhGlGpXLaCc7A5mq7";"-6.6883407";"106.8516492";"https://maps.google.com/?cid=0x0:0x979584c16e6dd065";""
"mall";"mall";"Jawa Barat 16720";"Kabupaten Bogor, Jawa Barat";"Kabupaten Bogor, Jawa Barat";"JAWA BARAT";"";"Indonesia";"";"";"";"-6.712398";"106.8945456";"https://maps.google.com/?cid=0x0:0x1c00c5eb51c82810";""
"mall";"Pusat Perbelanjaan";"Toko Accesories Berkah Jaya Ciawi";"8VR2+68X, Bendungan, Kec. Ciawi, Kabupaten Bogor, Jawa Barat 16720";"Bendungan, Kec. Ciawi, Kabupaten Bogor";"JAWA BARAT";"16720";"Indonesia";" 085871024344";"";"";"-6.6593791";"106.8508676";"https://maps.google.com/?cid=0x0:0x52f6bb37e70925c6";""
"mall";"Pusat Perbelanjaan";"STOKIS KAMILA";"8RWX+RQV, Unnamed Road, Ciawi, Kec. Ciawi, Kabupaten Bogor, Jawa Barat 16720";"Unnamed Road, Ciawi, Kec. Ciawi, Kabupaten Bogor";"JAWA BARAT";"16720";"Indonesia";" 085714125067";"";"";"-6.6528921";"106.8494328";"https://maps.google.com/?cid=0x0:0x75ebc6b3007d05fe";""
"mall";"Pusat Perbelanjaan";"Wangga fashion 7";"8VC8+G7F, Banjar Sari, Kec. Ciawi, Kabupaten Bogor, Jawa Barat 16720";"Banjar Sari, Kec. Ciawi, Kabupaten Bogor";"JAWA BARAT";"16720";"Indonesia";"";"";"";"-6.6786842";"106.8656756";"https://maps.google.com/?cid=0x0:0x90bbdddb4c988d37";""
"mall";"Toko bahan makanan";"REDBOX DURIAN  FROZEN FOOD CIAWI";"Jl. Mayjen HE sukma No. 61 Ds. Ciawi RT. 03/02, Ciawi, Kec. Bogor Sel., Kabupaten Bogor, Jawa Barat 16720";"Ciawi, Kec. Bogor Sel., Kabupaten Bogor";"JAWA BARAT";"16720";"Indonesia";" 081210072034";"";"";"-6.6616235";"106.8450832";"https://maps.google.com/?cid=0x0:0x257093acfd82b15a";""
"mall";"mall";"OLSOP F  E";"Jl. Veteran III Gg. Pala No.56, RT.003/RW.01, tapos, Kec. Ciawi, Kabupaten Bogor, Jawa Barat 16720";"RT.003/RW.01, tapos, Kec. Ciawi, Kabupaten Bogor";"JAWA BARAT";"16720";"Indonesia";" 083115698232";"";"";"-6.7108306";"106.8839204";"https://maps.google.com/?cid=0x0:0xe435c5d522c55ad6";""
"mall";"Pembangunan Perumahan";"Pink House, Rumah Merah Jambu";"8V72+C6W, Unnamed Road, Tlk. Pinang, Kec. Ciawi, Kabupaten Bogor, Jawa Barat 16720";"Unnamed Road, Tlk. Pinang, Kec. Ciawi, Kabupaten Bogor";"JAWA BARAT";"16720";"Indonesia";" 087788853475";"";"";"-6.6863913";"106.8505669";"https://maps.google.com/?cid=0x0:0x261b2bea146eb2ff";""
"mall";"Toko Beras";"Toko Grosir Beras Asmaul Husna ciawi";"Pasar, Ciawi, Kec. Ciawi, Kabupaten Bogor, Jawa Barat 16720";"Ciawi, Kec. Ciawi, Kabupaten Bogor";"JAWA BARAT";"16720";"Indonesia";" 087761237535";"";"";"-6.6565519";"106.8472331";"https://maps.google.com/?cid=0x0:0xe508dbca019bea6";""
"mall";"Toko Bahan Bangunan";"TB.SUMBER REZEKI Aceh";"Jl. Veteran III, Banjar Wangi, Kec. Ciawi, Kabupaten Bogor, Jawa Barat 16720";"Banjar Wangi, Kec. Ciawi, Kabupaten Bogor";"JAWA BARAT";"16720";"Indonesia";"";"";"";"-6.6782096";"106.8640978";"https://maps.google.com/?cid=0x0:0xf1c1fdb079781dc9";""
"mall";"mall";"MR.DIY Ciawi Tasikmalaya";"Kawasan Ruko Ciawi, Jalan Pelita 1 Blok Cidemang Kavling No.23, Pakemitan, Kec. Ciawi, Kabupaten Tasikmalaya, Jawa Barat 46156";"Jalan Pelita 1 Blok Cidemang Kavling No.23, Pakemitan, Kec. Ciawi, Kabupaten Tasikmalaya";"JAWA BARAT";"46156";"Indonesia";"";"";"";"-7.1531456";"108.1492016";"https://maps.google.com/?cid=0x0:0xe509a8b37ef45c75";""
"mall";"Outdoor equestrian facility";"Eiger Store";"Jl. Nasional III, Sukamantri, Kec. Ciawi, Kabupaten Tasikmalaya, Jawa Barat 46156";"Sukamantri, Kec. Ciawi, Kabupaten Tasikmalaya";"JAWA BARAT";"46156";"Indonesia";"";"";"/url?q>>u003dhttps://eigeradventure.com/>>u0026opi>>u003d79508299>>u0026sa>>u003dU>>u0026ved>>u003d0ahUKEwjOuK3AttiLAxVs4TgGHYG0FdEQ61gIEigO>>u0026usg>>u003dAOvVaw3w2mUssWRljtFqIY-B-5xp";"-7.1477138";"108.1474108";"https://maps.google.com/?cid=0x0:0x7aee342117dd4c29";""
"mall";"Taman Kota";"Alun Alun Ciawi Tasikmalaya";"Pakemitan, Kec. Ciawi, Kabupaten Tasikmalaya, Jawa Barat 46156";"Kec. Ciawi, Kabupaten Tasikmalaya";"JAWA BARAT";"46156";"Indonesia";"";"";"";"-7.1584586";"108.1475097";"https://maps.google.com/?cid=0x0:0x44450c28bfa6a004";""
"mall";"Toko Ponsel";"X-TRA Cell Ciawi";"R4WW+RX8, Pakemitan, Kec. Ciawi, Kabupaten Tasikmalaya, Jawa Barat 46156";"Pakemitan, Kec. Ciawi, Kabupaten Tasikmalaya";"JAWA BARAT";"46156";"Indonesia";" 082240819904";"";"";"-7.152973";"108.1474636";"https://maps.google.com/?cid=0x0:0x9bc7cb23ef966dac";""
"mall";"Pusat Perbelanjaan";"Berlian Putra Sukapura";"R5V2+GGF, Pakemitan, Kec. Ciawi, Kabupaten Tasikmalaya, Jawa Barat 46156";"Pakemitan, Kec. Ciawi, Kabupaten Tasikmalaya";"JAWA BARAT";"46156";"Indonesia";" 085221890934";"";"";"-7.1561779";"108.1513107";"https://maps.google.com/?cid=0x0:0x5bef7b84dbb74575";""
"mall";"Pusat Perbelanjaan";"Kios Ceptin";"R5V2+P9M, Pakemitan, Kec. Ciawi, Kabupaten Tasikmalaya, Jawa Barat 46156";"Pakemitan, Kec. Ciawi, Kabupaten Tasikmalaya";"JAWA BARAT";"46156";"Indonesia";" 082218482111";"";"";"-7.1556709";"108.1509211";"https://maps.google.com/?cid=0x0:0x8f0b4e5429a0265d";""
"mall";"Pusat Perbelanjaan";"GRESS CELL";"Ruko Palasari, JL. Raya Perjuangan, RT. 03/03, No. 1, Sukamantri, Kec. Ciawi, Kabupaten Tasikmalaya, Jawa Barat 46156";"JL. Raya Perjuangan, RT. 03/03, No. 1, Sukamantri, Kec. Ciawi, Kabupaten Tasikmalaya";"JAWA BARAT";"46156";"Indonesia";" 089612211741";"";"";"-7.1429966";"108.1476818";"https://maps.google.com/?cid=0x0:0xdf810661ee6629c8";""
"mall";"";"ArSeCa textile";"Raya Ps. Baru Ciawi Blok C, Pakemitan, Kec. Ciawi, Kabupaten Tasikmalaya, Jawa Barat 46156";"Pakemitan, Kec. Ciawi, Kabupaten Tasikmalaya";"JAWA BARAT";"46156";"Indonesia";"";"";"";"-7.1555015";"108.1507823";"https://maps.google.com/?cid=0x0:0xa3e484d133360f8c";""
"mall";"Toko Aksesori Pakaian";"Warung 23";"R5Q2+C6W, Gg. H.M. Sudja'i, Pakemitan, Kec. Ciawi, Kabupaten Tasikmalaya, Jawa Barat 46156";"Gg. H.M. Sudja'i, Pakemitan, Kec. Ciawi, Kabupaten Tasikmalaya";"JAWA BARAT";"46156";"Indonesia";" 087831558338";"";"";"-7.1610398";"108.1505992";"https://maps.google.com/?cid=0x0:0x8f3299c6009d8e08";""
"mall";"Pusat Perbelanjaan";"Authentic Tempoe Doeloe";"R45J+2X8, Jl. Gombong, Gombong, Kec. Ciawi, Kabupaten Tasikmalaya, Jawa Barat 46156";"Jl. Gombong, Gombong, Kec. Ciawi, Kabupaten Tasikmalaya";"JAWA BARAT";"46156";"Indonesia";" 082318050640";"";"";"-7.1924691";"108.1324508";"https://maps.google.com/?cid=0x0:0xee45b770bb4375cf";""
"mall";"Toko Pakaian Wanita";"HIJAB SPORT SEGI EMPAT KALISHA 2 CIAWI";"Jl. Raya Perjuangan No.77, Kurniabakti, Kec. Ciawi, Kabupaten Tasikmalaya, Jawa Barat 46156";"Kurniabakti, Kec. Ciawi, Kabupaten Tasikmalaya";"JAWA BARAT";"46156";"Indonesia";" 082170471885";"";"";"-7.1542358";"108.1469788";"https://maps.google.com/?cid=0x0:0xcf4c80e6c743a457";""
"mall";"Pusat Perbelanjaan";"TK.SUMBER REZEKI";"R429+C9M, Kp. karangmukti, RT.01/RW.03, Kertamukti, Kec. Ciawi, Kabupaten Tasikmalaya, Jawa Barat 46156";"Kp. karangmukti, RT.01/RW.03, Kertamukti, Kec. Ciawi, Kabupaten Tasikmalaya";"JAWA BARAT";"46156";"Indonesia";" 085226880001";"";"";"-7.1989125";"108.1184219";"https://maps.google.com/?cid=0x0:0x577a9c7a18da9906";""
"mall";"Pusat Perbelanjaan";"TOKO RIDWANA 2 PS";"Jl. Ps. Ciawi No.Blok A/6, Pakemitan, Kec. Ciawi, Kabupaten Tasikmalaya, Jawa Barat 46156";"Pakemitan, Kec. Ciawi, Kabupaten Tasikmalaya";"JAWA BARAT";"46156";"Indonesia";" 089601933863";"";"/url?q>>u003dhttps://www.facebook.com/ridwana.petshop>>u0026opi>>u003d79508299>>u0026sa>>u003dU>>u0026ved>>u003d0ahUKEwiakvHDttiLAxXwcGwGHfHTMwsQ61gIFigS>>u0026usg>>u003dAOvVaw15RryaIGwNJmJNA0eA5hrQ";"-7.1552249";"108.1513568";"https://maps.google.com/?cid=0x0:0xe3721a61d3c54980";""
"mall";"Toko bahan makanan";"Toko "F" Terminal Pasar Ciawi, Tasikmalaya";"Jl. Ps. Ciawi No.Blok F, Pakemitan, Kec. Ciawi, Kabupaten Tasikmalaya, Jawa Barat 46156";"Pakemitan, Kec. Ciawi, Kabupaten Tasikmalaya";"JAWA BARAT";"46156";"Indonesia";" 0265455072";"";"";"-7.1550758";"108.151347";"https://maps.google.com/?cid=0x0:0x1a626fbf104b6caf";""
"mall";"Toko";"Warung Ceu Ende";"R4GQ+6HJ, Bugel, Kec. Ciawi, Kabupaten Tasikmalaya, Jawa Barat 46156";"Bugel, Kec. Ciawi, Kabupaten Tasikmalaya";"JAWA BARAT";"46156";"Indonesia";" 082112222658";"";"";"-7.1744081";"108.1389016";"https://maps.google.com/?cid=0x0:0xa6eaea38d36a446";""
"mall";"Toko";"WARUNG PENGKOLAN";"R4RG+Q2H, Citamba, Kec. Ciawi, Kabupaten Tasikmalaya, Jawa Barat 46156";"Citamba, Kec. Ciawi, Kabupaten Tasikmalaya";"JAWA BARAT";"46156";"Indonesia";" 085223041995";"";"";"-7.1580561";"108.1250955";"https://maps.google.com/?cid=0x0:0x957c440ad97f307";""
"mall";"Kantor Perusahaan";"Sophie Paris ESLCP Baban Abdan Syakuro";"V43W+R8R, Unnamed Road, Kurniabakti, Kec. Ciawi, Kabupaten Tasikmalaya, Jawa Barat 46156";"Unnamed Road, Kurniabakti, Kec. Ciawi, Kabupaten Tasikmalaya";"JAWA BARAT";"46156";"Indonesia";" 085222351832";"";"";"-7.1453965";"108.1457792";"https://maps.google.com/?cid=0x0:0x1c73a1a9191ce0e9";""
"mall";"Pusat Perbelanjaan";"Al wafa official";"R5V3+FP3, Pakemitan, Kec. Ciawi, Kabupaten Tasikmalaya, Jawa Barat 46156";"Pakemitan, Kec. Ciawi, Kabupaten Tasikmalaya";"JAWA BARAT";"46156";"Indonesia";" 082315934599";"";"";"-7.1563682";"108.1542934";"https://maps.google.com/?cid=0x0:0x4f90c89f189b6cf6";""
"mall";"Toko bahan makanan";"Ps ciawi";"R5R2+VWH, Jl. Ps. Ciawi, Pakemitan, Kec. Ciawi, Kabupaten Tasikmalaya, Jawa Barat 46156";"Jl. Ps. Ciawi, Pakemitan, Kec. Ciawi, Kabupaten Tasikmalaya";"JAWA BARAT";"46156";"Indonesia";" 081511772665";"";"";"-7.1578107";"108.1523637";"https://maps.google.com/?cid=0x0:0x245bcf3779dece61";""
"mall";"mall";"Jawa Barat 46156";"Kabupaten Tasikmalaya, Jawa Barat";"Kabupaten Tasikmalaya, Jawa Barat";"JAWA BARAT";"";"Indonesia";"";"";"";"-7.1457231";"108.1072924";"https://maps.google.com/?cid=0x0:0x1c00c5eb568ee690";""
"mall";"Pusat Perbelanjaan";"Sari Barokah Oleh-oleh - Ciawi 2";"Jl. Mayjen H.R. Edi Sukma No.KM.2, Ciawi, Kec. Bogor Sel., Kota Bogor, Jawa Barat 16138";"Ciawi, Kec. Bogor Sel., Kota Bogor";"JAWA BARAT";"16138";"Indonesia";" 081299424934";"";"";"-6.6709753";"106.8470571";"https://maps.google.com/?cid=0x0:0x2ab023630cc34f69";""
"mall";"Toko Aksesori Pakaian";"MALVEL STORE  COLLECTION";"Jl. Veteran III No.42, Banjar Sari, Kec. Ciawi, Kabupaten Bogor, Jawa Barat 16720";"Banjar Sari, Kec. Ciawi, Kabupaten Bogor";"JAWA BARAT";"16720";"Indonesia";" 089611433682";"";"";"-6.6805284";"106.8697802";"https://maps.google.com/?cid=0x0:0xcca91d25c58ea1ff";""
"mall";"Pusat Perbelanjaan";"Mall BTM Bogor";"Jl. Ir. H. Juanda No.68, RT.01/RW.13, Paledang, Kecamatan Bogor Tengah, Kota Bogor, Jawa Barat 16122";"RT.01/RW.13, Paledang, Kecamatan Bogor Tengah, Kota Bogor";"JAWA BARAT";"16122";"Indonesia";" 02518401000";"";"";"-6.6047283";"106.7957997";"https://maps.google.com/?cid=0x0:0x82ab1619188f430e";""
"mall";"Terminal Bus";"Botani Square";"Jl. Raya Pajajaran No.40, Tugu Kujang, Kecamatan Bogor Tengah, Kota Bogor, Jawa Barat 16127";"Tugu Kujang, Kecamatan Bogor Tengah, Kota Bogor";"JAWA BARAT";"16127";"Indonesia";" 02518386658";"";"/url?q>>u003dhttps://www.instagram.com/botanisquaremall/>>u0026opi>>u003d79508299>>u0026sa>>u003dU>>u0026ved>>u003d0ahUKEwj8m7vHttiLAxUh1TgGHaPqD1AQ61gIFigS>>u0026usg>>u003dAOvVaw1vHwu1sfEKCR1uLLz7iigi";"-6.6014221";"106.8071254";"https://maps.google.com/?cid=0x0:0x9edb391e7c74be19";""
"mall";"Pusat Perbelanjaan";"Cibinong City Mall";"Jl. Tegar Beriman No.1, Pakansari, Kec. Cibinong, Kabupaten Bogor, Jawa Barat 16914";"Pakansari, Kec. Cibinong, Kabupaten Bogor";"JAWA BARAT";"16914";"Indonesia";" 02129860099";"";"/url?q>>u003dhttps://www.cibinongcitymall.com/HOME.html>>u0026opi>>u003d79508299>>u0026sa>>u003dU>>u0026ved>>u003d0ahUKEwjDjuPHttiLAxWLwzgGHeBQEvcQ61gIFigS>>u0026usg>>u003dAOvVaw2nw5ebEUG1pCTTpDCmEB66";"-6.4845183";"106.8423676";"https://maps.google.com/?cid=0x0:0x8cce62bf5b8baa08";""
"mall";"Pusat Perbelanjaan";"Bogor Square";"Jl. Nasional 11, RT.05/RW.09, Kedung Jaya, Kec. Tanah Sereal, Kota Bogor, Jawa Barat 16164";"RT.05/RW.09, Kedung Jaya, Kec. Tanah Sereal, Kota Bogor";"JAWA BARAT";"16164";"Indonesia";" 081299337513";"";"/url?q>>u003dhttp://www.ramayana.co.id/>>u0026opi>>u003d79508299>>u0026sa>>u003dU>>u0026ved>>u003d0ahUKEwjUsZzIttiLAxXaxDgGHY89EDwQ61gIFigS>>u0026usg>>u003dAOvVaw3iqzT8TPq2ses3Tap9NPYE";"-6.5585498";"106.7854303";"https://maps.google.com/?cid=0x0:0x7ff383db62f0b65";""
"mall";"Pusat Perbelanjaan";"AEON MALL Sentul City";"Jl. MH. Thamrin, Citaringgul, Kec. Babakan Madang, Kabupaten Bogor, Jawa Barat 16810";"Citaringgul, Kec. Babakan Madang, Kabupaten Bogor";"JAWA BARAT";"16810";"Indonesia";" 02184214540";"";"/url?q>>u003dhttps://aeonmall-sentulcity.com/>>u0026opi>>u003d79508299>>u0026sa>>u003dU>>u0026ved>>u003d0ahUKEwjxpdHIttiLAxVzfWwGHT3kEtgQ61gIFigS>>u0026usg>>u003dAOvVaw3InBzRT1RyQZ8bA_d-IJ-f";"-6.5675052";"106.8582185";"https://maps.google.com/?cid=0x0:0x68cbed37dfe846f9";""
"mall";"Pusat Perbelanjaan";"Lippo Plaza Keboen Raya";"Jl. Malabar 2 No.17A, Babakan, Kecamatan Bogor Tengah, Kota Bogor, Jawa Barat 16129";"Babakan, Kecamatan Bogor Tengah, Kota Bogor";"JAWA BARAT";"16129";"Indonesia";"";"";"";"-6.5954656";"106.8057665";"https://maps.google.com/?cid=0x0:0xcda1b5f11e139fea";""
"mall";"Restoran";"BTW Mall";"Jl. Veteran, RT.01/RW.03, Panaragan, Kecamatan Bogor Tengah, Kota Bogor, Jawa Barat 16125";"RT.01/RW.03, Panaragan, Kecamatan Bogor Tengah, Kota Bogor";"JAWA BARAT";"16125";"Indonesia";"";"";"";"-6.5957238";"106.7859461";"https://maps.google.com/?cid=0x0:0x38b98f9bcac46f29";""
"mall";"Tujuan Wisata";"MALL";"Unnamed Road, Sancang, Kec. Cibalong, Kabupaten Garut, Jawa Barat 44176";"Sancang, Kec. Cibalong, Kabupaten Garut";"JAWA BARAT";"44176";"Indonesia";" 081221782777";"";"";"-7.7152961";"107.8914258";"https://maps.google.com/?cid=0x0:0x9ca2a27a93c92d08";""
"mall";"Pusat Perbelanjaan";"KAYLA";"8VXF+J45, Sagara, Kec. Cibalong, Kabupaten Garut, Jawa Barat 44176";"Sagara, Kec. Cibalong, Kabupaten Garut";"JAWA BARAT";"44176";"Indonesia";" 081321270581";"";"";"-7.6509778";"107.8728508";"https://maps.google.com/?cid=0x0:0xdc0888774e424d59";""
"mall";"Toko Aksesori Ponsel";"Konter Hema Cellular Rancahayam";"8QQ5+X6J, Jl. Sirna Bakti, Mekarsari, Kec. Cibalong, Kabupaten Garut, Jawa Barat 44176";"Jl. Sirna Bakti, Mekarsari, Kec. Cibalong, Kabupaten Garut";"JAWA BARAT";"44176";"Indonesia";"";"";"";"-7.6600348";"107.7580282";"https://maps.google.com/?cid=0x0:0x1917883067786e7";""
"mall";"Toko bahan makanan";"Warung Rt Dadan";"7VXR+943, Sancang, Kec. Cibalong, Kabupaten Garut, Jawa Barat 44176";"Sancang, Kec. Cibalong, Kabupaten Garut";"JAWA BARAT";"44176";"Indonesia";" 082117642105";"";"";"-7.7016036";"107.8902925";"https://maps.google.com/?cid=0x0:0xd3e860afc5c3dbeb";""
"mall";"Pusat Perbelanjaan";"Warung Pak Tarli";"7V6P+GC9, Unnamed Road, Sancang, Kec. Cibalong, Kabupaten Garut, Jawa Barat 44176";"Unnamed Road, Sancang, Kec. Cibalong, Kabupaten Garut";"JAWA BARAT";"44176";"Indonesia";" 085223364919";"";"";"-7.7387096";"107.886111";"https://maps.google.com/?cid=0x0:0x34af337952a68855";""
"mall";"Pusat Perbelanjaan";"ANGKRINGAN DINAR";"9VGP+38X, Sagara, Kec. Cibalong, Kabupaten Garut, Jawa Barat 44176";"Sagara, Kec. Cibalong, Kabupaten Garut";"JAWA BARAT";"44176";"Indonesia";" 085795083519";"";"";"-7.624766";"107.8858578";"https://maps.google.com/?cid=0x0:0x5b65613617c78268";""
"mall";"Pantai Umum";"SRC TH NENG";"Unnamed Road, Sancang, Kec. Cibalong, Kabupaten Garut, Jawa Barat 44176";"Sancang, Kec. Cibalong, Kabupaten Garut";"JAWA BARAT";"44176";"Indonesia";" 085351775990";"";"";"-7.7151972";"107.8914547";"https://maps.google.com/?cid=0x0:0xdc5af18b4eee8465";""
"mall";"Toko Makanan";"warung ibu susi";"jl cimadang rt 05 rw 05 ds najaten, Simpang, Kec. Cibalong, Kabupaten Garut, Jawa Barat 44176";"Simpang, Kec. Cibalong, Kabupaten Garut";"JAWA BARAT";"44176";"Indonesia";" 082321238998";"";"";"-7.7013684";"107.9152237";"https://maps.google.com/?cid=0x0:0x2b78f05175df02a0";""
"mall";"Pusat Perbelanjaan";"Warung Bi Julaeha";"8W99+9WH, Simpang, Kec. Cibalong, Kabupaten Garut, Jawa Barat 44176";"Simpang, Kec. Cibalong, Kabupaten Garut";"JAWA BARAT";"44176";"Indonesia";" 0895362518296";"";"";"-7.6815591";"107.9198508";"https://maps.google.com/?cid=0x0:0xd500244642773e64";""
"mall";"Pusat Perbelanjaan";"salvia";"Kp. Cibalieur desa sancang, Jl, Sancang, Kec. Cibalong, Kabupaten Garut, Jawa Barat 44176";"Jl, Sancang, Kec. Cibalong, Kabupaten Garut";"JAWA BARAT";"44176";"Indonesia";" 081260011529";"";"";"-7.7009534";"107.8835784";"https://maps.google.com/?cid=0x0:0xfb650f094dc62da4";""
"mall";"Toko";"Warung Ma Eti";"8VHG+JRW, Mekarwangi, Kec. Cibalong, Kabupaten Garut, Jawa Barat 44176";"Mekarwangi, Kec. Cibalong, Kabupaten Garut";"JAWA BARAT";"44176";"Indonesia";" 085353687475";"";"";"-7.6708835";"107.8770693";"https://maps.google.com/?cid=0x0:0xaa0b8512cd3932f3";""
"mall";"Toko";"Saung Panyawangan Cipareang kang Dewa";"Unnamed Road, Sancang, Kec. Cibalong, Kabupaten Garut, Jawa Barat 44176";"Sancang, Kec. Cibalong, Kabupaten Garut";"JAWA BARAT";"44176";"Indonesia";" 082320285202";"";"";"-7.7385198";"107.8857351";"https://maps.google.com/?cid=0x0:0x9bb548d29cf9914b";""
"mall";"Toko";"Toko Sinar Mentari";"Karyamukti, Kec. Cibalong, Kabupaten Garut, Jawa Barat 44176";"Kec. Cibalong, Kabupaten Garut";"JAWA BARAT";"44176";"Indonesia";" 085156033949";"";"";"-7.6795992";"107.8031836";"https://maps.google.com/?cid=0x0:0xf52171060c527c66";""
"mall";"Toko bahan makanan";"TOKO LARISTA(Agen Galon Le Minerale)";"8Q9X+XV9, Jalan Raya, Karyamukti, Cibalong, Garut Regency, West Java 44176";"Jalan Raya, Karyamukti, Cibalong, Garut Regency";"JAWA BARAT";"44176";"Indonesia";" 082217261884";"";"";"-7.6800971";"107.7997385";"https://maps.google.com/?cid=0x0:0x884fcd51ac6006d5";""
"mall";"Toko Makanan";"Warung Razip";"8V5Q+G6V, Sancang, Kec. Cibalong, Kabupaten Garut, Jawa Barat 44176";"Sancang, Kec. Cibalong, Kabupaten Garut";"JAWA BARAT";"44176";"Indonesia";" 082240112211";"";"";"-7.6911452";"107.8880559";"https://maps.google.com/?cid=0x0:0x23b1ec6b0da7f6c6";""
"mall";"Pusat Perbelanjaan";"Plaza MANDALA Alun-Alun Pameungpeuk Garut";"Mandalakasih, Kec. Pameungpeuk, Kabupaten Garut, Jawa Barat 44175";"Kec. Pameungpeuk, Kabupaten Garut";"JAWA BARAT";"44175";"Indonesia";"";"";"";"-7.6451861";"107.7295445";"https://maps.google.com/?cid=0x0:0xa3d3201659bf81f";""
"mall";"Toko Swalayan";"Warung MSR";"CW63+QH4, Toblong, Kec. Peundeuy, Kabupaten Garut, Jawa Barat 44176";"Toblong, Kec. Peundeuy, Kabupaten Garut";"JAWA BARAT";"44176";"Indonesia";" 081293477141";"";"";"-7.5881231";"107.9039592";"https://maps.google.com/?cid=0x0:0xe0cbec670c8708e6";""
"mall";"Toko";"Warung Umpan Udang Hidup Pak Aca";"Sagara, Kec. Cibalong, Kabupaten Garut, Jawa Barat 44176";"Kec. Cibalong, Kabupaten Garut";"JAWA BARAT";"44176";"Indonesia";" 085256450592";"";"/url?q>>u003dhttp://facebook.com/ilham.hdt>>u0026opi>>u003d79508299>>u0026sa>>u003dU>>u0026ved>>u003d0ahUKEwjystfgttiLAxXQxTgGHbtYH2gQ61gIFigS>>u0026usg>>u003dAOvVaw0m0Hd8C4tOxThOkdnlBevJ";"-7.6895704";"107.8175435";"https://maps.google.com/?cid=0x0:0xca23b5ba86d90e36";""
"mall";"Mal outlet";"Plaza Mandalakasih";"9P3H+RMJ, Mandalakasih, Kec. Pameungpeuk, Kabupaten Garut, Jawa Barat 44175";"Mandalakasih, Kec. Pameungpeuk, Kabupaten Garut";"JAWA BARAT";"44175";"Indonesia";"";"";"";"-7.6454123";"107.7291547";"https://maps.google.com/?cid=0x0:0xeff4aa5f87ac38dd";""
"mall";"mall";"Jawa Barat 44176";"Kec. Cibalong, Kabupaten Garut, Jawa Barat";"Kabupaten Garut, Jawa Barat";"JAWA BARAT";"";"Indonesia";"";"";"";"-7.6437387";"107.8346924";"https://maps.google.com/?cid=0x0:0x1c00c5eb568ed780";""
"mall";"Toko Swalayan";"Elsinta Swalayan Cab. Cibalong";"Jl. Raya Karangnunggal No.16, Cibalong, Kec. Cibalong, Kabupaten Tasikmalaya, Jawa Barat 46185";"Cibalong, Kec. Cibalong, Kabupaten Tasikmalaya";"JAWA BARAT";"46185";"Indonesia";"";"";"";"-7.5139232";"108.1814215";"https://maps.google.com/?cid=0x0:0xaf42a66f49dfcaeb";""
"mall";"Toko";"Eriel Collection";"F5JG+XM7, Jl. Raya Karangnunggal, Cibalong, Kec. Cibalong, Kabupaten Tasikmalaya, Jawa Barat 46185";"Jl. Raya Karangnunggal, Cibalong, Kec. Cibalong, Kabupaten Tasikmalaya";"JAWA BARAT";"46185";"Indonesia";" 085223342832";"";"";"-7.5175947";"108.1766829";"https://maps.google.com/?cid=0x0:0x75993f038d3c6280";""
"mall";"Pasar";"Cihideung Setiawaras Cibalong Tasikmalaya";"C52P+F6H, Setiawaras, Kec. Cibalong, Kabupaten Tasikmalaya, Jawa Barat 46185";"Setiawaras, Kec. Cibalong, Kabupaten Tasikmalaya";"JAWA BARAT";"46185";"Indonesia";"";"";"";"-7.5988012";"108.1856121";"https://maps.google.com/?cid=0x0:0xe145288e24be8baf";""
"mall";"Pusat Perbelanjaan";"Adam AN";"C58H+GQF, Unnamed Road, Setiawaras, Kec. Cibalong, Kabupaten Tasikmalaya, Jawa Barat 46185";"Unnamed Road, Setiawaras, Kec. Cibalong, Kabupaten Tasikmalaya";"JAWA BARAT";"46185";"Indonesia";"";"";"";"-7.5836998";"108.1794204";"https://maps.google.com/?cid=0x0:0xcae7b7acb2d6a316";""
"mall";"Toko umum";"Mitra Cell";"Eureunpalay, Kec. Cibalong, Kabupaten Tasikmalaya, Jawa Barat 46185";"Kec. Cibalong, Kabupaten Tasikmalaya";"JAWA BARAT";"46185";"Indonesia";" 082315737763";"";"";"-7.5788761";"108.1673359";"https://maps.google.com/?cid=0x0:0x126f7a9789ed5368";""
"mall";"Pusat Perbelanjaan";"toko Ibu Nenti";"C68C+3G3, Cisempur, Kec. Cibalong, Kabupaten Tasikmalaya, Jawa Barat 46185";"Cisempur, Kec. Cibalong, Kabupaten Tasikmalaya";"JAWA BARAT";"46185";"Indonesia";" 085223735941";"";"";"-7.5848679";"108.2212845";"https://maps.google.com/?cid=0x0:0xa2638cc909f86f8e";""
"mall";"Asosiasi/organisasi";"DLF-BF TASELA";"F5PM+F43, Cibalong, Kec. Cibalong, Kabupaten Tasikmalaya, Jawa Barat 46185";"Cibalong, Kec. Cibalong, Kabupaten Tasikmalaya";"JAWA BARAT";"46185";"Indonesia";" 085223378000";"";"";"-7.5138723";"108.1828063";"https://maps.google.com/?cid=0x0:0xe0a609f4765227bc";""
"mall";"Seafood";"UD. Ikan Segar Ibu Sinta";"Jl. Raya Karangnunggal No.16, Cibalong, Kec. Cibalong, Kabupaten Tasikmalaya, Jawa Barat 46185";"Cibalong, Kec. Cibalong, Kabupaten Tasikmalaya";"JAWA BARAT";"46185";"Indonesia";" 085803673763";"";"";"-7.5143607";"108.184041";"https://maps.google.com/?cid=0x0:0xc977e3e6dfa33485";""
"mall";"mall";"warung space";"C5F5+R2R, Eureunpalay, Kec. Cibalong, Kabupaten Tasikmalaya, Jawa Barat 46185";"Eureunpalay, Kec. Cibalong, Kabupaten Tasikmalaya";"JAWA BARAT";"46185";"Indonesia";"";"";"";"-7.575389";"108.157517";"https://maps.google.com/?cid=0x0:0x7d644eaecc0df7f";""
"mall";"Toko Swalayan";"SRC RIKA Sambawa";"C58H+GQF, Unnamed Road, Setiawaras, Kec. Cibalong, Kabupaten Tasikmalaya, Jawa Barat 46185";"Unnamed Road, Setiawaras, Kec. Cibalong, Kabupaten Tasikmalaya";"JAWA BARAT";"46185";"Indonesia";"";"";"";"-7.5836998";"108.1794204";"https://maps.google.com/?cid=0x0:0x32370a74722b04f2";""
"mall";"Pusat Perbelanjaan";"KAYLA";"8VXF+J45, Sagara, Kec. Cibalong, Kabupaten Garut, Jawa Barat 44176";"Sagara, Kec. Cibalong, Kabupaten Garut";"JAWA BARAT";"44176";"Indonesia";" 081321270581";"";"";"-7.6509778";"107.8728508";"https://maps.google.com/?cid=0x0:0xdc0888774e424d59";""
"mall";"Toko";"Toko SEPTI";"kl, Kp batulawang, Setiawaras, Kec. Cibalong, Kabupaten Tasikmalaya, Jawa Barat 46185";"Kp batulawang, Setiawaras, Kec. Cibalong, Kabupaten Tasikmalaya";"JAWA BARAT";"46185";"Indonesia";" 081214165999";"";"";"-7.5693223";"108.1809652";"https://maps.google.com/?cid=0x0:0x6843bfe872ef3d95";""
"mall";"Pusat Perbelanjaan";"Ayam potong TANJAKAN";"Jl.parpon kp.cililitan rt2 rw02, Cibalong, Kec. Cibalong, Kabupaten Tasikmalaya, Jawa Barat 46185";"Cibalong, Kec. Cibalong, Kabupaten Tasikmalaya";"JAWA BARAT";"46185";"Indonesia";" 082118712011";"";"";"-7.5124676";"108.1790706";"https://maps.google.com/?cid=0x0:0xac7eb28ddd2af5dd";""
"mall";"Pusat Perbelanjaan";"ujje cellular";"F5V8+VQG, sawahilir, Girikencana, Kec. Parungponteng, Kabupaten Tasikmalaya, Jawa Barat 46185";"sawahilir, Girikencana, Kec. Parungponteng, Kabupaten Tasikmalaya";"JAWA BARAT";"46185";"Indonesia";" 085318174567";"";"";"-7.5053007";"108.1669409";"https://maps.google.com/?cid=0x0:0x98277c7ce9301cd1";""
"mall";"Agen Gas Elpiji";"Gas 3KG Pa JEJE";"G52R+8W8, Singajaya, Kec. Cibalong, Kabupaten Tasikmalaya, Jawa Barat 46185";"Singajaya, Kec. Cibalong, Kabupaten Tasikmalaya";"JAWA BARAT";"46185";"Indonesia";" 085322957627";"";"";"-7.4992227";"108.192319";"https://maps.google.com/?cid=0x0:0x3e53bc2cc8cf6961";""
"mall";"Produsen";"Pabrik Tahu";"C5F3+2RJ, Picungmerah, Eureunpalay, Kec. Cibalong, Kabupaten Tasikmalaya, Jawa Barat 46185";"Picungmerah, Eureunpalay, Kec. Cibalong, Kabupaten Tasikmalaya";"JAWA BARAT";"46185";"Indonesia";" 089344396239";"";"";"-7.5774166";"108.1545194";"https://maps.google.com/?cid=0x0:0x256894e8de96ac0d";""
"mall";"Pusat Perbelanjaan";"Pasar Januti";"G4HG+XQX, Burujuljaya, Kec. Parungponteng, Kabupaten Tasikmalaya, Jawa Barat 46185";"Burujuljaya, Kec. Parungponteng, Kabupaten Tasikmalaya";"JAWA BARAT";"46185";"Indonesia";"";"";"";"-7.4700117";"108.1269978";"https://maps.google.com/?cid=0x0:0x1c9370150879e0f9";""
"mall";"Pusat Perbelanjaan";"Tk. Mangjabar";"F5X5+QMJ, jln.cadas ngampar, Parungponteng, Kec. Parungponteng, Kabupaten Tasikmalaya, Jawa Barat 46185";"jln.cadas ngampar, Parungponteng, Kec. Parungponteng, Kabupaten Tasikmalaya";"JAWA BARAT";"46185";"Indonesia";"";"";"";"-7.5005471";"108.1591409";"https://maps.google.com/?cid=0x0:0x4983b7fa9f926b78";""
"mall";"Toko bahan makanan";"Warung ibu wawat";"Jl. Tamansari No.17, Cisempur, Kec. Cibalong, Kabupaten Tasikmalaya, Jawa Barat 46181";"Cisempur, Kec. Cibalong, Kabupaten Tasikmalaya";"JAWA BARAT";"46181";"Indonesia";"";"";"";"-7.58625";"108.2105783";"https://maps.google.com/?cid=0x0:0xe3508636ed02906";""
"mall";"mall";"Kec. Cibalong";"Kabupaten Tasikmalaya, Jawa Barat";"Kabupaten Tasikmalaya, Jawa Barat";"JAWA BARAT";"";"Indonesia";"";"";"";"-7.5139661";"108.181027";"https://maps.google.com/?cid=0x0:0x9340bca8d01ee6f6";""
"mall";"Pasar";"Terminal Pasar Cibalong";"F5PJ+9JH, Cibalong, Kec. Cibalong, Kabupaten Tasikmalaya, Jawa Barat 46185";"Cibalong, Kec. Cibalong, Kabupaten Tasikmalaya";"JAWA BARAT";"46185";"Indonesia";"";"";"";"-7.5140725";"108.1816006";"https://maps.google.com/?cid=0x0:0xd343d86ad4f51559";""
"mall";"Pusat Perbelanjaan";"BERKAH MART";"J3V4+299, Lengkongjaya, Kec. Cigalontang, Kabupaten Tasikmalaya, Jawa Barat 46463";"Lengkongjaya, Kec. Cigalontang, Kabupaten Tasikmalaya";"JAWA BARAT";"46463";"Indonesia";" 081280590836";"";"";"-7.3574628";"108.055994";"https://maps.google.com/?cid=0x0:0xcb479c32352f8020";""
"mall";"Pusat Perbelanjaan";"AiriKita Mart";"M2HM+G2H, Unnamed Road, Sirnaraja, Kec. Cigalontang, Kabupaten Tasikmalaya, Jawa Barat 46463";"Unnamed Road, Sirnaraja, Kec. Cigalontang, Kabupaten Tasikmalaya";"JAWA BARAT";"46463";"Indonesia";" 082295294884";"";"";"-7.3211937";"108.032623";"https://maps.google.com/?cid=0x0:0x943b2ac0be83d9d7";""
"mall";"Toko Ponsel";"Konter Kamar Celluler";"Jl. Raya Cigalontang, Nangerang, Kec. Cigalontang, Kabupaten Tasikmalaya, Jawa Barat 46463";"Nangerang, Kec. Cigalontang, Kabupaten Tasikmalaya";"JAWA BARAT";"46463";"Indonesia";" 085223979050";"";"";"-7.3600756";"108.0663052";"https://maps.google.com/?cid=0x0:0x1ebdc7e799c0feb2";""
"mall";"Toko Swalayan";"mikro";"J4W3+PC7, Jl. Raya, Sukamanah, Kec. Cigalontang, Kabupaten Tasikmalaya, Jawa Barat 46463";"Jl. Raya, Sukamanah, Kec. Cigalontang, Kabupaten Tasikmalaya";"JAWA BARAT";"46463";"Indonesia";" 082240660124";"";"";"-7.3532153";"108.103558";"https://maps.google.com/?cid=0x0:0x81b9eb12d42d0e82";""
"mall";"Pusat Perbelanjaan";"A2 CELLULER";"Kp Pasir Huni, RT.02/RW.04, Sirnagalih, Kec. Cigalontang, Kabupaten Tasikmalaya, Jawa Barat 46463";"RT.02/RW.04, Sirnagalih, Kec. Cigalontang, Kabupaten Tasikmalaya";"JAWA BARAT";"46463";"Indonesia";" 089669728840";"";"";"-7.2963254";"107.9293133";"https://maps.google.com/?cid=0x0:0x5b5a96efadd0b5ea";""
"mall";"Pusat Perbelanjaan";"BUMDES NANJUNG JAYA";"J3RM+C9P, Jl. Raya Cigalontang, Nangerang, Kec. Cigalontang, Kabupaten Tasikmalaya, Jawa Barat 46463";"Jl. Raya Cigalontang, Nangerang, Kec. Cigalontang, Kabupaten Tasikmalaya";"JAWA BARAT";"46463";"Indonesia";" 08112110434";"";"";"-7.3589156";"108.0834455";"https://maps.google.com/?cid=0x0:0xcf05ef61d6300112";""
"mall";"Pusat Perbelanjaan";"Toko Haura";"MWMR+9JM, Kersamaju, Kec. Cigalontang, Kabupaten Tasikmalaya, Jawa Barat 46463";"Kersamaju, Kec. Cigalontang, Kabupaten Tasikmalaya";"JAWA BARAT";"46463";"Indonesia";"";"";"";"-7.3165184";"107.9415351";"https://maps.google.com/?cid=0x0:0x701a9715a66ffe7e";""
"mall";"Toko Pakan Hewan";"Toko Pakan KINKIN";"Jl. Raya Cigalontang No.27, Sukamanah, Kec. Cigalontang, Kabupaten Tasikmalaya, Jawa Barat 46463";"Sukamanah, Kec. Cigalontang, Kabupaten Tasikmalaya";"JAWA BARAT";"46463";"Indonesia";" 081372737788";"";"";"-7.3572337";"108.0882386";"https://maps.google.com/?cid=0x0:0x91997c0d77869a51";""
"mall";"Toko";"Ahli Kacamata";"kp saung seel rt03/rw04, Pusparaja, Kec. Cigalontang, Kabupaten Tasikmalaya, Jawa Barat 46463";"Pusparaja, Kec. Cigalontang, Kabupaten Tasikmalaya";"JAWA BARAT";"46463";"Indonesia";" 081548288587";"";"";"-7.3411992";"108.0009739";"https://maps.google.com/?cid=0x0:0x445f0e9d666b5e88";""
"mall";"Pusat Perbelanjaan";"Toko Fortuna 2(ibu Aton)";"J3W4+QPQ, Kp Nagrak, Tenjonagara, Cigalontang, Tasikmalaya Regency, West Java 46463";"Kp Nagrak, Tenjonagara, Cigalontang, Tasikmalaya Regency";"JAWA BARAT";"46463";"Indonesia";" 085721220824";"";"";"-7.3530377";"108.0568651";"https://maps.google.com/?cid=0x0:0xde0a1386bd99e995";""
"mall";"Pusat Perbelanjaan";"Bengkel Ahlak";"M33G+675, Unnamed Road, Nangerang, Kec. Cigalontang, Kabupaten Tasikmalaya, Jawa Barat 46463";"Unnamed Road, Nangerang, Kec. Cigalontang, Kabupaten Tasikmalaya";"JAWA BARAT";"46463";"Indonesia";" 087779803368";"";"";"-7.3469779";"108.0757485";"https://maps.google.com/?cid=0x0:0x7925160aec007b9a";""
"mall";"Pusat Perbelanjaan";"Warung Ibu Atik";"PW7H+HXP, Sirnagalih, Kec. Cigalontang, Kabupaten Tasikmalaya, Jawa Barat 46463";"Sirnagalih, Kec. Cigalontang, Kabupaten Tasikmalaya";"JAWA BARAT";"46463";"Indonesia";" 081323785456";"";"";"-7.2860408";"107.9299437";"https://maps.google.com/?cid=0x0:0x36ded5874e304d7b";""
"mall";"Pertanian";"Oleh oleh Parentas Center";"Q289+494, Jl. Cigadog Hilir, Parentas, Kec. Cigalontang, Kabupaten Tasikmalaya, Jawa Barat 46463";"Jl. Cigadog Hilir, Parentas, Kec. Cigalontang, Kabupaten Tasikmalaya";"JAWA BARAT";"46463";"Indonesia";"";"";"";"-7.2347394";"108.0184622";"https://maps.google.com/?cid=0x0:0x1cb7457477d920ab";""
"mall";"Toko Swalayan";"Warung Dani";"J2RC+6Q4, Pusparaja, Kec. Cigalontang, Kabupaten Tasikmalaya, Jawa Barat 46463";"Pusparaja, Kec. Cigalontang, Kabupaten Tasikmalaya";"JAWA BARAT";"46463";"Indonesia";" 082310557108";"";"/url?q>>u003dhttps://pondokmakrifapsg.wordpress.com/>>u0026opi>>u003d79508299>>u0026sa>>u003dU>>u0026ved>>u003d0ahUKEwik8KuPt9iLAxX9oWMGHXKSIy4Q61gIFSgR>>u0026usg>>u003dAOvVaw3k6OWWaMmlJ6FnyDsR-1A3";"-7.3594945";"108.0219497";"https://maps.google.com/?cid=0x0:0x45761156b45efa2a";""
"mall";"Toko umum";"Warung Bu ani";"M3M2+W86, Cidugaleun, Kec. Cigalontang, Kabupaten Tasikmalaya, Jawa Barat 46463";"Cidugaleun, Kec. Cigalontang, Kabupaten Tasikmalaya";"JAWA BARAT";"46463";"Indonesia";" 08562103604";"";"";"-7.3152068";"108.0507617";"https://maps.google.com/?cid=0x0:0xb0fc77d563da1bd3";""
"mall";"Pusat Perbelanjaan";"SyifaIffotOlshop";"J2XR+PCV, Lengkongjaya, Kec. Cigalontang, Kabupaten Tasikmalaya, Jawa Barat 46463";"Lengkongjaya, Kec. Cigalontang, Kabupaten Tasikmalaya";"JAWA BARAT";"46463";"Indonesia";" 081315249576";"";"";"-7.3506324";"108.0410445";"https://maps.google.com/?cid=0x0:0x3e2ed83b9e4d9da5";""
"mall";"Kantor Perusahaan";"Family Photo Copy";"P22R+45V, Jl. Cidugaleun, Cidugaleun, Kec. Cigalontang, Kabupaten Tasikmalaya, Jawa Barat 46463";"Jl. Cidugaleun, Cidugaleun, Kec. Cigalontang, Kabupaten Tasikmalaya";"JAWA BARAT";"46463";"Indonesia";" 0895413896083";"";"";"-7.2996433";"108.0404344";"https://maps.google.com/?cid=0x0:0xba9171b23bbf3023";""
"mall";"Toko";"Toko mmh nunuy";"M32H+5WM, Nangerang, Kec. Cigalontang, Kabupaten Tasikmalaya, Jawa Barat 46463";"Nangerang, Kec. Cigalontang, Kabupaten Tasikmalaya";"JAWA BARAT";"46463";"Indonesia";" 085353359300";"";"";"-7.3495499";"108.0797883";"https://maps.google.com/?cid=0x0:0x24695b0e8c58569e";""
"mall";"Toko bahan makanan";"warung mn dudu";"M25R+JX5, Unnamed Road, Tenjonagara, Kec. Cigalontang, Kabupaten Tasikmalaya, Jawa Barat 46463";"Unnamed Road, Tenjonagara, Kec. Cigalontang, Kabupaten Tasikmalaya";"JAWA BARAT";"46463";"Indonesia";" 085717462868";"";"";"-7.341";"108.0424791";"https://maps.google.com/?cid=0x0:0xf29ee4df5e4f2682";""
"mall";"Toko";"warung Teh Yeni";"M26C+8PQ, Jayapura, Kec. Cigalontang, Kabupaten Tasikmalaya, Jawa Barat 46463";"Jayapura, Kec. Cigalontang, Kabupaten Tasikmalaya";"JAWA BARAT";"46463";"Indonesia";" 082313984085";"";"";"-7.3391636";"108.0218635";"https://maps.google.com/?cid=0x0:0x6fa4564b4d84bca6";""
"mall";"Pusat Perbelanjaan";"Sentra Kolontong Opak 3D";"Cikalong, Kec. Cikalong, Kabupaten Tasikmalaya, Jawa Barat 46195";"Kec. Cikalong, Kabupaten Tasikmalaya";"JAWA BARAT";"46195";"Indonesia";" 081322088110";"";"/url?q>>u003dhttp://shopee.co.id/dinnifauziah>>u0026opi>>u003d79508299>>u0026sa>>u003dU>>u0026ved>>u003d0ahUKEwiK9-Wit9iLAxUkzDgGHQmiFy4Q61gIFCgQ>>u0026usg>>u003dAOvVaw0TSpyuzuTk1cFI20DVQ3Ln";"-7.7653554";"108.168687";"https://maps.google.com/?cid=0x0:0xf05c821258a80fe4";""
"mall";"Pusat Perbelanjaan";"JA'E CETAR";"66J3+XQ9, Mandalajaya, Kec. Cikalong, Kabupaten Tasikmalaya, Jawa Barat 46195";"Mandalajaya, Kec. Cikalong, Kabupaten Tasikmalaya";"JAWA BARAT";"46195";"Indonesia";" 081223640737";"";"";"-7.7675947";"108.2044883";"https://maps.google.com/?cid=0x0:0xc9d9a13a9b66b9f7";""
"mall";"Pusat Perbelanjaan";"BOMBER tasik RAYON CIKALONG";"46195, Singkir, Kec. Cikalong, Kabupaten Tasikmalaya, Jawa Barat 46195";"Singkir, Kec. Cikalong, Kabupaten Tasikmalaya";"JAWA BARAT";"46195";"Indonesia";" 08128881028";"";"";"-7.7350863";"108.1795946";"https://maps.google.com/?cid=0x0:0x43fba6f4114fd9a1";""
"mall";"Pusat Perbelanjaan";"Alma Rasa (SENTRAL CIMPRING ALMA RASA)";"66X3+32G, Cikancra, Kec. Cikalong, Kabupaten Tasikmalaya, Jawa Barat 46195";"Cikancra, Kec. Cikalong, Kabupaten Tasikmalaya";"JAWA BARAT";"46195";"Indonesia";" 082274908765";"";"";"-7.7523089";"108.202388";"https://maps.google.com/?cid=0x0:0x80b5daa79cd912a6";""
"mall";"Toko";"TOKO IIM";"65Q8+2F4, Jl. Sindanghurip, Cikalong, Kec. Cikalong, Kabupaten Tasikmalaya, Jawa Barat 46195";"Jl. Sindanghurip, Cikalong, Kec. Cikalong, Kabupaten Tasikmalaya";"JAWA BARAT";"46195";"Indonesia";"";"";"";"-7.7624983";"108.1662613";"https://maps.google.com/?cid=0x0:0x659740a4ac2dbea7";""
"mall";"Pusat Perbelanjaan";"Pasar cibeber";"75RW+RF3, Cibeber, Kec. Cikalong, Kabupaten Tasikmalaya, Jawa Barat 46195";"Cibeber, Kec. Cikalong, Kabupaten Tasikmalaya";"JAWA BARAT";"46195";"Indonesia";"";"";"";"-7.7079997";"108.19616";"https://maps.google.com/?cid=0x0:0x492dada4df6c2937";""
"mall";"Pusat Perbelanjaan";"AGEN MILAGROS CIKALONG TASIKMALAYA";"66V8+X92, Kampung Cijawer, RT.001/RW.001, Cikancra, Kec. Cikalong, Kabupaten Tasikmalaya, Jawa Barat 46195";"Kampung Cijawer, RT.001/RW.001, Cikancra, Kec. Cikalong, Kabupaten Tasikmalaya";"JAWA BARAT";"46195";"Indonesia";" 081224616035";"";"/url?q>>u003dhttp://www.milagros.my.id/>>u0026opi>>u003d79508299>>u0026sa>>u003dU>>u0026ved>>u003d0ahUKEwiMgdikt9iLAxVi3jgGHScuAgoQ61gIFSgR>>u0026usg>>u003dAOvVaw1Mo1c6sBdUtFFoIV_HpC2z";"-7.7551119";"108.2158824";"https://maps.google.com/?cid=0x0:0x459c676ff8f53a3d";""
"mall";"Pasar";"Sawo Balap Sanudin";"kp sindangraja Desa sindangjaya RT/RW 002, Sindangjaya, Kec. Cikalong, Kabupaten Tasikmalaya, Jawa Barat 46195";"Sindangjaya, Kec. Cikalong, Kabupaten Tasikmalaya";"JAWA BARAT";"46195";"Indonesia";"";"";"";"-7.7983446";"108.2519897";"https://maps.google.com/?cid=0x0:0xb21120811f5f094d";""
"mall";"Toko Pakaian";"Citta Busana Dan AL Hijab";"Cikalong, Kec. Cikalong, Kabupaten Tasikmalaya, Jawa Barat 46195";"Kec. Cikalong, Kabupaten Tasikmalaya";"JAWA BARAT";"46195";"Indonesia";" 085295562007";"";"";"-7.763718";"108.1731999";"https://maps.google.com/?cid=0x0:0xeb77fdbe7aedaea2";""
"mall";"Pusat Perbelanjaan";"Pasar Tradisional Desa Kubangsari";"7674+46H, Kubangsari, Kec. Cikalong, Kabupaten Tasikmalaya, Jawa Barat 46195";"Kubangsari, Kec. Cikalong, Kabupaten Tasikmalaya";"JAWA BARAT";"46195";"Indonesia";"";"";"";"-7.7371898";"108.2056108";"https://maps.google.com/?cid=0x0:0x5a93454403542662";""
"mall";"Bank";"Brilink Nuryani";"75PV+M2V, Cibeber, Kec. Cikalong, Kabupaten Tasikmalaya, Jawa Barat 46195";"Cibeber, Kec. Cikalong, Kabupaten Tasikmalaya";"JAWA BARAT";"46195";"Indonesia";"";"";"";"-7.7132608";"108.1925461";"https://maps.google.com/?cid=0x0:0x493870a1bdccaf04";""
"mall";"Pusat Perbelanjaan";"Latif Sawo Balap";"Sindangjaya, Kec. Cikalong, Kabupaten Tasikmalaya, Jawa Barat 46195";"Kec. Cikalong, Kabupaten Tasikmalaya";"JAWA BARAT";"46195";"Indonesia";" 081221079987";"";"";"-7.7961891";"108.2322021";"https://maps.google.com/?cid=0x0:0xd5dd0ee37d5aa51";""
"mall";"Pusat Perbelanjaan";"Jaya Celular Cidadali";"Jl. Pasir Sembung, Kubangsari, Kec. Cikalong, Kabupaten Tasikmalaya, Jawa Barat 46195";"Kubangsari, Kec. Cikalong, Kabupaten Tasikmalaya";"JAWA BARAT";"46195";"Indonesia";" 085223000054";"";"";"-7.717946";"108.2099679";"https://maps.google.com/?cid=0x0:0x5fd877fd19102d98";""
"mall";"Toko";"Fahira Cell";"58Q9+WV3, Cimanuk, Kalapagenep, Kec. Cikalong, Kabupaten Tasikmalaya, Jawa Barat 46195";"Cimanuk, Kalapagenep, Kec. Cikalong, Kabupaten Tasikmalaya";"JAWA BARAT";"46195";"Indonesia";"";"";"";"-7.8102344";"108.3196863";"https://maps.google.com/?cid=0x0:0x57a3875bcb6cbae5";""
"mall";"Pusat Perbelanjaan";"Warung DENATA";"755G+M55, Jl. Kp. Tonjong, Tonjongsari, Kec. Cikalong, Kabupaten Tasikmalaya, Jawa Barat 46195";"Jl. Kp. Tonjong, Tonjongsari, Kec. Cikalong, Kabupaten Tasikmalaya";"JAWA BARAT";"46195";"Indonesia";" 082262148604";"";"";"-7.7408587";"108.1754804";"https://maps.google.com/?cid=0x0:0x8339cc8190b78550";""
"mall";"Pusat Pembelajaran";"Putra Jaya Photo Copy, Warnet dan ATK";"Jl. Cikalong, Cikalong, Kec. Cikalong, Kabupaten Tasikmalaya, Jawa Barat 46195";"Cikalong, Kec. Cikalong, Kabupaten Tasikmalaya";"JAWA BARAT";"46195";"Indonesia";" 085221222456";"";"";"-7.7629061";"108.1744722";"https://maps.google.com/?cid=0x0:0xa557a71c475187b6";""
"mall";"Gedung Pertemuan";"Pasar Desa Cikancra";"7626+WCJ, Jl. Cikancra Cijawer, Cikancra, Kec. Cikalong, Kabupaten Tasikmalaya, Jawa Barat 46195";"Jl. Cikancra Cijawer, Cikancra, Kec. Cikalong, Kabupaten Tasikmalaya";"JAWA BARAT";"46195";"Indonesia";"";"";"";"-7.7476579";"108.2110175";"https://maps.google.com/?cid=0x0:0x2a716edcd548e450";""
"mall";"Pusat Perbelanjaan";"GIBRAN CELL";"Jln.raya desa cidadali kp.cimajaya, RT.003/RW.003, Pasir lang-layang, Kec. Cikalong, Kabupaten Tasikmalaya, Jawa Barat 46195";"RT.003/RW.003, Pasir lang-layang, Kec. Cikalong, Kabupaten Tasikmalaya";"JAWA BARAT";"46195";"Indonesia";" 085289306372";"";"";"-7.7208643";"108.2116853";"https://maps.google.com/?cid=0x0:0xda27417460a4e4a";""
"mall";"";"Pupupallen-olshop Cikadu Sodong";"66VG+9J4, jalan, Cikadu, Kec. Cikalong, Kabupaten Tasikmalaya, Jawa Barat 46195";"jalan, Cikadu, Kec. Cikalong, Kabupaten Tasikmalaya";"JAWA BARAT";"46195";"Indonesia";" 085321847518";"";"";"-7.7566153";"108.2265661";"https://maps.google.com/?cid=0x0:0x403c015cde17307d";""
"mall";"mall";"Jawa Barat 46195";"Kabupaten Tasikmalaya, Jawa Barat";"Kabupaten Tasikmalaya, Jawa Barat";"JAWA BARAT";"";"Indonesia";"";"";"";"-7.7412463";"108.2258897";"https://maps.google.com/?cid=0x0:0x1c00c5eb568ee770";""
"mall";"Toko";"Alfamart Cikalong";"Jl. Cikalong, Cikalong, Kec. Cikalong, Kabupaten Tasikmalaya, Jawa Barat 46195";"Cikalong, Kec. Cikalong, Kabupaten Tasikmalaya";"JAWA BARAT";"46195";"Indonesia";" 1500959";"";"";"-7.7649546";"108.1728973";"https://maps.google.com/?cid=0x0:0xc605986da0b45c51";""
"mall";"Pusat Perbelanjaan";"Pusat oleh oleh grosir opak Sindang rea";"Kp. Desakolot, Cikalong, Kec. Cikalong, Kabupaten Tasikmalaya, Jawa Barat 46195";"Cikalong, Kec. Cikalong, Kabupaten Tasikmalaya";"JAWA BARAT";"46195";"Indonesia";" 082127801552";"";"";"-7.7657134";"108.170307";"https://maps.google.com/?cid=0x0:0xc316e647202fa988";""
"mall";"Institusi Pendidikan";"Ponpes Miptahul Falah";"46195, Sindangjaya, Kec. Cikalong, Kabupaten Tasikmalaya, Jawa Barat 46195";"Sindangjaya, Kec. Cikalong, Kabupaten Tasikmalaya";"JAWA BARAT";"46195";"Indonesia";" 085115318790";"";"";"-7.7960218";"108.230439";"https://maps.google.com/?cid=0x0:0xcc2e165e80c00531";""
"mall";"Toko";"TOKO AKBAR PUTRA";"Unnamed Road, Cikancra, Kec. Cikalong, Kabupaten Tasikmalaya, Jawa Barat 46195";"Cikancra, Kec. Cikalong, Kabupaten Tasikmalaya";"JAWA BARAT";"46195";"Indonesia";" 082323111121";"";"";"-7.7523413";"108.2070109";"https://maps.google.com/?cid=0x0:0xf403dcd22509866c";""
"mall";"mall";"Cikancra";"66R5+W6X, Cikancra, Kec. Cikalong, Kabupaten Tasikmalaya, Jawa Barat 46195";"Cikancra, Kec. Cikalong, Kabupaten Tasikmalaya";"JAWA BARAT";"46195";"Indonesia";"";"";"";"-7.7576278";"108.2080973";"https://maps.google.com/?cid=0x0:0x7c11fd4c09f88b35";""
"mall";"mall";"Cikalong";"Kec. Cikalong, Kabupaten Tasikmalaya, Jawa Barat 46195";"Kabupaten Tasikmalaya";"JAWA BARAT";"46195";"Indonesia";"";"";"";"-7.7926261";"108.2116501";"https://maps.google.com/?cid=0x0:0x91384b05372b283e";""
"mall";"Pusat Perbelanjaan";"Diyara Cell";"97R7+GGG, Pakemitan, Kec. Cikatomas, Kabupaten Tasikmalaya, Jawa Barat 46193";"Pakemitan, Kec. Cikatomas, Kabupaten Tasikmalaya";"JAWA BARAT";"46193";"Indonesia";" 085322302620";"";"";"-7.6086981";"108.2638271";"https://maps.google.com/?cid=0x0:0xe6f87ca35565cb19";""
"mall";"Pusat Perbelanjaan";"Satia Celullar";"97G5+V6J, Jalan Raya, Pakemitan, Cikatomas, Tasikmalaya Regency, West Java 46193";"Jalan Raya, Pakemitan, Cikatomas, Tasikmalaya Regency";"JAWA BARAT";"46193";"Indonesia";" 082317776663";"";"";"-7.6227813";"108.2580289";"https://maps.google.com/?cid=0x0:0x79a2ac0e2131c6f2";""
"mall";"Pusat Perbelanjaan";"Delis Cell";"97J4+XGV, Pakemitan, Kec. Cikatomas, Kabupaten Tasikmalaya, Jawa Barat 46193";"Pakemitan, Kec. Cikatomas, Kabupaten Tasikmalaya";"JAWA BARAT";"46193";"Indonesia";" 085221698063";"";"";"-7.6175026";"108.2562851";"https://maps.google.com/?cid=0x0:0xc1fec2ad88dceb1f";""
"mall";"Pusat Perbelanjaan";"Mutiara mart";"87GF+6F3, Jl. Raya Buniasih, Cilumba, Kec. Cikatomas, Kabupaten Tasikmalaya, Jawa Barat 46194";"Jl. Raya Buniasih, Cilumba, Kec. Cikatomas, Kabupaten Tasikmalaya";"JAWA BARAT";"46194";"Indonesia";" 081223618314";"";"";"-7.6744786";"108.2736581";"https://maps.google.com/?cid=0x0:0x9df30a49432fbd1e";""
"mall";"Toko";"toko eldi";"97H4+94F, Jl. Rumah Sakit, Pakemitan, Kec. Cikatomas, Kabupaten Tasikmalaya, Jawa Barat 46193";"Jl. Rumah Sakit, Pakemitan, Kec. Cikatomas, Kabupaten Tasikmalaya";"JAWA BARAT";"46193";"Indonesia";" 082319952319";"";"";"-7.6222462";"108.2556135";"https://maps.google.com/?cid=0x0:0xbd167c9b32550e58";""
"mall";"Pusat Perbelanjaan";"Ruko Putra Daerah";"85FP+VP8, Unnamed Road, Gunungsari, Kec. Cikatomas, Kabupaten Tasikmalaya, Jawa Barat 46193";"Unnamed Road, Gunungsari, Kec. Cikatomas, Kabupaten Tasikmalaya";"JAWA BARAT";"46193";"Indonesia";" 082194282306";"";"";"-7.6753459";"108.1868368";"https://maps.google.com/?cid=0x0:0x8532e1dd05abd71b";""
"mall";"Pusat Perbelanjaan";"RIDWAN cell";"97X9+FHF, Lengkongbarang, Kec. Cikatomas, Kabupaten Tasikmalaya, Jawa Barat 46193";"Lengkongbarang, Kec. Cikatomas, Kabupaten Tasikmalaya";"JAWA BARAT";"46193";"Indonesia";" 082123800030";"";"";"-7.601321";"108.2689102";"https://maps.google.com/?cid=0x0:0xf8a2297e68afa28";""
"mall";"Toko Perhiasan";"Toko mas mutiara cikatomas";"Jl. Raya Cikatomas No.255, Pakemitan, Kec. Cikatomas, Kabupaten Tasikmalaya, Jawa Barat 46193";"Pakemitan, Kec. Cikatomas, Kabupaten Tasikmalaya";"JAWA BARAT";"46193";"Indonesia";"";"";"";"-7.6234493";"108.2589336";"https://maps.google.com/?cid=0x0:0xfdfac7fb80f19baf";""
"mall";"Pusat Perbelanjaan";"ayam potong";"965M+99F, Linggalaksana, Kec. Cikatomas, Kabupaten Tasikmalaya, Jawa Barat 46193";"Linggalaksana, Kec. Cikatomas, Kabupaten Tasikmalaya";"JAWA BARAT";"46193";"Indonesia";" 085244955303";"";"";"-7.641563";"108.233431";"https://maps.google.com/?cid=0x0:0x49c8069aa4f8cf1a";""
"mall";"Toko Swalayan";"Sinar mandiri Broiler 1";"Pasar rakyat, Kec. Cikatomas, Kabupaten Tasikmalaya, Jawa Barat 46193";"Kec. Cikatomas, Kabupaten Tasikmalaya";"JAWA BARAT";"46193";"Indonesia";" 085222956777";"";"";"-7.6286276";"108.2637586";"https://maps.google.com/?cid=0x0:0xc65ff003dba45975";""
"mall";"Toko Parfum";"Toko Dokter Parfume";"97G6+99P, Pakemitan, Kec. Cikatomas, Kabupaten Tasikmalaya, Jawa Barat 46193";"Pakemitan, Kec. Cikatomas, Kabupaten Tasikmalaya";"JAWA BARAT";"46193";"Indonesia";" 081220193586";"";"";"-7.624043";"108.2609612";"https://maps.google.com/?cid=0x0:0xb6777e50013cc8d7";""
"mall";"Pusat Perbelanjaan";"Toko Asri Jaya";"C7V3+282, kp.palawija, Tanjungbarang, Kec. Cikatomas, Kabupaten Tasikmalaya, Jawa Barat 46193";"kp.palawija, Tanjungbarang, Kec. Cikatomas, Kabupaten Tasikmalaya";"JAWA BARAT";"46193";"Indonesia";" 082121805405";"";"";"-7.5574815";"108.2532718";"https://maps.google.com/?cid=0x0:0x52fb628581b25433";""
"mall";"Pusat Perbelanjaan";"SRC Tk.Nia";"967M+4V9, Cikatomas, Linggalaksana, Kec. Cikatomas, Kabupaten Tasikmalaya, Jawa Barat 46193";"Cikatomas, Linggalaksana, Kec. Cikatomas, Kabupaten Tasikmalaya";"JAWA BARAT";"46193";"Indonesia";" 085223022230";"";"";"-7.6372137";"108.2347337";"https://maps.google.com/?cid=0x0:0xb12e6b2093bb4fea";""
"mall";"Minimarket";"Plaza Asia Tasikmalaya";"Jl. HZ. Mustofa No.326, Tugujaya, Kec. Cihideung, Kab. Tasikmalaya, Jawa Barat 46125";"Tugujaya, Kec. Cihideung, Kab. Tasikmalaya";"JAWA BARAT";"46125";"Indonesia";" 02652352215";"";"";"-7.3430288";"108.2169357";"https://maps.google.com/?cid=0x0:0x911e5e4095a1b4a2";""
"mall";"Toko Perlengkapan Rumah";"Farrel Jaya Motor";"97R7+FFX, Pakemitan, Kec. Cikatomas, Kabupaten Tasikmalaya, Jawa Barat 46193";"Pakemitan, Kec. Cikatomas, Kabupaten Tasikmalaya";"JAWA BARAT";"46193";"Indonesia";" 082214542620";"";"";"-7.608765";"108.2637368";"https://maps.google.com/?cid=0x0:0x17984053f291da22";""
"mall";"Toko bahan makanan";"TOKO BR(KELONTONGAN)";"97F6+FWW, Jalan Raya, Pakemitan, Cikatomas, Tasikmalaya Regency, West Java 46193";"Jalan Raya, Pakemitan, Cikatomas, Tasikmalaya Regency";"JAWA BARAT";"46193";"Indonesia";" 081321472010";"";"";"-7.6262539";"108.2623395";"https://maps.google.com/?cid=0x0:0x80c5045f332717b4";""
"mall";"Pusat Perbelanjaan";"warung nyi ade";"8793+G3G, kp bungbulang, Cilumba, Kec. Cikatomas, Kabupaten Tasikmalaya, Jawa Barat 46193";"kp bungbulang, Cilumba, Kec. Cikatomas, Kabupaten Tasikmalaya";"JAWA BARAT";"46193";"Indonesia";" 085314209676";"";"";"-7.6811856";"108.2527072";"https://maps.google.com/?cid=0x0:0xa05b2ee096608c53";""
"mall";"Pusat Perbelanjaan";"Agen Milagros Cikatomas";"976V+93H, Cogreg, Kec. Cikatomas, Kabupaten Tasikmalaya, Jawa Barat 46194";"Cogreg, Kec. Cikatomas, Kabupaten Tasikmalaya";"JAWA BARAT";"46194";"Indonesia";" 081295779022";"";"";"-7.6390626";"108.2927318";"https://maps.google.com/?cid=0x0:0xdd0b6af449a2781c";""
"mall";"Pusat Perbelanjaan";"Diyara Cell 2";"9769+CW4, Jl. Raya Cidadap, Cogreg, Kec. Cikatomas, Kabupaten Tasikmalaya, Jawa Barat 46194";"Jl. Raya Cidadap, Cogreg, Kec. Cikatomas, Kabupaten Tasikmalaya";"JAWA BARAT";"46194";"Indonesia";" 085322302620";"";"";"-7.6389951";"108.2698232";"https://maps.google.com/?cid=0x0:0xd961d9ea3e152c9f";""
"mall";"mall";"Jawa Barat 46193";"Kec. Cikatomas, Kabupaten Tasikmalaya, Jawa Barat";"Kabupaten Tasikmalaya, Jawa Barat";"JAWA BARAT";"";"Indonesia";"";"";"";"-7.6145353";"108.273341";"https://maps.google.com/?cid=0x0:0x1c00c5eb568ee760";""
"mall";"Pusat Perbelanjaan";"Warung Nusasari";"F735+2HX, Unnamed Road, Tanjungbarang, Kec. Cikatomas, Kabupaten Tasikmalaya, Jawa Barat 46193";"Unnamed Road, Tanjungbarang, Kec. Cikatomas, Kabupaten Tasikmalaya";"JAWA BARAT";"46193";"Indonesia";" 082114388506";"";"";"-7.5473964";"108.25898";"https://maps.google.com/?cid=0x0:0xa59288695e8a914b";""
"mall";"Pusat Perbelanjaan";"TOKO MAGETA COLLECTION";"Jl. Raya Cineam Jl. Yoga Suara No.91, Madiasari, Kec. Cineam, Kabupaten Tasikmalaya, Jawa Barat 46198";"Madiasari, Kec. Cineam, Kabupaten Tasikmalaya";"JAWA BARAT";"46198";"Indonesia";" 0265381208";"";"";"-7.3782623";"108.3536476";"https://maps.google.com/?cid=0x0:0x3ca8e8f1058af145";""
"mall";"Toko";"TOKO MULYANA";"J954+XRW, Cineam, Kec. Cineam, Kabupaten Tasikmalaya, Jawa Barat 46198";"Cineam, Kec. Cineam, Kabupaten Tasikmalaya";"JAWA BARAT";"46198";"Indonesia";" 085223584227";"";"";"-7.3900061";"108.3570926";"https://maps.google.com/?cid=0x0:0xd69e6fe9b40eb0c";""
"mall";"Toko";"Pasar Cineam";"J964+4W4, Jl. Cineam - Cidolog, Rajadatu, Kec. Cineam, Kabupaten Tasikmalaya, Jawa Barat 46198";"Jl. Cineam - Cidolog, Rajadatu, Kec. Cineam, Kabupaten Tasikmalaya";"JAWA BARAT";"46198";"Indonesia";"";"";"";"-7.3897486";"108.3573272";"https://maps.google.com/?cid=0x0:0xdd93816abe9d9329";""
"mall";"Pusat Perbelanjaan";"Toko Elgan Jaya";"H8WX+396, Cineam, Kec. Cineam, Kabupaten Tasikmalaya, Jawa Barat 46198";"Cineam, Kec. Cineam, Kabupaten Tasikmalaya";"JAWA BARAT";"46198";"Indonesia";"";"";"";"-7.4048328";"108.348394";"https://maps.google.com/?cid=0x0:0xe0bc763f80caa76d";""
"mall";"Toko";"Toko HADE Cineam";"Depan Pasar Cineam No.27, Cineam, Kec. Cineam, Kabupaten Tasikmalaya, Jawa Barat 46198";"Cineam, Kec. Cineam, Kabupaten Tasikmalaya";"JAWA BARAT";"46198";"Indonesia";" 081323023100";"";"";"-7.389214";"108.3573735";"https://maps.google.com/?cid=0x0:0x7d1304b98267db32";""
"mall";"Toko";"Toko CAHAYA MANDIRI";"H8GV+RC4, Cikondang, Kec. Cineam, Kabupaten Tasikmalaya, Jawa Barat 46198";"Cikondang, Kec. Cineam, Kabupaten Tasikmalaya";"JAWA BARAT";"46198";"Indonesia";"";"";"";"-7.4229829";"108.3435835";"https://maps.google.com/?cid=0x0:0x8fa81e452448ec49";""
"mall";"Pusat Perbelanjaan";"Ciamis Mall (Ci Mall)";"Jl. Jend. Sudirman No.22, Ciamis, Kec. Ciamis, Kabupaten Ciamis, Jawa Barat 46211";"Ciamis, Kec. Ciamis, Kabupaten Ciamis";"JAWA BARAT";"46211";"Indonesia";"";"";"";"-7.3259738";"108.3539137";"https://maps.google.com/?cid=0x0:0x5bb1e1331a64ba78";""
"mall";"Pusat Perbelanjaan";"Spj koi";"J965+6PQ, Jl. Dewi Sartika, Cineam, Kec. Cineam, Kabupaten Tasikmalaya, Jawa Barat 46198";"Jl. Dewi Sartika, Cineam, Kec. Cineam, Kabupaten Tasikmalaya";"JAWA BARAT";"46198";"Indonesia";" 082115864604";"";"";"-7.3891714";"108.3595641";"https://maps.google.com/?cid=0x0:0x2b2f21f088ea54a6";""
"mall";"Pusat Perbelanjaan";"Rakha cellular";"J9MP+PPW, Ancol, Kec. Cineam, Kabupaten Tasikmalaya, Jawa Barat 46198";"Ancol, Kec. Cineam, Kabupaten Tasikmalaya";"JAWA BARAT";"46198";"Indonesia";" 081802550699";"";"";"-7.3656416";"108.3868419";"https://maps.google.com/?cid=0x0:0x73baf54d49acacbe";""
"mall";"";"Foto Copy Heni";"Jl. Manonjaya - Banjar No.16, Ancol, Kec. Cineam, Kabupaten Tasikmalaya, Jawa Barat 46198";"Ancol, Kec. Cineam, Kabupaten Tasikmalaya";"JAWA BARAT";"46198";"Indonesia";" 08131123067";"";"";"-7.3661514";"108.3840571";"https://maps.google.com/?cid=0x0:0x257640138aaab2b";""
"mall";"Toko Makanan Organik";"BERKAH AMANAH FARM (MUSTOFA)";"JCJ2+F24, Jl. Manonjaya - Banjar, Ancol, Kec. Cineam, Kabupaten Tasikmalaya, Jawa Barat 46198";"Jl. Manonjaya - Banjar, Ancol, Kec. Cineam, Kabupaten Tasikmalaya";"JAWA BARAT";"46198";"Indonesia";" 082295495597";"";"";"-7.3688727";"108.4000792";"https://maps.google.com/?cid=0x0:0x86a74f1aabb27a58";""
"mall";"Toko bahan makanan";"Toko Heni";"Jl. Raya Cineam, Pasirbatang, Kec. Manonjaya, Kabupaten Tasikmalaya, Jawa Barat 46197";"Pasirbatang, Kec. Manonjaya, Kabupaten Tasikmalaya";"JAWA BARAT";"46197";"Indonesia";" 081323665001";"";"";"-7.3685956";"108.3500798";"https://maps.google.com/?cid=0x0:0xc266966ac1bcabcd";""
"mall";"Toko bahan makanan";"Warung Ibu Mimin";"Cisarua, Kec. Cineam, Kabupaten Tasikmalaya, Jawa Barat 46198";"Kec. Cineam, Kabupaten Tasikmalaya";"JAWA BARAT";"46198";"Indonesia";"";"";"";"-7.4565434";"108.349299";"https://maps.google.com/?cid=0x0:0x5b13913229297cc3";""
"mall";"Toko";"Pira Dental";"J9CH+QP8, Rajadatu, Kec. Cineam, Kabupaten Tasikmalaya, Jawa Barat 46198";"Rajadatu, Kec. Cineam, Kabupaten Tasikmalaya";"JAWA BARAT";"46198";"Indonesia";" 082126583119";"";"";"-7.378076";"108.3793176";"https://maps.google.com/?cid=0x0:0xbe9ed2cd023b7d4e";""
"mall";"Pom bensin/SPBU";"POM MINI (dang Ismail)";"Unnamed Road, Cisarua, Kec. Cineam, Kabupaten Tasikmalaya, Jawa Barat 46198";"Cisarua, Kec. Cineam, Kabupaten Tasikmalaya";"JAWA BARAT";"46198";"Indonesia";" 085294127755";"";"";"-7.4586316";"108.3532687";"https://maps.google.com/?cid=0x0:0x96b6adfeddf147b8";""
"mall";"Minimarket";"Plaza Asia Tasikmalaya";"Jl. HZ. Mustofa No.326, Tugujaya, Kec. Cihideung, Kab. Tasikmalaya, Jawa Barat 46125";"Tugujaya, Kec. Cihideung, Kab. Tasikmalaya";"JAWA BARAT";"46125";"Indonesia";" 02652352215";"";"/url?q>>u003dhttps://www.asiatoserba.com/plaza-asia-tasikmalaya>>u0026opi>>u003d79508299>>u0026sa>>u003dU>>u0026ved>>u003d0ahUKEwikm_Xdt9iLAxXJzzgGHYr7CYQQ61gIFigS>>u0026usg>>u003dAOvVaw1pKEZy2xNBSlSRkstY-Ixm";"-7.3430288";"108.2169357";"https://maps.google.com/?cid=0x0:0x911e5e4095a1b4a2";""
"mall";"Pusat Perbelanjaan";"Jelly cosmetik";"J9MP+MPM, Ancol, Kec. Cineam, Kabupaten Tasikmalaya, Jawa Barat 46198";"Ancol, Kec. Cineam, Kabupaten Tasikmalaya";"JAWA BARAT";"46198";"Indonesia";"";"";"";"-7.3657997";"108.3868092";"https://maps.google.com/?cid=0x0:0x648322ff194c4b36";""
"mall";"Pertanian";"Cineam";"J954+GGH, Jln PK no 28, RT.16/RW.05, Cineam, Kec. Cineam, Kabupaten Tasikmalaya, Jawa Barat 46198";"Jln PK no 28, RT.16/RW.05, Cineam, Kec. Cineam, Kabupaten Tasikmalaya";"JAWA BARAT";"46198";"Indonesia";"";"";"";"-7.3931543";"108.3582675";"https://maps.google.com/?cid=0x0:0x1cf3580329e94626";""
"mall";"Pusat Perbelanjaan";"Keisha12shop";"Jl. Senen Raya No.2, RT.6/RW.2, Madiasari, Kec. Cineam, Kabupaten Tasikmalaya, Jawa Barat 46198";"RT.6/RW.2, Madiasari, Kec. Cineam, Kabupaten Tasikmalaya";"JAWA BARAT";"46198";"Indonesia";" 085559224681";"";"";"-7.380705";"108.3534306";"https://maps.google.com/?cid=0x0:0x8610f6ceec686116";""
"mall";"mall";"Jawa Barat 46198";"Kabupaten Tasikmalaya, Jawa Barat";"Kabupaten Tasikmalaya, Jawa Barat";"JAWA BARAT";"";"Indonesia";"";"";"";"-7.424011";"108.3682641";"https://maps.google.com/?cid=0x0:0x1c00c5eb568ee7e0";""
"mall";"Toko Alat Tulis Kantor";"Toko grosir dan brilink ii farez";"J9QG+34P, Kampung Maribaya, Ancol, Kec. Cineam, Kabupaten Tasikmalaya, Jawa Barat 46198";"Kampung Maribaya, Ancol, Kec. Cineam, Kabupaten Tasikmalaya";"JAWA BARAT";"46198";"Indonesia";" 081323184116";"";"";"-7.3622823";"108.3753251";"https://maps.google.com/?cid=0x0:0xcc27bfc34b4fbd96";""
"mall";"Toko bahan makanan";"titan mart";"J85Q+XC8, Unnamed Road, Batusumur, Kec. Manonjaya, Kabupaten Tasikmalaya, Jawa Barat 46197";"Unnamed Road, Batusumur, Kec. Manonjaya, Kabupaten Tasikmalaya";"JAWA BARAT";"46197";"Indonesia";" 085795181821";"";"";"-7.3900808";"108.3385728";"https://maps.google.com/?cid=0x0:0x7002729a0eee8814";""
"mall";"Toko bahan makanan";"Warung Bi Juju";"83RH+RFF, Bantarkalong, Kec. Cipatujah, Kabupaten Tasikmalaya, Jawa Barat 46187";"Bantarkalong, Kec. Cipatujah, Kabupaten Tasikmalaya";"JAWA BARAT";"46187";"Indonesia";"";"";"";"-7.6579279";"108.0786804";"https://maps.google.com/?cid=0x0:0xc94550b6b17c14f7";""
"mall";"Pusat Perbelanjaan";"Pasar Sukajaya";"728G+442, Unnamed Road, Cipatujah, Kec. Cipatujah, Kabupaten Tasikmalaya, Jawa Barat 46189";"Unnamed Road, Cipatujah, Kec. Cipatujah, Kabupaten Tasikmalaya";"JAWA BARAT";"46189";"Indonesia";" 081803934734";"";"";"-7.7347451";"108.0252761";"https://maps.google.com/?cid=0x0:0x658f2e334ef72d40";""
"mall";"Toko Pakaian";"Salmaa store";"83G5+4P3, Kp Cicadas, Darawati, Kec. Cipatujah, Kabupaten Tasikmalaya, Jawa Barat 46189";"Kp Cicadas, Darawati, Kec. Cipatujah, Kabupaten Tasikmalaya";"JAWA BARAT";"46189";"Indonesia";"";"";"";"-7.6747251";"108.059284";"https://maps.google.com/?cid=0x0:0xa4fa7e072d3f1739";""
"mall";"Kantor Perusahaan";"depot air mineral";"73XH+8QR, Kertasari, Kec. Cipatujah, Kabupaten Tasikmalaya, Jawa Barat 46189";"Kertasari, Kec. Cipatujah, Kabupaten Tasikmalaya";"JAWA BARAT";"46189";"Indonesia";"";"";"";"-7.701643";"108.0793842";"https://maps.google.com/?cid=0x0:0xaf765b4d707a035f";""
"mall";"Pusat Perbelanjaan";"Pasar Patmah Desa Wakap";"F3FM+X7W, Jl. Kubang Jaya, Wakap, Kec. Bantarkalong, Kabupaten Tasikmalaya, Jawa Barat 46187";"Jl. Kubang Jaya, Wakap, Kec. Bantarkalong, Kabupaten Tasikmalaya";"JAWA BARAT";"46187";"Indonesia";"";"";"";"-7.5250116";"108.0832171";"https://maps.google.com/?cid=0x0:0x5ba82977ecabbe59";""
"mall";"Pusat Perbelanjaan";"Warung Ibu Tijah";"932C+XM8, Bantarkalong, Kec. Cipatujah, Kabupaten Tasikmalaya, Jawa Barat 46189";"Bantarkalong, Kec. Cipatujah, Kabupaten Tasikmalaya";"JAWA BARAT";"46189";"Indonesia";" 085221873776";"";"";"-7.6475814";"108.0716957";"https://maps.google.com/?cid=0x0:0x4597c3a68c3a008b";""
"mall";"Pusat Perbelanjaan";"Bahana Store By Catatan 76";"Mekarsari rt/rw 014/004, Nagrog, Kec. Cipatujah, Kabupaten Tasikmalaya, Jawa Barat 46189";"Nagrog, Kec. Cipatujah, Kabupaten Tasikmalaya";"JAWA BARAT";"46189";"Indonesia";" 085310489696";"";"/url?q>>u003dhttps://youtu.be/QQiSD05k-2M>>u0026opi>>u003d79508299>>u0026sa>>u003dU>>u0026ved>>u003d0ahUKEwjf4_P1t9iLAxVUSWwGHYZ3GhMQ61gIFigS>>u0026usg>>u003dAOvVaw3cfjXmLuqDX6AZmkm_imDw";"-7.6728606";"108.0254957";"https://maps.google.com/?cid=0x0:0x1eee2a8a01071258";""
