Category;Real Category;Business Name;Address;City;State;Postal Code;Country;Phone;Email;Website;Latitude;Longitude;Map Link;Details Link
"komplek housing";"Pembangunan Perumahan";"Komplek Perumahan Green Garden Rorotan Cilincing Jakarta Utara";"Jl. Angelia Raya No.7, RT.7/RW.1, Rorotan, Kec. Cilincing, Jkt Utara, Daerah Khusus Ibukota Jakarta 14140";"RT.7/RW.1, Rorotan, Kec. Cilincing, Jkt Utara";"DAERAH KHUSUS IBUKOTA JAKARTA";"14140";"Indonesia";"";"";"";"-6.153322";"106.9503629";"https://maps.google.com/?cid=0x0:0x701334e347744651";""
"komplek housing";"Komplek perumahan";"Komplek Pelindo 2 Cilincing";"RW.9, Jalan Kompleks Pelindo II Cilincing, RT.8/RW.9, Cilincing, RT.1/RW.6, Semper Tim., Kec. Cilincing, Jkt Utara, Daerah Khusus Ibukota Jakarta 14120";"Jalan Kompleks Pelindo II Cilincing, RT.8/RW.9, Cilincing, RT.1/RW.6, Semper Tim., Kec. Cilincing, Jkt Utara";"DAERAH KHUSUS IBUKOTA JAKARTA";"14120";"Indonesia";"";"";"";"-6.1139892";"106.9378548";"https://maps.google.com/?cid=0x0:0x5840ed298c9900cb";""
"komplek housing";"Perhimpunan Pengembang Perumahan";"Gg. Kepala";"VWW8+3WR, Gg. Kepala, RT.8/RW.8, Kali Baru, Kec. Cilincing, Jkt Utara, Daerah Khusus Ibukota Jakarta 14110";"Gg. Kepala, RT.8/RW.8, Kali Baru, Kec. Cilincing, Jkt Utara";"DAERAH KHUSUS IBUKOTA JAKARTA";"14110";"Indonesia";"";"";"";"-6.1047625";"106.9172663";"https://maps.google.com/?cid=0x0:0x84d03bc6bbe98c6a";""
"komplek housing";"Komplek perumahan";"Kompleks airud baharkam polri";"Jl. Raya Cilincing No.4, RT.3/RW.5, Semper Tim., Kec. Cilincing, Jkt Utara, Daerah Khusus Ibukota Jakarta 14130";"RT.3/RW.5, Semper Tim., Kec. Cilincing, Jkt Utara";"DAERAH KHUSUS IBUKOTA JAKARTA";"14130";"Indonesia";" 087872424380";"";"";"-6.107175";"106.9275478";"https://maps.google.com/?cid=0x0:0xfc6b0cddb1d6f058";""
"komplek housing";"Komplek perumahan";"fachry";"Jl. Cilincing Baru No.16A, RT.7/RW.1, Cilincing, Kec. Cilincing, Jkt Utara, Daerah Khusus Ibukota Jakarta 14110";"RT.7/RW.1, Cilincing, Kec. Cilincing, Jkt Utara";"DAERAH KHUSUS IBUKOTA JAKARTA";"14110";"Indonesia";"";"";"";"-6.1037724";"106.92844";"https://maps.google.com/?cid=0x0:0xc7d0976d4ff298eb";""
"komplek housing";"Perumahan";"Kandang jakarta utara";"Jl. Kalibaru Barat 7 No.151, RT.12/RW.4, Kali Baru, Kec. Cilincing, Jkt Utara, Daerah Khusus Ibukota Jakarta 14110";"RT.12/RW.4, Kali Baru, Kec. Cilincing, Jkt Utara";"DAERAH KHUSUS IBUKOTA JAKARTA";"14110";"Indonesia";" 08999711750";"";"";"-6.1017395";"106.9203384";"https://maps.google.com/?cid=0x0:0x9e5a6ca0d20f6ad";""
"komplek housing";"Kedai Kopi";"Home Asep Mahmudin";"Kode Pcs 14110, Jl. Kalibaru Barat IV No.80 RT:15, RW.7, Ke, Kec. Cilincing, Jkt Utara, Daerah Khusus Ibukota Jakarta 14110";"Jl. Kalibaru Barat IV No.80 RT:15, RW.7, Ke, Kec. Cilincing, Jkt Utara";"DAERAH KHUSUS IBUKOTA JAKARTA";"14110";"Indonesia";"";"";"";"-6.1064349";"106.9252438";"https://maps.google.com/?cid=0x0:0xe36c2aa9cf8fa057";""
"komplek housing";"Kafe";"GANG. BANANA";"VWXF+37X, Jl. Kalibaru Barat 7, RT.9/RW.5, Kali Baru, Kec. Cilincing, Jkt Utara, Daerah Khusus Ibukota Jakarta 14110";"Jl. Kalibaru Barat 7, RT.9/RW.5, Kali Baru, Kec. Cilincing, Jkt Utara";"DAERAH KHUSUS IBUKOTA JAKARTA";"14110";"Indonesia";"";"";"";"-6.1022644";"106.92325";"https://maps.google.com/?cid=0x0:0xac55c99809bbaf2a";""
"komplek housing";"komplek housing";"Sean House";"Jl. Kalibaru Barat IV No.2, RT.6/RW.7, Kali Baru, Kec. Cilincing, Jkt Utara, Daerah Khusus Ibukota Jakarta 14110";"RT.6/RW.7, Kali Baru, Kec. Cilincing, Jkt Utara";"DAERAH KHUSUS IBUKOTA JAKARTA";"14110";"Indonesia";"";"";"";"-6.1054349";"106.9242276";"https://maps.google.com/?cid=0x0:0xa45a88c820bc7e8b";""
"komplek housing";"komplek housing";"Rumah Restu😎";"Jl. Kalibaru Barat IV No.2, RT.2/RW.Rt 14, Kali Baru, Kec. Cilincing, Jkt Utara, Daerah Khusus Ibukota Jakarta 14110";"RT.2/RW.Rt 14, Kali Baru, Kec. Cilincing, Jkt Utara";"DAERAH KHUSUS IBUKOTA JAKARTA";"14110";"Indonesia";"";"";"";"-6.1054539";"106.9202508";"https://maps.google.com/?cid=0x0:0x662c79092b5cd70e";""
"komplek housing";"Komplek perumahan";"Rumah Iyye Hj Naga";"Jl. Kalibaru Barat IV No.16, RT.1/RW.11, Kali Baru, Kec. Cilincing, Jkt Utara, Daerah Khusus Ibukota Jakarta 14110";"RT.1/RW.11, Kali Baru, Kec. Cilincing, Jkt Utara";"DAERAH KHUSUS IBUKOTA JAKARTA";"14110";"Indonesia";"";"";"";"-6.1062593";"106.920124";"https://maps.google.com/?cid=0x0:0x7003bed989da0157";""
"komplek housing";"Komplek perumahan";"Keenan home";"Jl. Kalibaru Jl. Kali Baru Timur V A No.13, RT.5/RW.13, Kali Baru, Kec. Cilincing, Jkt Utara, Daerah Khusus Ibukota Jakarta 14110";"RT.5/RW.13, Kali Baru, Kec. Cilincing, Jkt Utara";"DAERAH KHUSUS IBUKOTA JAKARTA";"14110";"Indonesia";"";"";"";"-6.1003181";"106.9324071";"https://maps.google.com/?cid=0x0:0x7ea670c9f8c0bfc0";""
"komplek housing";"komplek housing";"Mega deden";"VWV9+M46, RT.8/RW.8, Kali Baru, Kec. Cilincing, Jkt Utara, Daerah Khusus Ibukota Jakarta 14110";"RT.8/RW.8, Kali Baru, Kec. Cilincing, Jkt Utara";"DAERAH KHUSUS IBUKOTA JAKARTA";"14110";"Indonesia";"";"";"";"-6.1058289";"106.9177563";"https://maps.google.com/?cid=0x0:0xa081bae9c9684d4b";""
"komplek housing";"Pembangunan Perumahan";"RUMAH RAZIE (KING JOMOK GROBOGAN MGAWI SQUAD 😈)";"Jl. Kalibaru Bar. V Jl. Raya Cilincing No.RT. 13/13, RT.2/RW.8, Kali Baru, Kec. Cilincing, Jkt Utara, Daerah Khusus Ibukota Jakarta 14110";"RT.2/RW.8, Kali Baru, Kec. Cilincing, Jkt Utara";"DAERAH KHUSUS IBUKOTA JAKARTA";"14110";"Indonesia";"";"";"";"-6.1085026";"106.9176143";"https://maps.google.com/?cid=0x0:0xcab222800cc99bbc";""
"komplek housing";"komplek housing";"Rumah nenek Fatih Fatir";"Jl. Kali Baru Barat VI Gg. Swadaya 3 No.49, RT.13/RW.7, Kali Baru, Kec. Cilincing, Jkt Utara, Daerah Khusus Ibukota Jakarta 14110";"RT.13/RW.7, Kali Baru, Kec. Cilincing, Jkt Utara";"DAERAH KHUSUS IBUKOTA JAKARTA";"14110";"Indonesia";" 081220813885";"";"";"-6.1049438";"106.9228509";"https://maps.google.com/?cid=0x0:0x1b46ac58c8db22c4";""
"komplek housing";"komplek housing";"rumah";"Jl. Kalibaru Barat 8 No.13, RT.9/RW.7, Kali Baru, Kec. Cilincing, Jkt Utara, Daerah Khusus Ibukota Jakarta 14110";"RT.9/RW.7, Kali Baru, Kec. Cilincing, Jkt Utara";"DAERAH KHUSUS IBUKOTA JAKARTA";"14110";"Indonesia";"";"";"";"-6.103097";"106.923233";"https://maps.google.com/?cid=0x0:0xb6a082d89523d8b0";""
"komplek housing";"Komplek perumahan";"Rumah Le Suradi";"VWVC+QQV, Gg. 2, RT.8/RW.7, Kali Baru, Kec. Cilincing, Jkt Utara, Daerah Khusus Ibukota Jakarta 14110";"Gg. 2, RT.8/RW.7, Kali Baru, Kec. Cilincing, Jkt Utara";"DAERAH KHUSUS IBUKOTA JAKARTA";"14110";"Indonesia";"";"";"";"-6.1055145";"106.9219182";"https://maps.google.com/?cid=0x0:0xd9dc8533007f1c1";""
"komplek housing";"Kompleks Kondominium";"Suheri home";"Jl. Kali Baru Timur VI No.70B 13, RT.13/RW.13, Kali Baru, Kec. Cilincing, Jkt Utara, Daerah Khusus Ibukota Jakarta 14110";"RT.13/RW.13, Kali Baru, Kec. Cilincing, Jkt Utara";"DAERAH KHUSUS IBUKOTA JAKARTA";"14110";"Indonesia";"";"";"";"-6.0981623";"106.9325873";"https://maps.google.com/?cid=0x0:0x8f00b02171882cd4";""
"komplek housing";"komplek housing";"Kost rifdah regita";"Gg. Manunggal 7 No.13, RT.7/RW.15, Kali Baru, Kec. Cilincing, Jkt Utara, Daerah Khusus Ibukota Jakarta 14110";"RT.7/RW.15, Kali Baru, Kec. Cilincing, Jkt Utara";"DAERAH KHUSUS IBUKOTA JAKARTA";"14110";"Indonesia";"";"";"";"-6.1016258";"106.9240948";"https://maps.google.com/?cid=0x0:0xc66950cda6c1f8cb";""
"komplek housing";"komplek housing";"Daerah Khusus Ibukota Jakarta 14110";"Kali Baru, Kec. Cilincing, Jkt Utara, Daerah Khusus Ibukota Jakarta";"Jkt Utara, Daerah Khusus Ibukota Jakarta";"DAERAH KHUSUS IBUKOTA JAKARTA";"";"Indonesia";"";"";"";"-6.104635";"106.9152021";"https://maps.google.com/?cid=0x0:0x1c00c5eb4d031a50";""
"komplek housing";"Komplek perumahan";"Rumah";"Gg. 7 No.13, RT.4/RW.7, Kali Baru, Kec. Cilincing, Jkt Utara, Daerah Khusus Ibukota Jakarta 14110";"RT.4/RW.7, Kali Baru, Kec. Cilincing, Jkt Utara";"DAERAH KHUSUS IBUKOTA JAKARTA";"14110";"Indonesia";"";"";"";"-6.1053441";"106.9247614";"https://maps.google.com/?cid=0x0:0x2208e3cef715722b";""
"komplek housing";"Komplek perumahan";"Rumah Kel Abdul Rochim";"Jl. Kali Baru Timur IX No.31, RT.6/RW.14, Kali Baru, Kec. Cilincing, Jkt Utara, Daerah Khusus Ibukota Jakarta 14110";"RT.6/RW.14, Kali Baru, Kec. Cilincing, Jkt Utara";"DAERAH KHUSUS IBUKOTA JAKARTA";"14110";"Indonesia";"";"";"";"-6.0982017";"106.9288232";"https://maps.google.com/?cid=0x0:0x14165b8603c56ff2";""
"komplek housing";"Perhimpunan Pengembang Perumahan";"Keluarga Sanjaya";"Gg. Kalibaru Tim. No.32 6, RT.8/RW.3, Kali Baru, Kec. Cilincing, Jkt Utara, Daerah Khusus Ibukota Jakarta 14110";"RT.8/RW.3, Kali Baru, Kec. Cilincing, Jkt Utara";"DAERAH KHUSUS IBUKOTA JAKARTA";"14110";"Indonesia";"";"";"";"-6.1010485";"106.9279865";"https://maps.google.com/?cid=0x0:0x78ea9b8a4dc38699";""
"komplek housing";"Komplek perumahan";"RISKA  ABIB";"VWWF+V8H, RT.5/RW.5, Kali Baru, Kec. Cilincing, Jkt Utara, Daerah Khusus Ibukota Jakarta 14110";"RT.5/RW.5, Kali Baru, Kec. Cilincing, Jkt Utara";"DAERAH KHUSUS IBUKOTA JAKARTA";"14110";"Indonesia";"";"";"";"-6.1028129";"106.9233725";"https://maps.google.com/?cid=0x0:0x2c0a17302661a1a9";""
"komplek housing";"komplek housing";"Rumah Andayansss";"Gg. Kalibaru Tim. No..34, RT.10/RW.3, Kali Baru, Kec. Cilincing, Jkt Utara, Daerah Khusus Ibukota Jakarta 14110";"RT.10/RW.3, Kali Baru, Kec. Cilincing, Jkt Utara";"DAERAH KHUSUS IBUKOTA JAKARTA";"14110";"Indonesia";"";"";"";"-6.1002257";"106.9282125";"https://maps.google.com/?cid=0x0:0x3924ab75eb0c699e";""
"komplek housing";"Komplek perumahan";"fatia's family";"Jl. Kali Baru Tim. VI B No.33B, RT.8/RW.13, Kali Baru, Kec. Cilincing, Jkt Utara, Daerah Khusus Ibukota Jakarta 14110";"RT.8/RW.13, Kali Baru, Kec. Cilincing, Jkt Utara";"DAERAH KHUSUS IBUKOTA JAKARTA";"14110";"Indonesia";"";"";"";"-6.0991375";"106.9344327";"https://maps.google.com/?cid=0x0:0x9004ca3a3aea2689";""
"komplek housing";"Perhimpunan Pengembang Perumahan";"FatihFadil";"RT.13/RW.2, Kali Baru, Kec. Cilincing, Jkt Utara, Daerah Khusus Ibukota Jakarta 14110";"Kali Baru, Kec. Cilincing, Jkt Utara";"DAERAH KHUSUS IBUKOTA JAKARTA";"14110";"Indonesia";"";"";"";"-6.1019319";"106.9292944";"https://maps.google.com/?cid=0x0:0x24377ea53b9c8048";""
"komplek housing";"komplek housing";"Siallagan";"Jl. Cilincing Baru 3 No.22, Cilincing, Kec. Cilincing, Jkt Utara, Daerah Khusus Ibukota Jakarta 14110";"Cilincing, Kec. Cilincing, Jkt Utara";"DAERAH KHUSUS IBUKOTA JAKARTA";"14110";"Indonesia";"";"";"";"-6.103465";"106.930103";"https://maps.google.com/?cid=0x0:0x2aa6fba2475acd60";""
"komplek housing";"Komplek perumahan";"Home";"Jln kalibaru timur No.17, RT.11/RW.1, Kali Baru, Kec. Cilincing, Jkt Utara, Daerah Khusus Ibukota Jakarta 14110";"RT.11/RW.1, Kali Baru, Kec. Cilincing, Jkt Utara";"DAERAH KHUSUS IBUKOTA JAKARTA";"14110";"Indonesia";"";"";"";"-6.098088";"106.9346761";"https://maps.google.com/?cid=0x0:0x259d36d4e6208b0c";""
"komplek housing";"Komplek perumahan";"Komplek Pelindo 2 Cilincing";"RW.9, Jalan Kompleks Pelindo II Cilincing, RT.8/RW.9, Cilincing, RT.1/RW.6, Semper Tim., Kec. Cilincing, Jkt Utara, Daerah Khusus Ibukota Jakarta 14120";"Jalan Kompleks Pelindo II Cilincing, RT.8/RW.9, Cilincing, RT.1/RW.6, Semper Tim., Kec. Cilincing, Jkt Utara";"DAERAH KHUSUS IBUKOTA JAKARTA";"14120";"Indonesia";"";"";"";"-6.1139892";"106.9378548";"https://maps.google.com/?cid=0x0:0x5840ed298c9900cb";""
"komplek housing";"Komplek perumahan";"Home";"Jl. Cilincing Bakti VII No.25,RT.5/RW.6, Cilincing,Kec. Cilincing,Jakarta Utara,Daerah Khusus Ibu, 14120";"Jkt Utara, Daerah Khusus Ibukota Jakarta";"DAERAH KHUSUS IBUKOTA JAKARTA";"";"Indonesia";"";"";"";"-6.1085907";"106.9371537";"https://maps.google.com/?cid=0x0:0x776f4709f4aa7816";""
"komplek housing";"Komplek perumahan";"Hasan Basri Home";"Jl. Cilincing Bakti VIII No.37 7, RT.5/RW.6, Cilincing, Kec. Cilincing, Jkt Utara, Daerah Khusus Ibukota Jakarta 14120";"RT.5/RW.6, Cilincing, Kec. Cilincing, Jkt Utara";"DAERAH KHUSUS IBUKOTA JAKARTA";"14120";"Indonesia";"";"";"";"-6.108434";"106.9377928";"https://maps.google.com/?cid=0x0:0x552120c9d58c85b8";""
"komplek housing";"Komplek perumahan";"Sihombing Home";"Jl. Cilincing Lama I No.12, RT.9/RW.4, Cilincing, Kec. Cilincing, Jkt Utara, Daerah Khusus Ibukota Jakarta 14120";"RT.9/RW.4, Cilincing, Kec. Cilincing, Jkt Utara";"DAERAH KHUSUS IBUKOTA JAKARTA";"14120";"Indonesia";"";"";"";"-6.1011454";"106.9360876";"https://maps.google.com/?cid=0x0:0xabe8418f90cf4d49";""
"komplek housing";"Komplek perumahan";"Cilincing rekreasi";"Jl. Cilincing Rekreasi No.24, RT.6/RW.4, Cilincing, Kec. Cilincing, Jkt Utara, Daerah Khusus Ibukota Jakarta 14120";"RT.6/RW.4, Cilincing, Kec. Cilincing, Jkt Utara";"DAERAH KHUSUS IBUKOTA JAKARTA";"14120";"Indonesia";"";"";"";"-6.0986467";"106.9382444";"https://maps.google.com/?cid=0x0:0xd5d071ee1796614e";""
"komplek housing";"komplek housing";"daenk izar";"Jl. Cilincing Baru 4 No.29, RT.10/RW.9, Cilincing, Kec. Cilincing, Jkt Utara, Daerah Khusus Ibukota Jakarta 14120";"RT.10/RW.9, Cilincing, Kec. Cilincing, Jkt Utara";"DAERAH KHUSUS IBUKOTA JAKARTA";"14120";"Indonesia";"";"";"";"-6.1047515";"106.9295759";"https://maps.google.com/?cid=0x0:0xe88702816c7be3bc";""
"komplek housing";"komplek housing";"MUSLIMAH HAM";"Jl.Sungai Landak.Gg masjid Baitul Huda II(depan sumber indah foto),No.9, RT.11/RW.8, (samping puskesmas Cilincing II,kel, RT.11/RW.8, Cilincing, Kec. Cilincing, Jkt Utara, Daerah Khusus Ibukota Jakarta 14120";"RT.11/RW.8, (samping puskesmas Cilincing II,kel, RT.11/RW.8, Cilincing, Kec. Cilincing, Jkt Utara";"DAERAH KHUSUS IBUKOTA JAKARTA";"14120";"Indonesia";"";"";"";"-6.1039334";"106.9403104";"https://maps.google.com/?cid=0x0:0x8a89ce10e6d2cd85";""
"komplek housing";"Komplek perumahan";"A'la Home";"RT 11 no.49, RT.14/RW.1, Cilincing, Kec. Cilincing, Jkt Utara, Daerah Khusus Ibukota Jakarta 14120";"RT.14/RW.1, Cilincing, Kec. Cilincing, Jkt Utara";"DAERAH KHUSUS IBUKOTA JAKARTA";"14120";"Indonesia";"";"";"";"-6.1058367";"106.9281612";"https://maps.google.com/?cid=0x0:0x20e6bfeb4d582c63";""
"komplek housing";"Komplek perumahan";"Ibu Engkai";"Jl. Komp. Kuburan No.9 17, RT.17/RW.3, Semper Tim., Kec. Cilincing, Jkt Utara, Daerah Khusus Ibukota Jakarta 14120";"RT.17/RW.3, Semper Tim., Kec. Cilincing, Jkt Utara";"DAERAH KHUSUS IBUKOTA JAKARTA";"14120";"Indonesia";"";"";"";"-6.1154361";"106.9362658";"https://maps.google.com/?cid=0x0:0x480f350c4f6561cf";""
"komplek housing";"komplek housing";"POJOK DIKI";"Jl. Akses Marunda No.19, RW.8, Cilincing, Kec. Cilincing, Jkt Utara, Daerah Khusus Ibukota Jakarta 14120";"RW.8, Cilincing, Kec. Cilincing, Jkt Utara";"DAERAH KHUSUS IBUKOTA JAKARTA";"14120";"Indonesia";"";"";"";"-6.1112813";"106.9398303";"https://maps.google.com/?cid=0x0:0xc35adaf88f72fcb";""
"komplek housing";"Pembangunan Perumahan";"Rumah tinggal";"Jl. Klp. Dua No.58, RT.15/RW.3, Cilincing, Kec. Cilincing, Jkt Utara, Daerah Khusus Ibukota Jakarta 14120";"RT.15/RW.3, Cilincing, Kec. Cilincing, Jkt Utara";"DAERAH KHUSUS IBUKOTA JAKARTA";"14120";"Indonesia";"";"";"";"-6.1023558";"106.9348075";"https://maps.google.com/?cid=0x0:0x39976a13e646e812";""
"komplek housing";"Komplek perumahan";"Rumah Jali";"Jl. Masjid Al Alam No.16, RT.5/RW.4, Cilincing, Kec. Cilincing, Jkt Utara, Daerah Khusus Ibukota Jakarta 14120";"RT.5/RW.4, Cilincing, Kec. Cilincing, Jkt Utara";"DAERAH KHUSUS IBUKOTA JAKARTA";"14120";"Indonesia";"";"";"";"-6.0999921";"106.9379272";"https://maps.google.com/?cid=0x0:0xdabad70e0bfa629d";""
"komplek housing";"komplek housing";"Budhe jamu";"Jl. Cilincing Lama I No.25, RT.11/RW.4, Cilincing, Kec. Cilincing, Jkt Utara, Daerah Khusus Ibukota Jakarta 14120";"RT.11/RW.4, Cilincing, Kec. Cilincing, Jkt Utara";"DAERAH KHUSUS IBUKOTA JAKARTA";"14120";"Indonesia";"";"";"";"-6.1007037";"106.935351";"https://maps.google.com/?cid=0x0:0xd3f18fbef4bb5d31";""
"komplek housing";"Komplek perumahan";"Ryan's house II";"Jl. Komp. Pelindo II Blok B4 No.6, RT.13/RW.9, Cilincing, Kec. Cilincing, Jkt Utara, Daerah Khusus Ibukota Jakarta 14120";"RT.13/RW.9, Cilincing, Kec. Cilincing, Jkt Utara";"DAERAH KHUSUS IBUKOTA JAKARTA";"14120";"Indonesia";"";"";"";"-6.1115118";"106.9388237";"https://maps.google.com/?cid=0x0:0x99a727cb0f8169a0";""
"komplek housing";"Komplek perumahan";"BASC_OOY";"7, RT.7/RW.9, Cilincing, Kec. Cilincing, Jkt Utara, Daerah Khusus Ibukota Jakarta 14120";"RT.7/RW.9, Cilincing, Kec. Cilincing, Jkt Utara";"DAERAH KHUSUS IBUKOTA JAKARTA";"14120";"Indonesia";"";"";"";"-6.1085106";"106.9395893";"https://maps.google.com/?cid=0x0:0x9ea5332221abe710";""
"komplek housing";"Komplek perumahan";"AAJ HOUSE";"Jl. Cilincing Bakti Gg. III No.rt 10, RT.10/RW.6, Cilincing, Kec. Cilincing, Jkt Utara, Daerah Khusus Ibukota Jakarta 14120";"RT.10/RW.6, Cilincing, Kec. Cilincing, Jkt Utara";"DAERAH KHUSUS IBUKOTA JAKARTA";"14120";"Indonesia";"";"";"";"-6.1066134";"106.9396359";"https://maps.google.com/?cid=0x0:0xf1ea02a5f53abdc5";""
"komplek housing";"Gedung Apartemen";"YAKUZA SHOREBASE";"Jl LINGKAR JAYA No.4, RT./RW/RW.004/004, Cilincing, Kec. Cilincing, Jkt Utara, Daerah Khusus Ibukota Jakarta 14120";"RT./RW/RW.004/004, Cilincing, Kec. Cilincing, Jkt Utara";"DAERAH KHUSUS IBUKOTA JAKARTA";"14120";"Indonesia";" 082349078009";"";"";"-6.1062607";"106.9417556";"https://maps.google.com/?cid=0x0:0x3a7a40373173a482";""
"komplek housing";"Komplek perumahan";"Rumah Bu Erick";"Blok B4, Jl. Komp. Pelindo II No.15, RT.13/RW.9, Cilincing, North Jakarta City, Jakarta 14120";"Jl. Komp. Pelindo II No.15, RT.13/RW.9, Cilincing, North Jakarta City";"DAERAH KHUSUS IBUKOTA JAKARTA";"14120";"Indonesia";"";"";"";"-6.111531";"106.9386016";"https://maps.google.com/?cid=0x0:0xb51b24093f2d2faf";""
"komplek housing";"Komplek perumahan";"Argani Kitchen";"Jl. Cilincing No.5, RT.5/RW.9, Cilincing, Kec. Cilincing, Jkt Utara, Daerah Khusus Ibukota Jakarta 14120";"RT.5/RW.9, Cilincing, Kec. Cilincing, Jkt Utara";"DAERAH KHUSUS IBUKOTA JAKARTA";"14120";"Indonesia";"";"";"";"-6.1058706";"106.9375178";"https://maps.google.com/?cid=0x0:0xa28cb58e1f539129";""
"komplek housing";"komplek housing";"Daerah Khusus Ibukota Jakarta 14120";"Cilincing, Kec. Cilincing, Jkt Utara, Daerah Khusus Ibukota Jakarta";"Jkt Utara, Daerah Khusus Ibukota Jakarta";"DAERAH KHUSUS IBUKOTA JAKARTA";"";"Indonesia";"";"";"";"-6.1063283";"106.9417632";"https://maps.google.com/?cid=0x0:0x1c00c5eb4d030790";""
"komplek housing";"Perhimpunan Pengembang Perumahan";"Rmh ibu krisdiana putri";"Rusun Cilincing, Jl. Akses Marunda, RW.9, Cilincing, Kec. Cilincing, Jkt Utara, Daerah Khusus Ibukota Jakarta 14120";"Jl. Akses Marunda, RW.9, Cilincing, Kec. Cilincing, Jkt Utara";"DAERAH KHUSUS IBUKOTA JAKARTA";"14120";"Indonesia";"";"";"";"-6.1120461";"106.9393182";"https://maps.google.com/?cid=0x0:0x5127e3739c07bd0d";""
"komplek housing";"Komplek perumahan";"Amanah's Home";"Jl. Baru Gg. 2 No.3 9, RT.11/RW.1, Cilincing, Kec. Cilincing, Jkt Utara, Daerah Khusus Ibukota Jakarta 14120";"RT.11/RW.1, Cilincing, Kec. Cilincing, Jkt Utara";"DAERAH KHUSUS IBUKOTA JAKARTA";"14120";"Indonesia";"";"";"";"-6.104489";"106.9283429";"https://maps.google.com/?cid=0x0:0x6e4eb1df398ca356";""
"komplek housing";"Pembangunan Perumahan";"Rumah Bang Tono";"Jl. Cilincing Lama I No.RT.10, RW.4, Cilincing, Kec. Cilincing, Jkt Utara, Daerah Khusus Ibukota Jakarta 14120";"RW.4, Cilincing, Kec. Cilincing, Jkt Utara";"DAERAH KHUSUS IBUKOTA JAKARTA";"14120";"Indonesia";"";"";"";"-6.100646";"106.9362435";"https://maps.google.com/?cid=0x0:0x3785c70fcb6fe2b3";""
"komplek housing";"Komplek perumahan";"Rumah Pak Husen";"Jl. Cilincing Baru 4 No.29, RT.13/RW.8, Cilincing, Kec. Cilincing, Jkt Utara, Daerah Khusus Ibukota Jakarta 14120";"RT.13/RW.8, Cilincing, Kec. Cilincing, Jkt Utara";"DAERAH KHUSUS IBUKOTA JAKARTA";"14120";"Indonesia";"";"";"";"-6.104141";"106.931222";"https://maps.google.com/?cid=0x0:0x70653c8c77dad898";""
"komplek housing";"Perhimpunan Pengembang Perumahan";"Rumah";"Jemb. Sapi No.35 6, RT.6/RW.6, Cilincing, Kec. Cilincing, Jkt Utara, Daerah Khusus Ibukota Jakarta 14120";"RT.6/RW.6, Cilincing, Kec. Cilincing, Jkt Utara";"DAERAH KHUSUS IBUKOTA JAKARTA";"14120";"Indonesia";"";"";"";"-6.10506";"106.938015";"https://maps.google.com/?cid=0x0:0x196c29ce19267d15";""
"komplek housing";"Komplek perumahan";"Rumah";"Jl. Cilincing Bakti II No.38, RT.7/RW.9, Cilincing, Kec. Cilincing, Jkt Utara, Daerah Khusus Ibukota Jakarta 14120";"RT.7/RW.9, Cilincing, Kec. Cilincing, Jkt Utara";"DAERAH KHUSUS IBUKOTA JAKARTA";"14120";"Indonesia";"";"";"";"-6.1059247";"106.9397965";"https://maps.google.com/?cid=0x0:0x5bb0e05f2fef544b";""
"komplek housing";"Komplek perumahan";"HUSNADI family";"Jl. Bakti V No.23-21 8, RT.8/RW.9, Cilincing, Kec. Cilincing, Jkt Utara, Daerah Khusus Ibukota Jakarta 14120";"RT.8/RW.9, Cilincing, Kec. Cilincing, Jkt Utara";"DAERAH KHUSUS IBUKOTA JAKARTA";"14120";"Indonesia";"";"";"";"-6.109068";"106.9402799";"https://maps.google.com/?cid=0x0:0xe8ab0e2d87230960";""
"komplek housing";"komplek housing";"rumah vlno";"VWGX+7CV, RW.2, Cilincing, Kec. Cilincing, Jkt Utara, Daerah Khusus Ibukota Jakarta 14120";"RW.2, Cilincing, Kec. Cilincing, Jkt Utara";"DAERAH KHUSUS IBUKOTA JAKARTA";"14120";"Indonesia";"";"";"";"-6.1242734";"106.9485539";"https://maps.google.com/?cid=0x0:0x5ad1309ebf5f0d23";""
"komplek housing";"komplek housing";"Home Sweet Home";"Jl. Akses Marunda No.37, RW.8, Cilincing, Kec. Cilincing, Jkt Utara, Daerah Khusus Ibukota Jakarta 14120";"RW.8, Cilincing, Kec. Cilincing, Jkt Utara";"DAERAH KHUSUS IBUKOTA JAKARTA";"14120";"Indonesia";"";"";"";"-6.1110769";"106.9395879";"https://maps.google.com/?cid=0x0:0x3377ca5c08190b4";""
"komplek housing";"Perhimpunan Pengembang Perumahan";"Kompleks Ex Gaya Motor";"Jl. Kebantenan I No.1A 3, RT.3/RW.7, Semper Tim., Kec. Cilincing, Jkt Utara, Daerah Khusus Ibukota Jakarta 14130";"RT.3/RW.7, Semper Tim., Kec. Cilincing, Jkt Utara";"DAERAH KHUSUS IBUKOTA JAKARTA";"14130";"Indonesia";"";"";"";"-6.1070511";"106.9321955";"https://maps.google.com/?cid=0x0:0xb0af71c8f1077fb2";""
"komplek housing";"Komplek perumahan";"Komplek Pelindo 2 Cilincing";"RW.9, Jalan Kompleks Pelindo II Cilincing, RT.8/RW.9, Cilincing, RT.1/RW.6, Semper Tim., Kec. Cilincing, Jkt Utara, Daerah Khusus Ibukota Jakarta 14120";"Jalan Kompleks Pelindo II Cilincing, RT.8/RW.9, Cilincing, RT.1/RW.6, Semper Tim., Kec. Cilincing, Jkt Utara";"DAERAH KHUSUS IBUKOTA JAKARTA";"14120";"Indonesia";"";"";"";"-6.1139892";"106.9378548";"https://maps.google.com/?cid=0x0:0x5840ed298c9900cb";""
"komplek housing";"komplek housing";"Cluster Asri Cilincing - Rumah murah jakarta utara modern dan minimalis.";"RT.4/RW.3, Semper Tim., Kec. Cilincing, Jkt Utara, Daerah Khusus Ibukota Jakarta 14130";"Semper Tim., Kec. Cilincing, Jkt Utara";"DAERAH KHUSUS IBUKOTA JAKARTA";"14130";"Indonesia";" 081905825517";"";"/url?q>>u003dhttps://www.instagram.com/clusterasriclincing/>>u0026opi>>u003d79508299>>u0026sa>>u003dU>>u0026ved>>u003d0ahUKEwjizaDr07qLAxXpXGwGHVZfOh8Q61gIFigS>>u0026usg>>u003dAOvVaw20zyM5gJ9JTnEGdF3ZVVp6";"-6.1222704";"106.92839";"https://maps.google.com/?cid=0x0:0xec598efcbd90d761";""
"komplek housing";"Pembangunan Perumahan";"Milena Homes";"Jl. Taruna Jaya 4 No.33, RT.13/RW.4, Semper Bar., Kec. Cilincing, Jkt Utara, Daerah Khusus Ibukota Jakarta 14130";"RT.13/RW.4, Semper Bar., Kec. Cilincing, Jkt Utara";"DAERAH KHUSUS IBUKOTA JAKARTA";"14130";"Indonesia";"";"";"";"-6.1340657";"106.9295022";"https://maps.google.com/?cid=0x0:0xdfcb8efefc204a07";""
"komplek housing";"Pembangunan Perumahan";"kila house";"Jl. S.Citanduy IV No.112 15, RT.15/RW.1, Semper Bar., Kec. Cilincing, Jkt Utara, Daerah Khusus Ibukota Jakarta 14130";"RT.15/RW.1, Semper Bar., Kec. Cilincing, Jkt Utara";"DAERAH KHUSUS IBUKOTA JAKARTA";"14130";"Indonesia";"";"";"";"-6.1283823";"106.9239123";"https://maps.google.com/?cid=0x0:0x61451e67d2c42ea";""
"komplek housing";"Pembangunan Perumahan";"Rumah inu";"Jl. Sungai Kampar XI Ujung No.76, RT.18/RW.1, Semper Bar., Kec. Cilincing, Jkt Utara, Daerah Khusus Ibukota Jakarta 14130";"RT.18/RW.1, Semper Bar., Kec. Cilincing, Jkt Utara";"DAERAH KHUSUS IBUKOTA JAKARTA";"14130";"Indonesia";"";"";"";"-6.1313901";"106.9260057";"https://maps.google.com/?cid=0x0:0xd4ad1947fd05a0eb";""
"komplek housing";"Komplek perumahan";"LA";"Jl. Wira Asri 2 No.30, RT.7/RW.6, Semper Bar., Kec. Cilincing, Jkt Utara, Daerah Khusus Ibukota Jakarta 14130";"RT.7/RW.6, Semper Bar., Kec. Cilincing, Jkt Utara";"DAERAH KHUSUS IBUKOTA JAKARTA";"14130";"Indonesia";"";"";"";"-6.1271056";"106.9247141";"https://maps.google.com/?cid=0x0:0x2ab9ffccbd4ba478";""
"komplek housing";"Pembangunan Perumahan";"MESS SPB";"Jl. Sungai Kampar X No.7 14, RT.14/RW.1, Semper Bar., Kec. Cilincing, Jkt Utara, Daerah Khusus Ibukota Jakarta 14130";"RT.14/RW.1, Semper Bar., Kec. Cilincing, Jkt Utara";"DAERAH KHUSUS IBUKOTA JAKARTA";"14130";"Indonesia";" 082344295809";"";"";"-6.1312479";"106.9254747";"https://maps.google.com/?cid=0x0:0xcc3c91fcfdbdc198";""
"komplek housing";"Komplek perumahan";"NisaAdi House";"Jl. Taruna I No.13, RT.16/RW.4, Semper Bar., Kec. Cilincing, Jkt Utara, Daerah Khusus Ibukota Jakarta 14130";"RT.16/RW.4, Semper Bar., Kec. Cilincing, Jkt Utara";"DAERAH KHUSUS IBUKOTA JAKARTA";"14130";"Indonesia";"";"";"";"-6.1342901";"106.9277683";"https://maps.google.com/?cid=0x0:0x411940a1b5f93481";""
"komplek housing";"Komplek perumahan";"Kompleks airud baharkam polri";"Jl. Raya Cilincing No.4, RT.3/RW.5, Semper Tim., Kec. Cilincing, Jkt Utara, Daerah Khusus Ibukota Jakarta 14130";"RT.3/RW.5, Semper Tim., Kec. Cilincing, Jkt Utara";"DAERAH KHUSUS IBUKOTA JAKARTA";"14130";"Indonesia";" 087872424380";"";"";"-6.107175";"106.9275478";"https://maps.google.com/?cid=0x0:0xfc6b0cddb1d6f058";""
"komplek housing";"Perhimpunan Pengembang Perumahan";"Tanah";"Jl raya Cakung Cilincing poslima, Samping madrasah, RT.001/RW.010, Kec. Cilincing, Jkt Utara, Daerah Khusus Ibukota Jakarta 14130";"Samping madrasah, RT.001/RW.010, Kec. Cilincing, Jkt Utara";"DAERAH KHUSUS IBUKOTA JAKARTA";"14130";"Indonesia";"";"";"";"-6.1225425";"106.9275693";"https://maps.google.com/?cid=0x0:0x40b29200c23a8e9f";""
"komplek housing";"Komplek perumahan";"Azna Home";"Kavling Jl. Tipar Timur No.3 Blok B, RT.18/RW.4, Semper Bar., Kec. Cilincing, Jkt Utara, Daerah Khusus Ibukota Jakarta 14130";"RT.18/RW.4, Semper Bar., Kec. Cilincing, Jkt Utara";"DAERAH KHUSUS IBUKOTA JAKARTA";"14130";"Indonesia";"";"";"";"-6.1328966";"106.9268035";"https://maps.google.com/?cid=0x0:0x65c0351241cd1f08";""
"komplek housing";"Komplek perumahan";"Sugeng’s House";"Jl. Tugu Indah No.18 11, RT.11/RW.6, Semper Bar., Kec. Cilincing, Jkt Utara, Daerah Khusus Ibukota Jakarta 14130";"RT.11/RW.6, Semper Bar., Kec. Cilincing, Jkt Utara";"DAERAH KHUSUS IBUKOTA JAKARTA";"14130";"Indonesia";"";"";"";"-6.1240536";"106.9252843";"https://maps.google.com/?cid=0x0:0x32ef490dcf618a4e";""
"komplek housing";"Komplek perumahan";"Ice's home";"6, Jl. S. Membramo II No.16, RT.6/RW.1, Semper Bar., Kec. Cilincing, Jkt Utara, Daerah Khusus Ibukota Jakarta 14130";"Jl. S. Membramo II No.16, RT.6/RW.1, Semper Bar., Kec. Cilincing, Jkt Utara";"DAERAH KHUSUS IBUKOTA JAKARTA";"14130";"Indonesia";"";"";"";"-6.1297765";"106.9233142";"https://maps.google.com/?cid=0x0:0xe5eb735f9d903f8d";""
"komplek housing";"Pembangunan Perumahan";"Midland Smart Town House - Koja";"Jl. Duren Terusan No.15, RT.15/RW.8, Semper Bar., Kec. Cilincing, Jkt Utara, Daerah Khusus Ibukota Jakarta 14130";"RT.15/RW.8, Semper Bar., Kec. Cilincing, Jkt Utara";"DAERAH KHUSUS IBUKOTA JAKARTA";"14130";"Indonesia";"";"";"";"-6.1162854";"106.9199487";"https://maps.google.com/?cid=0x0:0xca26f39a87157d6b";""
"komplek housing";"Komplek perumahan";"Epoi House";"VW8G+X52, Jl. Rusun Kebersihan GG parkit14/3, RT.10/RW.3, Semper Bar., Kec. Cilincing, Jkt Utara, Daerah Khusus Ibukota Jakarta 14130";"Jl. Rusun Kebersihan GG parkit14/3, RT.10/RW.3, Semper Bar., Kec. Cilincing, Jkt Utara";"DAERAH KHUSUS IBUKOTA JAKARTA";"14130";"Indonesia";"";"";"";"-6.1326077";"106.9253843";"https://maps.google.com/?cid=0x0:0x75a8403296567bc";""
"komplek housing";"Komplek perumahan";"JAYASRI";"Jl.Sungai Kampar 10 Dalam,No.707,RT.18/RW.1, Semper Barat,Kec.Cilincing,Jkt Utara, Daerah Khusus Ibu, 14130";"Semper Barat,Kec.Cilincing,Jkt Utara";"DAERAH KHUSUS IBUKOTA JAKARTA";"14130";"Indonesia";"";"";"";"-6.1310409";"106.9265915";"https://maps.google.com/?cid=0x0:0xbb2f7d0dc472910b";""
"komplek housing";"Perhimpunan Pengembang Perumahan";"Rumah rasya pasya";"Jl. S.Citanduy Raya No.Blok C 979, RT.12/RW.1, Semper Bar., Kec. Cilincing, Jkt Utara, Daerah Khusus Ibukota Jakarta 14130";"RT.12/RW.1, Semper Bar., Kec. Cilincing, Jkt Utara";"DAERAH KHUSUS IBUKOTA JAKARTA";"14130";"Indonesia";"";"";"";"-6.1287942";"106.9237588";"https://maps.google.com/?cid=0x0:0x809322c10f9317d1";""
"komplek housing";"Kompleks Kondominium";"Kontrakan H Dimun Semper";"Jl. Taruna Jaya 4 No.13, RT.13/RW.4, Semper Bar., Kec. Cilincing, Jkt Utara, Daerah Khusus Ibukota Jakarta 14130";"RT.13/RW.4, Semper Bar., Kec. Cilincing, Jkt Utara";"DAERAH KHUSUS IBUKOTA JAKARTA";"14130";"Indonesia";"";"";"";"-6.1337407";"106.9293068";"https://maps.google.com/?cid=0x0:0x3acdf81b2039cbc1";""
"komplek housing";"komplek housing";"Daerah Khusus Ibukota Jakarta 14130";"Semper Bar., Kec. Cilincing, Jkt Utara, Daerah Khusus Ibukota Jakarta";"Jkt Utara, Daerah Khusus Ibukota Jakarta";"DAERAH KHUSUS IBUKOTA JAKARTA";"";"Indonesia";"";"";"";"-6.1270984";"106.9299579";"https://maps.google.com/?cid=0x0:0x1c00c5eb4d034770";""
"komplek housing";"Komplek perumahan";"Home";"Jl. Kyai Jalak No.154, RT.8/RW.1, Semper Tim., Kec. Cilincing, Jkt Utara, Daerah Khusus Ibukota Jakarta 14130";"RT.8/RW.1, Semper Tim., Kec. Cilincing, Jkt Utara";"DAERAH KHUSUS IBUKOTA JAKARTA";"14130";"Indonesia";"";"";"";"-6.1089673";"106.9246825";"https://maps.google.com/?cid=0x0:0xa9b0187e76aef0ee";""
"komplek housing";"Komplek perumahan";"House";"Jl. Toyota Raya No.97A, RT.3/RW.8, Tim, Kec. Cilincing, Jkt Utara, Daerah Khusus Ibukota Jakarta 14130";"RT.3/RW.8, Tim, Kec. Cilincing, Jkt Utara";"DAERAH KHUSUS IBUKOTA JAKARTA";"14130";"Indonesia";"";"";"";"-6.1073498";"106.9312828";"https://maps.google.com/?cid=0x0:0x41d514a865f93de6";""
"komplek housing";"Komplek perumahan";"Home";"Jl. Sungai Indragiri 5 No.5 11, RT.11/RW.1, Semper Bar., Kec. Cilincing, Jkt Utara, Daerah Khusus Ibukota Jakarta 14130";"RT.11/RW.1, Semper Bar., Kec. Cilincing, Jkt Utara";"DAERAH KHUSUS IBUKOTA JAKARTA";"14130";"Indonesia";"";"";"";"-6.1286334";"106.9212667";"https://maps.google.com/?cid=0x0:0x3b67cebe4e795d1f";""
"komplek housing";"Pembangunan Perumahan";"Komplek Perumahan Green Garden Rorotan Cilincing Jakarta Utara";"Jl. Angelia Raya No.7, RT.7/RW.1, Rorotan, Kec. Cilincing, Jkt Utara, Daerah Khusus Ibukota Jakarta 14140";"RT.7/RW.1, Rorotan, Kec. Cilincing, Jkt Utara";"DAERAH KHUSUS IBUKOTA JAKARTA";"14140";"Indonesia";"";"";"";"-6.153322";"106.9503629";"https://maps.google.com/?cid=0x0:0x701334e347744651";""
"komplek housing";"Komplek Militer";"MEBEL IBU MAWAR";"Jl. Sena Raya, RT.14/RW.2, Bar, Kec. Cilincing, Jkt Utara, Daerah Khusus Ibukota Jakarta 14130";"RT.14/RW.2, Bar, Kec. Cilincing, Jkt Utara";"DAERAH KHUSUS IBUKOTA JAKARTA";"14130";"Indonesia";"";"";"";"-6.1323506";"106.9207675";"https://maps.google.com/?cid=0x0:0xacd03b9efa00bbfd";""
"komplek housing";"Komplek perumahan";"Yona Home";"Blk. R Gg. II No.17, RT.17/RW.12, Semper Bar., Kec. Cilincing, Jkt Utara, Daerah Khusus Ibukota Jakarta 14130";"RT.17/RW.12, Semper Bar., Kec. Cilincing, Jkt Utara";"DAERAH KHUSUS IBUKOTA JAKARTA";"14130";"Indonesia";"";"";"";"-6.1169047";"106.9216091";"https://maps.google.com/?cid=0x0:0x279eb4ff1ee7847a";""
"komplek housing";"Perhentian bus";"Dewa Ruci";"1, RT.1/RW.16, Semper Bar., Kec. Cilincing, Jkt Utara, Daerah Khusus Ibukota Jakarta 14130";"RT.1/RW.16, Semper Bar., Kec. Cilincing, Jkt Utara";"DAERAH KHUSUS IBUKOTA JAKARTA";"14130";"Indonesia";"";"";"";"-6.1105724";"106.9221628";"https://maps.google.com/?cid=0x0:0x1d65afa07fa806ea";""
"komplek housing";"Komplek perumahan";"Home";"VWPC+R9R, RT.1/RW.14, Semper Bar., Kec. Cilincing, Jkt Utara, Daerah Khusus Ibukota Jakarta 14130";"RT.1/RW.14, Semper Bar., Kec. Cilincing, Jkt Utara";"DAERAH KHUSUS IBUKOTA JAKARTA";"14130";"Indonesia";"";"";"";"-6.1128908";"106.9209005";"https://maps.google.com/?cid=0x0:0x3354dac72bac1f29";""
"komplek housing";"Komplek perumahan";"Rumah Maggot Kebersamaan";"Jl. Loader I No.46, RT.6/RW.3, Semper Bar., Kec. Cilincing, Jkt Utara, Daerah Khusus Ibukota Jakarta 14130";"RT.6/RW.3, Semper Bar., Kec. Cilincing, Jkt Utara";"DAERAH KHUSUS IBUKOTA JAKARTA";"14130";"Indonesia";" 087760422451";"";"";"-6.1338793";"106.9258358";"https://maps.google.com/?cid=0x0:0x9c1a88a60c81a3a1";""
"komplek housing";"Perhimpunan Pengembang Perumahan";"Komplek Perumahaan Green Garden";"3, RT.3/RW.1, Rorotan, Kec. Cilincing, Jkt Utara, Daerah Khusus Ibukota Jakarta 14140";"RT.3/RW.1, Rorotan, Kec. Cilincing, Jkt Utara";"DAERAH KHUSUS IBUKOTA JAKARTA";"14140";"Indonesia";"";"";"";"-6.1493525";"106.949569";"https://maps.google.com/?cid=0x0:0xefd030607b4de1bf";""
"komplek housing";"Komplek perumahan";"KOMPLEK BEACUKAI SUKAPURA";"Jl. Tarumanegara Q7, kompleks Bea cukai No.29, RT.15/RW.7, Sukapura, Kec. Cilincing, Jkt Utara, Daerah Khusus Ibukota Jakarta 14140";"kompleks Bea cukai No.29, RT.15/RW.7, Sukapura, Kec. Cilincing, Jkt Utara";"DAERAH KHUSUS IBUKOTA JAKARTA";"14140";"Indonesia";"";"";"";"-6.156312";"106.9246903";"https://maps.google.com/?cid=0x0:0x2e146ae822a014b2";""
"komplek housing";"Perumahan";"Perumahan Grand Malaka, Jakarta Utara";"perumahan grand malaka No.201, RT.016/RW.6, Rorotan, Kec. Cilincing, Jkt Utara, Daerah Khusus Ibukota Jakarta 14140";"RT.016/RW.6, Rorotan, Kec. Cilincing, Jkt Utara";"DAERAH KHUSUS IBUKOTA JAKARTA";"14140";"Indonesia";"";"";"";"-6.1489332";"106.9552775";"https://maps.google.com/?cid=0x0:0x492407bf5c0707a9";""
"komplek housing";"komplek housing";"Arlan's Home";"Jl. Malaka Jaya V No.28b, RT.:/RW/RW.006RW.:011, Rorotan, Kec. Cilincing, Jkt Utara, Daerah Khusus Ibukota Jakarta 14140";"RT.:/RW/RW.006RW.:011, Rorotan, Kec. Cilincing, Jkt Utara";"DAERAH KHUSUS IBUKOTA JAKARTA";"14140";"Indonesia";"";"";"";"-6.1459343";"106.9539808";"https://maps.google.com/?cid=0x0:0x86917db69802dd3d";""
"komplek housing";"Perhentian bus";"Perumahan Malaka Indah";"Gg. Rorotan 10 No.15, RT.15/RW.6, Rorotan, Kec. Cilincing, Jkt Utara, Daerah Khusus Ibukota Jakarta 14140";"RT.15/RW.6, Rorotan, Kec. Cilincing, Jkt Utara";"DAERAH KHUSUS IBUKOTA JAKARTA";"14140";"Indonesia";"";"";"";"-6.1513136";"106.9594154";"https://maps.google.com/?cid=0x0:0x1bbe3c530e9fbda5";""
"komplek housing";"Pembangunan Perumahan";"Perumahan Nusantara, Jakarta Utara";"Jl. Rorotan IX No.18, RT.1/RW.7, Rorotan, Kec. Cilincing, Jkt Utara, Daerah Khusus Ibukota Jakarta 14140";"RT.1/RW.7, Rorotan, Kec. Cilincing, Jkt Utara";"DAERAH KHUSUS IBUKOTA JAKARTA";"14140";"Indonesia";"";"";"";"-6.1556283";"106.9581264";"https://maps.google.com/?cid=0x0:0x4cd920f10fe0521e";""
"komplek housing";"Pembangunan Perumahan";"Perumahan Ayana Nusantara";"Perumahan ayana, Gg. IV, RT.19/RW.7, Rorotan, Kec. Cilincing, Jkt Utara, Daerah Khusus Ibukota Jakarta 14140";"Gg. IV, RT.19/RW.7, Rorotan, Kec. Cilincing, Jkt Utara";"DAERAH KHUSUS IBUKOTA JAKARTA";"14140";"Indonesia";"";"";"";"-6.1563953";"106.9570637";"https://maps.google.com/?cid=0x0:0x660cfaeec8681c67";""
"komplek housing";"Pembangunan Perumahan";"Grand Orchard";"Jl. Grand Orchard, RT.9/RW.1, Sukapura, Kec. Cilincing, Jkt Utara, Daerah Khusus Ibukota Jakarta 14140";"RT.9/RW.1, Sukapura, Kec. Cilincing, Jkt Utara";"DAERAH KHUSUS IBUKOTA JAKARTA";"14140";"Indonesia";" 081517717171";"";"";"-6.151783";"106.9197121";"https://maps.google.com/?cid=0x0:0x7b1f992900dfeb8";""
"komplek housing";"Rumah Pondokan";"Permata Residence";"Jl. Rorotan IX Gg. I No.10 1, RT.3/RW.7, Rorotan, Kec. Cilincing, Jkt Utara, Daerah Khusus Ibukota Jakarta 14140";"RT.3/RW.7, Rorotan, Kec. Cilincing, Jkt Utara";"DAERAH KHUSUS IBUKOTA JAKARTA";"14140";"Indonesia";" 081385736047";"";"/url?q>>u003dhttp://www.nusakirana.com/>>u0026opi>>u003d79508299>>u0026sa>>u003dU>>u0026ved>>u003d0ahUKEwjzkduC1LqLAxXowTgGHR3CALgQ61gIFigS>>u0026usg>>u003dAOvVaw29_yMsjMyT6S_Y4cBAWmGx";"-6.1552344";"106.9584246";"https://maps.google.com/?cid=0x0:0xfc1de3ca4d473606";""
"komplek housing";"Komplek perumahan";"Home";"VW2X+CXV, Jl. Green Garden 2, Rorotan, Kec. Cilincing, Jkt Utara, Daerah Khusus Ibukota Jakarta 14140";"Jl. Green Garden 2, Rorotan, Kec. Cilincing, Jkt Utara";"DAERAH KHUSUS IBUKOTA JAKARTA";"14140";"Indonesia";"";"";"";"-6.1488994";"106.9499304";"https://maps.google.com/?cid=0x0:0x52fab71c53c81a6e";""
"komplek housing";"Kompleks Kondominium";"Cilincing Project";"Jl. Komp. PT. Komatsu No.1 5, RT.5/RW.2, Rorotan, Kec. Cilincing, Jkt Utara, Daerah Khusus Ibukota Jakarta 14140";"RT.5/RW.2, Rorotan, Kec. Cilincing, Jkt Utara";"DAERAH KHUSUS IBUKOTA JAKARTA";"14140";"Indonesia";"";"";"";"-6.1474382";"106.9490053";"https://maps.google.com/?cid=0x0:0x1e67b253c88f4544";""
"komplek housing";"Komplek perumahan";"Royal Orchard";"Jl. Royal Orchard Raya No.9, RT.11/RW.1, Sukapura, Kec. Cilincing, Jkt Utara, Daerah Khusus Ibukota Jakarta 14140";"RT.11/RW.1, Sukapura, Kec. Cilincing, Jkt Utara";"DAERAH KHUSUS IBUKOTA JAKARTA";"14140";"Indonesia";"";"";"";"-6.146482";"106.9187143";"https://maps.google.com/?cid=0x0:0x892bf6a2b7ac2c60";""
"komplek housing";"Pembangunan Perumahan";"Komplek Perumahan Green Garden Rorotan Cilincing Jakarta Utara";"Jl. Angelia Raya No.7, RT.7/RW.1, Rorotan, Kec. Cilincing, Jkt Utara, Daerah Khusus Ibukota Jakarta 14140";"RT.7/RW.1, Rorotan, Kec. Cilincing, Jkt Utara";"DAERAH KHUSUS IBUKOTA JAKARTA";"14140";"Indonesia";"";"";"";"-6.153322";"106.9503629";"https://maps.google.com/?cid=0x0:0x701334e347744651";""
"komplek housing";"Komplek perumahan";"Gading Griya Lestari";"Jl. Gading Griya Lestari Raya No.60A Blok H1, RT.1/RW.5, Sukapura, Kec. Cilincing, Jakarta, Daerah Khusus Ibukota Jakarta 14140";"RT.1/RW.5, Sukapura, Kec. Cilincing, Jakarta";"DAERAH KHUSUS IBUKOTA JAKARTA";"14140";"Indonesia";"";"";"";"-6.1409988";"106.9184548";"https://maps.google.com/?cid=0x0:0xb84f3ef05972d799";""
"komplek housing";"Komplek perumahan";"puji house";"blok kobak milin No.117, RT.7/RW.6, Rorotan, Cilincing, North Jakarta City, Jakarta 14140";"RT.7/RW.6, Rorotan, Cilincing, North Jakarta City";"DAERAH KHUSUS IBUKOTA JAKARTA";"14140";"Indonesia";"";"";"";"-6.1489195";"106.9530281";"https://maps.google.com/?cid=0x0:0xfe4676628cecef1d";""
"komplek housing";"Komplek perumahan";"Rumah Zhillan Hana";"Jl. Kebun Hijau No.11 8, RT.3/RW.1, Rorotan, Kec. Cilincing, Jkt Utara, Daerah Khusus Ibukota Jakarta 14140";"RT.3/RW.1, Rorotan, Kec. Cilincing, Jkt Utara";"DAERAH KHUSUS IBUKOTA JAKARTA";"14140";"Indonesia";"";"";"";"-6.1500631";"106.9513578";"https://maps.google.com/?cid=0x0:0x59fb0c7d1654847a";""
"komplek housing";"Komplek perumahan";"Gg kompi jenggot";"Jl. Kompi Jenggot No.1 6, RT.6/RW.1, Sukapura, Kec. Cilincing, Jkt Utara, Daerah Khusus Ibukota Jakarta 14140";"RT.6/RW.1, Sukapura, Kec. Cilincing, Jkt Utara";"DAERAH KHUSUS IBUKOTA JAKARTA";"14140";"Indonesia";" 083873537004";"";"";"-6.1447695";"106.9210293";"https://maps.google.com/?cid=0x0:0xa205204122684985";""
"komplek housing";"Komplek perumahan";"KNA Home";"Jl. Pinang Sari Raya Blok B1 No.21, RT.1/RW.2, Rorotan, Cilincing, North Jakarta City, Jakarta 14140";"RT.1/RW.2, Rorotan, Cilincing, North Jakarta City";"DAERAH KHUSUS IBUKOTA JAKARTA";"14140";"Indonesia";" 082111999069";"";"";"-6.1511832";"106.9493452";"https://maps.google.com/?cid=0x0:0xc4199f6737921df5";""
"komplek housing";"Komplek perumahan";"Sonsi House";"Jl. Rorotan III, Jl. Komp. Perumahan Jl. Komp. Persada No.88 Blok C, Rorotan, Kec. Cilincing, Jkt Utara, Daerah Khusus Ibukota Jakarta 14140";"Jl. Komp. Perumahan Jl. Komp. Persada No.88 Blok C, Rorotan, Kec. Cilincing, Jkt Utara";"DAERAH KHUSUS IBUKOTA JAKARTA";"14140";"Indonesia";"";"";"";"-6.1541414";"106.9537151";"https://maps.google.com/?cid=0x0:0xd8fe687627737882";""
"komplek housing";"komplek housing";"Daerah Khusus Ibukota Jakarta 14140";"Rorotan, Kec. Cilincing, Jkt Utara, Daerah Khusus Ibukota Jakarta";"Jkt Utara, Daerah Khusus Ibukota Jakarta";"DAERAH KHUSUS IBUKOTA JAKARTA";"";"Indonesia";"";"";"";"-6.1471126";"106.9417632";"https://maps.google.com/?cid=0x0:0x1c00c5eb4d034dd0";""
"komplek housing";"Komplek perumahan";"Home";"Jl. Cecak Rw. I No.13 13, RT.13/RW.6, Sukapura, Kec. Cilincing, Jkt Utara, Daerah Khusus Ibukota Jakarta 14140";"RT.13/RW.6, Sukapura, Kec. Cilincing, Jkt Utara";"DAERAH KHUSUS IBUKOTA JAKARTA";"14140";"Indonesia";"";"";"";"-6.1517713";"106.9223256";"https://maps.google.com/?cid=0x0:0xfab324345f80c83d";""
"komplek housing";"Komplek perumahan";"Home";"Jl. Tarumanegara No.16 Blok L5, RT.3/RW.7, Sukapura, Kec. Cilincing, Jkt Utara, Daerah Khusus Ibukota Jakarta 14140";"RT.3/RW.7, Sukapura, Kec. Cilincing, Jkt Utara";"DAERAH KHUSUS IBUKOTA JAKARTA";"14140";"Indonesia";"";"";"";"-6.156304";"106.9244078";"https://maps.google.com/?cid=0x0:0x2e00591115ae6a84";""
"komplek housing";"Komplek perumahan";"home";"VW59+9CQ, Jl. Anoa Lestari III, RT.4/RW.9, Sukapura, Kec. Cilincing, Jkt Utara, Daerah Khusus Ibukota Jakarta 14140";"Jl. Anoa Lestari III, RT.4/RW.9, Sukapura, Kec. Cilincing, Jkt Utara";"DAERAH KHUSUS IBUKOTA JAKARTA";"14140";"Indonesia";"";"";"";"-6.1415396";"106.9186171";"https://maps.google.com/?cid=0x0:0xe5a699c57919848a";""
"komplek housing";"Komplek perumahan";"Maximillian Home";"Jl. Panda Lestari I No.24, RT.8/RW.1, Sukapura, Kec. Cilincing, Jkt Utara, Daerah Khusus Ibukota Jakarta 14140";"RT.8/RW.1, Sukapura, Kec. Cilincing, Jkt Utara";"DAERAH KHUSUS IBUKOTA JAKARTA";"14140";"Indonesia";"";"";"";"-6.1428422";"106.9175644";"https://maps.google.com/?cid=0x0:0x5d5fa6c166017cb7";""
"komplek housing";"Komplek perumahan";"Gading Griya Residence";"Griya Residence, Jl. Beringin IV Blok A2 No.31B, Gading, RT.12/RW.5, Sukapura, Cilincing, North Jakarta City, Jakarta 14140";"Jl. Beringin IV Blok A2 No.31B, Gading, RT.12/RW.5, Sukapura, Cilincing, North Jakarta City";"DAERAH KHUSUS IBUKOTA JAKARTA";"14140";"Indonesia";"";"";"";"-6.1376736";"106.9186385";"https://maps.google.com/?cid=0x0:0x6a2ca1df4e01e56f";""
"komplek housing";"Komplek perumahan";"Mubarak's Residence";"Jl. Tlk. Lada No.C/8, RT.6/RW.8, Sukapura, Kec. Cilincing, Jkt Utara, Daerah Khusus Ibukota Jakarta 14140";"RT.6/RW.8, Sukapura, Kec. Cilincing, Jkt Utara";"DAERAH KHUSUS IBUKOTA JAKARTA";"14140";"Indonesia";"";"";"";"-6.1579403";"106.9224752";"https://maps.google.com/?cid=0x0:0x1620ea7d7b0987a2";""
"komplek housing";"Komplek perumahan";"GONJER HOME";"Jl. Camar 1 Komplek Walikota Blok C3 No 16, RT.10/RW.6, Sukapura, Cilincing, North Jakarta City, Jakarta 14140";"RT.10/RW.6, Sukapura, Cilincing, North Jakarta City";"DAERAH KHUSUS IBUKOTA JAKARTA";"14140";"Indonesia";"";"";"";"-6.1527166";"106.921456";"https://maps.google.com/?cid=0x0:0x6c7002c25759c268";""
"komplek housing";"Komplek perumahan";"Blok C9";"Komplek Perumahaan Green Garden, Jl. Komp. Perumahan Blok C9, RT.6/RW.3, Rorotan, Kec. Cilincing, Jkt Utara, Daerah Khusus Ibukota Jakarta 14140";"Jl. Komp. Perumahan Blok C9, RT.6/RW.3, Rorotan, Kec. Cilincing, Jkt Utara";"DAERAH KHUSUS IBUKOTA JAKARTA";"14140";"Indonesia";"";"";"";"-6.1481348";"106.9513009";"https://maps.google.com/?cid=0x0:0x70a5d8178894ad66";""
"komplek housing";"Komplek perumahan";"Aindhara House";"Imperial Gading Pelindo II, Blk. C2 No.02, RT.8/RW.8, Sukapura, Cilincing, North Jakarta City, Jakarta 14140";"Blk. C2 No.02, RT.8/RW.8, Sukapura, Cilincing, North Jakarta City";"DAERAH KHUSUS IBUKOTA JAKARTA";"14140";"Indonesia";"";"";"";"-6.1591645";"106.9255082";"https://maps.google.com/?cid=0x0:0x5bba11fc67b4bb91";""
"komplek housing";"Komplek perumahan";"Komplek Pelindo 2 Cilincing";"RW.9, Jalan Kompleks Pelindo II Cilincing, RT.8/RW.9, Cilincing, RT.1/RW.6, Semper Tim., Kec. Cilincing, Jkt Utara, Daerah Khusus Ibukota Jakarta 14120";"Jalan Kompleks Pelindo II Cilincing, RT.8/RW.9, Cilincing, RT.1/RW.6, Semper Tim., Kec. Cilincing, Jkt Utara";"DAERAH KHUSUS IBUKOTA JAKARTA";"14120";"Indonesia";"";"";"";"-6.1139892";"106.9378548";"https://maps.google.com/?cid=0x0:0x5840ed298c9900cb";""
"komplek housing";"Komplek perumahan";"Rusunawa Marunda B7";"Jl. Marunda Baru No.11, RT.7/RW.5, Marunda, Kec. Cilincing, Jkt Utara, Daerah Khusus Ibukota Jakarta 14150";"RT.7/RW.5, Marunda, Kec. Cilincing, Jkt Utara";"DAERAH KHUSUS IBUKOTA JAKARTA";"14150";"Indonesia";"";"";"";"-6.0949566";"106.9640712";"https://maps.google.com/?cid=0x0:0x5d049ecb101af3d2";""
"komplek housing";"komplek housing";"Rumah kita";"Jl. Sungai Tiram No.25, RT.3/RW.09, Kp. Nelayan, Marunda, Kec. Cilincing, Jkt Utara, Daerah Khusus Ibukota Jakarta 14150";"RT.3/RW.09, Kp. Nelayan, Marunda, Kec. Cilincing, Jkt Utara";"DAERAH KHUSUS IBUKOTA JAKARTA";"14150";"Indonesia";"";"";"";"-6.1198965";"106.9569335";"https://maps.google.com/?cid=0x0:0xe949683098f8ab70";""
"komplek housing";"Perhimpunan Pengembang Perumahan";"Mess 36";"VXG6+J37, RT.11/RW.3, Marunda, Kec. Cilincing, Jkt Utara, Daerah Khusus Ibukota Jakarta 14150";"RT.11/RW.3, Marunda, Kec. Cilincing, Jkt Utara";"DAERAH KHUSUS IBUKOTA JAKARTA";"14150";"Indonesia";"";"";"";"-6.1234516";"106.9601692";"https://maps.google.com/?cid=0x0:0x31f4ae44758921de";""
"komplek housing";"Komplek perumahan";"Mamak Ijal Home";"Jl. Marunda Baru No.30, RT.7/RW.3, Marunda, Kec. Cilincing, Jkt Utara, Daerah Khusus Ibukota Jakarta 14150";"RT.7/RW.3, Marunda, Kec. Cilincing, Jkt Utara";"DAERAH KHUSUS IBUKOTA JAKARTA";"14150";"Indonesia";"";"";"";"-6.1244243";"106.9608793";"https://maps.google.com/?cid=0x0:0xc8b2d8b8dbfa8a35";""
"komplek housing";"Komplek perumahan";"RUMAH FERI";"Jl. Akses Kp. Su No.11, RT.1/RW.2, Marunda, Kec. Cilincing, Jkt Utara, Daerah Khusus Ibukota Jakarta 14150";"RT.1/RW.2, Marunda, Kec. Cilincing, Jkt Utara";"DAERAH KHUSUS IBUKOTA JAKARTA";"14150";"Indonesia";"";"";"";"-6.1186594";"106.9588278";"https://maps.google.com/?cid=0x0:0xb9dbc5189616f8c";""
"komplek housing";"Perhimpunan Pengembang Perumahan";"Rumah Gabe";"Jl Akses Kp. Su, RT. 002/002 No. 93, Marunda, Kec. Cilincing, Jkt Utara";"Jkt Utara, Daerah Khusus Ibukota Jakarta";"DAERAH KHUSUS IBUKOTA JAKARTA";"";"Indonesia";"";"";"";"-6.1109136";"106.9628494";"https://maps.google.com/?cid=0x0:0x10e021119c2440b8";""
"komplek housing";"Perhimpunan Pengembang Perumahan";"Habib Syarif Al qadri";"VXM6+RGR, RT.2/RW.2, Marunda, Kec. Cilincing, Jkt Utara, Daerah Khusus Ibukota Jakarta";"Jkt Utara, Daerah Khusus Ibukota Jakarta";"DAERAH KHUSUS IBUKOTA JAKARTA";"";"Indonesia";" 083258885444";"";"";"-6.1153808";"106.9612669";"https://maps.google.com/?cid=0x0:0xda606c09b4ae70be";""
"komplek housing";"Komplek perumahan";"EL RAZAN AYYUBI";"Kp Jl. Bambu Kuning No.73, RT.13/RW.2, Marunda, Kec. Cilincing, Jkt Utara, Daerah Khusus Ibukota Jakarta 14150";"RT.13/RW.2, Marunda, Kec. Cilincing, Jkt Utara";"DAERAH KHUSUS IBUKOTA JAKARTA";"14150";"Indonesia";"";"";"";"-6.1101464";"106.968883";"https://maps.google.com/?cid=0x0:0x2cbd0d4211ed180b";""
"komplek housing";"komplek housing";"GM BOYS";"Jl. Marunda No.9, RT.2/RW.4, Marunda, Kec. Cilincing, Jkt Utara, Daerah Khusus Ibukota Jakarta 14150";"RT.2/RW.4, Marunda, Kec. Cilincing, Jkt Utara";"DAERAH KHUSUS IBUKOTA JAKARTA";"14150";"Indonesia";"";"";"";"-6.118879";"106.956841";"https://maps.google.com/?cid=0x0:0x1cd1280b4e295e8";""
"komplek housing";"Komplek perumahan";"SIDIK MINI";"VXP5+JPH, RT.3/RW.2, Marunda, Kec. Cilincing, Jkt Utara, Daerah Khusus Ibukota Jakarta 14150";"RT.3/RW.2, Marunda, Kec. Cilincing, Jkt Utara";"DAERAH KHUSUS IBUKOTA JAKARTA";"14150";"Indonesia";"";"";"";"-6.1134399";"106.9592965";"https://maps.google.com/?cid=0x0:0x8e7b9c004d7e3901";""
"komplek housing";"Pembangunan Perumahan";"Rumah Rompis";"Jl. Sungai Tiram Bambu Kuning Gang Sumo No.182, RT.2/RW.2, Marunda, Kec. Cilincing, Jkt Utara, Daerah Khusus Ibukota Jakarta 14150";"RT.2/RW.2, Marunda, Kec. Cilincing, Jkt Utara";"DAERAH KHUSUS IBUKOTA JAKARTA";"14150";"Indonesia";"";"";"";"-6.1102105";"106.9626385";"https://maps.google.com/?cid=0x0:0x99fbf1fc06a510e6";""
"komplek housing";"Pembangunan Perumahan";"Bu nenti";"Kp. Bidara Jl. H. Dempet No.24 7, RT.6/RW.1, Marunda, Kec. Cilincing, Jkt Utara, Daerah Khusus Ibukota Jakarta 14150";"RT.6/RW.1, Marunda, Kec. Cilincing, Jkt Utara";"DAERAH KHUSUS IBUKOTA JAKARTA";"14150";"Indonesia";"";"";"";"-6.1089306";"106.9677733";"https://maps.google.com/?cid=0x0:0x7bfb1e068670f894";""
"komplek housing";"Komplek perumahan";"Sylvia hc";"VXG6+PMJ, Jl. Marunda Baru VI, RT.2/RW.3, Marunda, Kec. Cilincing, Jkt Utara, Daerah Khusus Ibukota Jakarta 14150";"Jl. Marunda Baru VI, RT.2/RW.3, Marunda, Kec. Cilincing, Jkt Utara";"DAERAH KHUSUS IBUKOTA JAKARTA";"14150";"Indonesia";"";"";"";"-6.1231639";"106.9616337";"https://maps.google.com/?cid=0x0:0xbf6b7b8fe917938b";""
"komplek housing";"Apartemen sewa liburan";"Kontrakan Sabcon";"VXP9+279, Jl. Bambu Kuning, RT.1/RW.2, Marunda, Kec. Cilincing, Jkt Utara, Daerah Khusus Ibukota Jakarta 14150";"Jl. Bambu Kuning, RT.1/RW.2, Marunda, Kec. Cilincing, Jkt Utara";"DAERAH KHUSUS IBUKOTA JAKARTA";"14150";"Indonesia";"";"";"";"-6.1149658";"106.9682226";"https://maps.google.com/?cid=0x0:0xc4ead8534f82743a";""
"komplek housing";"Komplek perumahan";"Rumah Pak Haji Muhamad Amiruddin/Ibu Hj.Lindah";"Jl.Gang Haji Abdul Rohim RT.008/RW.004 No.5 Kel.Marunda Kec.Cilincing Kodepos, Jkt Utara, 14150";"Jkt Utara, Daerah Khusus Ibukota Jakarta";"DAERAH KHUSUS IBUKOTA JAKARTA";"";"Indonesia";"";"";"";"-6.1204359";"106.9564392";"https://maps.google.com/?cid=0x0:0x5bfe329f2cd40578";""
"komplek housing";"Perhimpunan Pengembang Perumahan";"Rumah Dinas STIP";"Jl. Rumah Dinas Perwira No.15 Blok U, Marunda, Kec. Cilincing, Jkt Utara, Daerah Khusus Ibukota Jakarta 14150";"Marunda, Kec. Cilincing, Jkt Utara";"DAERAH KHUSUS IBUKOTA JAKARTA";"14150";"Indonesia";"";"";"";"-6.100986";"106.9591014";"https://maps.google.com/?cid=0x0:0x7c16aa7c05ec5e15";""
"komplek housing";"komplek housing";"Casa D'Ghina";"Gg. 4 No.5, RT.5/RW.6, Marunda, Kec. Cilincing, Jkt Utara, Daerah Khusus Ibukota Jakarta 14150";"RT.5/RW.6, Marunda, Kec. Cilincing, Jkt Utara";"DAERAH KHUSUS IBUKOTA JAKARTA";"14150";"Indonesia";"";"";"";"-6.1226322";"106.9580843";"https://maps.google.com/?cid=0x0:0x664249d2dfd6eafd";""
"komplek housing";"Pembangunan Perumahan";"Rumah Niken";"Jl. Sungai Tiram No.36, RT.7/RW.2, Marunda, Kec. Cilincing, Jkt Utara, Daerah Khusus Ibukota Jakarta 14150";"RT.7/RW.2, Marunda, Kec. Cilincing, Jkt Utara";"DAERAH KHUSUS IBUKOTA JAKARTA";"14150";"Indonesia";"";"";"";"-6.1176312";"106.9576242";"https://maps.google.com/?cid=0x0:0x344667ad22b3e59";""
"komplek housing";"komplek housing";"Daerah Khusus Ibukota Jakarta 14150";"Kec. Cilincing, Jkt Utara, Daerah Khusus Ibukota Jakarta";"Jkt Utara, Daerah Khusus Ibukota Jakarta";"DAERAH KHUSUS IBUKOTA JAKARTA";"";"Indonesia";"";"";"";"-6.1133063";"106.9624239";"https://maps.google.com/?cid=0x0:0x1c00c5eb4d032e10";""
"komplek housing";"Perhimpunan Pengembang Perumahan";"Oezhank CPP home";"Gg. 3 Jl. Marunda No.62, RT.1/RW.5, Marunda, Kec. Cilincing, Jkt Utara, Daerah Khusus Ibukota Jakarta 14150";"RT.1/RW.5, Marunda, Kec. Cilincing, Jkt Utara";"DAERAH KHUSUS IBUKOTA JAKARTA";"14150";"Indonesia";"";"";"";"-6.1300368";"106.9564049";"https://maps.google.com/?cid=0x0:0xf3d5d490fae19f0a";""
"komplek housing";"Perhimpunan Pengembang Perumahan";"Rumah Idin";"Gg. 3 Jl. Marunda No.4 5, RT.4/RW.5, Marunda, Kec. Cilincing, Jkt Utara, Daerah Khusus Ibukota Jakarta 14150";"RT.4/RW.5, Marunda, Kec. Cilincing, Jkt Utara";"DAERAH KHUSUS IBUKOTA JAKARTA";"14150";"Indonesia";"";"";"";"-6.1283766";"106.9569572";"https://maps.google.com/?cid=0x0:0x3ab8bc90f41ffc8f";""
"komplek housing";"Komplek perumahan";"Rumah fahrul";"VXG6+59F, Jl. Marunda Baru XI No.6a, RT.5/RW.3, Marunda, Kec. Cilincing, Jkt Utara, Daerah Khusus Ibukota Jakarta 14150";"Jl. Marunda Baru XI No.6a, RT.5/RW.3, Marunda, Kec. Cilincing, Jkt Utara";"DAERAH KHUSUS IBUKOTA JAKARTA";"14150";"Indonesia";"";"";"";"-6.1245213";"106.960941";"https://maps.google.com/?cid=0x0:0x7b7d43b18cf6bdb3";""
"komplek housing";"Komplek perumahan";"Rumah Fadhel";"Jl.marunda baru blok.b1 rt.011 rw.03 No.91/92 kel Marunda kec. Cilincing JAKUT, RT.13/RW.3, Marunda, Kec. Cilincing, Jkt Utara, Daerah Khusus Ibukota Jakarta 14150";"RT.13/RW.3, Marunda, Kec. Cilincing, Jkt Utara";"DAERAH KHUSUS IBUKOTA JAKARTA";"14150";"Indonesia";"";"";"";"-6.1239483";"106.9597703";"https://maps.google.com/?cid=0x0:0x48e1902b52de9277";""
"komplek housing";"Perhimpunan Pengembang Perumahan";"Tyaa home";"Jl. Sarang Bango No.1, RT.1/RW.5, Marunda, Kec. Cilincing, Jkt Utara, Daerah Khusus Ibukota Jakarta 14150";"RT.1/RW.5, Marunda, Kec. Cilincing, Jkt Utara";"DAERAH KHUSUS IBUKOTA JAKARTA";"14150";"Indonesia";"";"";"";"-6.1300851";"106.9568466";"https://maps.google.com/?cid=0x0:0xecef93b47c3eb77e";""
"komplek housing";"komplek housing";"A10";"Jl. Akses Kp. Su No.94, RT.2/RW.2, Marunda, Kec. Cilincing, Jkt Utara, Daerah Khusus Ibukota Jakarta 14150";"RT.2/RW.2, Marunda, Kec. Cilincing, Jkt Utara";"DAERAH KHUSUS IBUKOTA JAKARTA";"14150";"Indonesia";"";"";"";"-6.1112518";"106.9629485";"https://maps.google.com/?cid=0x0:0x7cb14df83640c20a";""
"komplek housing";"Pembangunan Perumahan";"Komplek Perumahan Green Garden Rorotan Cilincing Jakarta Utara";"Jl. Angelia Raya No.7, RT.7/RW.1, Rorotan, Kec. Cilincing, Jkt Utara, Daerah Khusus Ibukota Jakarta 14140";"RT.7/RW.1, Rorotan, Kec. Cilincing, Jkt Utara";"DAERAH KHUSUS IBUKOTA JAKARTA";"14140";"Indonesia";"";"";"";"-6.153322";"106.9503629";"https://maps.google.com/?cid=0x0:0x701334e347744651";""
"komplek housing";"komplek housing";"PMGqZ-71C_GVseMPuP6hOA"-,null,null,1,null,"https://www.google.com/maps/preview/place/Gubug+Sederhana/@-6.1114335,106.9573099,3967a,13.1y/datau003d!4m2!3m1!1s0x4bf51fd0803cc915:0xa5ce944d67a6510f";"";"";"DAERAH KHUSUS IBUKOTA JAKARTA";"";"Indonesia";" 081381856212";"";"";"-6.1114335";"106.9573099";"https://maps.google.com/?cid=0x0:0xa5ce944d67a6510f";""
"komplek housing";"Komplek perumahan";"Dede Budi’s Home";"Jl. Marunda Baru 1 No.18, RT.8/RW.5, Marunda, Kec. Cilincing, Jkt Utara, Daerah Khusus Ibukota Jakarta 14150";"RT.8/RW.5, Marunda, Kec. Cilincing, Jkt Utara";"DAERAH KHUSUS IBUKOTA JAKARTA";"14150";"Indonesia";"";"";"";"-6.1284223";"106.9637124";"https://maps.google.com/?cid=0x0:0x129c85a5d7932cb4";""
"komplek housing";"Komplek perumahan";"Gading Kirana";"Jl. Gading Kirana Timur IX No.9, RT.8/RW.8, Klp. Gading Bar., Kec. Klp. Gading, Jkt Utara, Daerah Khusus Ibukota Jakarta 14240";"RT.8/RW.8, Klp. Gading Bar., Kec. Klp. Gading, Jkt Utara";"DAERAH KHUSUS IBUKOTA JAKARTA";"14240";"Indonesia";"";"";"";"-6.1442227";"106.8983831";"https://maps.google.com/?cid=0x0:0x5b979cc0ba8f3d1f";""
"komplek housing";"Sekolah";"Synergy Mma Academies Kirana";"JL. Gading Kirana Timur, 1 Blok A2, No. 4, Kelapa Gading, RT.8/RW.8, Klp. Gading Bar., Kec. Klp. Gading, Jkt Utara, Daerah Khusus Ibukota Jakarta 14240";"1 Blok A2, No. 4, Kelapa Gading, RT.8/RW.8, Klp. Gading Bar., Kec. Klp. Gading, Jkt Utara";"DAERAH KHUSUS IBUKOTA JAKARTA";"14240";"Indonesia";" 0818943914";"";"";"-6.1446286";"106.8986556";"https://maps.google.com/?cid=0x0:0x626ef91783b59324";""
"komplek housing";"komplek housing";"House";"Jl. Janur Asri V No.10 Blok QJ 18, West Kelapa Gading, Kelapa Gading, North Jakarta City, Jakarta 14240";"West Kelapa Gading, Kelapa Gading, North Jakarta City";"DAERAH KHUSUS IBUKOTA JAKARTA";"14240";"Indonesia";"";"";"";"-6.1449455";"106.9082303";"https://maps.google.com/?cid=0x0:0xf8412fca3b3e0fa3";""
"komplek housing";"Komplek perumahan";"Janur Kuning Residence";"Jl. Boulevard Raya No.6, RT.11/RW.18, Klp. Gading Tim., Kec. Klp. Gading, Jkt Utara, Daerah Khusus Ibukota Jakarta 14240";"RT.11/RW.18, Klp. Gading Tim., Kec. Klp. Gading, Jkt Utara";"DAERAH KHUSUS IBUKOTA JAKARTA";"14240";"Indonesia";"";"";"";"-6.162137";"106.9038733";"https://maps.google.com/?cid=0x0:0x33bfc3f2d19bd1c4";""
"komplek housing";"Komplek perumahan";"Komplek Gading Cipta Residence Kelapa Gading Jakarta Utara 14240";"Jl. Dewi Shinta Bh No.1 2, RT.2/RW.8, Klp. Gading Tim., Kec. Klp. Gading, Jkt Utara, Daerah Khusus Ibukota Jakarta 14240";"RT.2/RW.8, Klp. Gading Tim., Kec. Klp. Gading, Jkt Utara";"DAERAH KHUSUS IBUKOTA JAKARTA";"14240";"Indonesia";" 082321051233";"";"";"-6.1677815";"106.9097801";"https://maps.google.com/?cid=0x0:0x999468e7bc68a4e5";""
"komplek housing";"Pembangunan Perumahan";"Gading Eight Residence";"Jl. Gading Kirana Tim. No.7, RT.7/RW.11, Klp. Gading Bar., Kec. Klp. Gading, Jkt Utara, Daerah Khusus Ibukota Jakarta 14240";"RT.7/RW.11, Klp. Gading Bar., Kec. Klp. Gading, Jkt Utara";"DAERAH KHUSUS IBUKOTA JAKARTA";"14240";"Indonesia";"";"";"";"-6.1459337";"106.9016746";"https://maps.google.com/?cid=0x0:0x9dc99e4c309560e0";""
"komplek housing";"Komplek perumahan";"Komplek TNI AL";"Jl. Gading Raya No.9 Blok D No.17, RT.5/RW.5, West Kelapa Gading, Kelapa Gading, North Jakarta City, Jakarta 14240";"RT.5/RW.5, West Kelapa Gading, Kelapa Gading, North Jakarta City";"DAERAH KHUSUS IBUKOTA JAKARTA";"14240";"Indonesia";"";"";"";"-6.1684673";"106.884864";"https://maps.google.com/?cid=0x0:0x131b7c4aeaf39811";""
"komplek housing";"Komplek perumahan";"Artha Gading Villa";"Jl. Kumala Artha Gading No.18-24, RT.18/RW.8, Klp. Gading Bar., Kec. Klp. Gading, Jkt Utara, Daerah Khusus Ibukota Jakarta 14240";"RT.18/RW.8, Klp. Gading Bar., Kec. Klp. Gading, Jkt Utara";"DAERAH KHUSUS IBUKOTA JAKARTA";"14240";"Indonesia";" 02133073387";"";"";"-6.1478225";"106.8954562";"https://maps.google.com/?cid=0x0:0xd0ab48a25a95e1c8";""
"komplek housing";"komplek housing";"Villa Kelapa Gading Permai";"Komplek Villa, Klp. Gading Permai, Jalan Serdam 2, East Kelapa Gading, Kelapa Gading, North Jakarta City, Jakarta 14240";"Klp. Gading Permai, Jalan Serdam 2, East Kelapa Gading, Kelapa Gading, North Jakarta City";"DAERAH KHUSUS IBUKOTA JAKARTA";"14240";"Indonesia";"";"";"";"-6.1723932";"106.8987346";"https://maps.google.com/?cid=0x0:0xae819747c0012e93";""
"komplek housing";"Komplek perumahan";"The Kew Garden Resindence Kelapa Gading";"Raya (Pinggir Kali Pas Simpang dekat ALFAMIDI, Jl. Raya Kelapa Nias No.14, RT.14/RW.6, Klp. Gading Bar., Kec. Klp. Gading, Jkt Utara, Daerah Khusus Ibukota Jakarta 14240";"Jl. Raya Kelapa Nias No.14, RT.14/RW.6, Klp. Gading Bar., Kec. Klp. Gading, Jkt Utara";"DAERAH KHUSUS IBUKOTA JAKARTA";"14240";"Indonesia";"";"";"";"-6.1485615";"106.9001963";"https://maps.google.com/?cid=0x0:0xb9be62f7cbc2985e";""
"komplek housing";"Komplek perumahan";"Komplek Gading Nirwana";"Jl. Raya Klp. Hybrida Blok PF 21 No.8, RT.10/RW.3, Pegangsaan Dua, Kec. Klp. Gading, Jkt Utara, Daerah Khusus Ibukota Jakarta 14250";"RT.10/RW.3, Pegangsaan Dua, Kec. Klp. Gading, Jkt Utara";"DAERAH KHUSUS IBUKOTA JAKARTA";"14250";"Indonesia";"";"";"";"-6.148773";"106.9131676";"https://maps.google.com/?cid=0x0:0x6725830ab22e6de3";""
"komplek housing";"Komplek perumahan";"Gading Park View";"Gedung Club Gading Park View, RT.4/RW.11, Pegangsaan Dua, Kec. Klp. Gading, Jkt Utara, Daerah Khusus Ibukota Jakarta 14240";"RT.4/RW.11, Pegangsaan Dua, Kec. Klp. Gading, Jkt Utara";"DAERAH KHUSUS IBUKOTA JAKARTA";"14240";"Indonesia";"";"";"";"-6.1655643";"106.9105215";"https://maps.google.com/?cid=0x0:0x9742d9d674846390";""
"komplek housing";"Pembangunan Perumahan";"The Villas (MOI)";"RVXR+JX7, Jl. Boulevard Bar. Raya, RT.18/RW.8, Klp. Gading Bar., Kec. Klp. Gading, Jkt Utara, Daerah Khusus Ibukota Jakarta 14240";"Jl. Boulevard Bar. Raya, RT.18/RW.8, Klp. Gading Bar., Kec. Klp. Gading, Jkt Utara";"DAERAH KHUSUS IBUKOTA JAKARTA";"14240";"Indonesia";"";"";"";"-6.1509571";"106.8924369";"https://maps.google.com/?cid=0x0:0x1e1fb7a71c1a22af";""
"komplek housing";"Komplek perumahan";"Our Home";"Jl. Gading 7 No.D1 No 1, RT.4/RW.5, Klp. Gading Bar., Kec. Klp. Gading, Jkt Utara, Daerah Khusus Ibukota Jakarta 14240";"RT.4/RW.5, Klp. Gading Bar., Kec. Klp. Gading, Jkt Utara";"DAERAH KHUSUS IBUKOTA JAKARTA";"14240";"Indonesia";"";"";"";"-6.1680187";"106.8869982";"https://maps.google.com/?cid=0x0:0x6cd8e878cb61670a";""
"komplek housing";"Komplek perumahan";"Janur Indah Kelapa Gading";"LA-14, Jl. Janur Indah IV No.1, RW.18, East Kelapa Gading, Kelapa Gading, North Jakarta City, Jakarta 14240";"Jl. Janur Indah IV No.1, RW.18, East Kelapa Gading, Kelapa Gading, North Jakarta City";"DAERAH KHUSUS IBUKOTA JAKARTA";"14240";"Indonesia";"";"";"";"-6.1576935";"106.9046796";"https://maps.google.com/?cid=0x0:0x3af4d38d081490e0";""
"komplek housing";"Komplek perumahan";"Mansion";"Jl. Pulau Bunaken No.1, RT.2/RW.9, Klp. Gading Bar., Kec. Klp. Gading, Jkt Utara, Daerah Khusus Ibukota Jakarta 14240";"RT.2/RW.9, Klp. Gading Bar., Kec. Klp. Gading, Jkt Utara";"DAERAH KHUSUS IBUKOTA JAKARTA";"14240";"Indonesia";"";"";"";"-6.1559284";"106.8907583";"https://maps.google.com/?cid=0x0:0xe77aaf9e2e9cd5b";""
"komplek housing";"komplek housing";"Home Laundry";"Janur Kuning Residence, 9 Blok Wn 1 No, Jl. Janur Kuning I No.12, RT.9/RW.16, Klp. Gading Tim., Kec. Klp. Gading, Jkt Utara, Daerah Khusus Ibukota Jakarta 14240";"9 Blok Wn 1 No, Jl. Janur Kuning I No.12, RT.9/RW.16, Klp. Gading Tim., Kec. Klp. Gading, Jkt Utara";"DAERAH KHUSUS IBUKOTA JAKARTA";"14240";"Indonesia";" 08565060005";"";"";"-6.1621959";"106.9026046";"https://maps.google.com/?cid=0x0:0x7aabb8d854f0cf47";""
"komplek housing";"Komplek perumahan";"Home";"Jl. Raya Mediterania Blok BA No.2, West Kelapa Gading, Kelapa Gading, North Jakarta City, Jakarta 14240";"West Kelapa Gading, Kelapa Gading, North Jakarta City";"DAERAH KHUSUS IBUKOTA JAKARTA";"14240";"Indonesia";"";"";"";"-6.1581036";"106.8977259";"https://maps.google.com/?cid=0x0:0xb2ca6a43d66eb2a2";""
"komplek housing";"Komplek perumahan";"BunBun Indekost Kelapa Gading";"Jl. Biru Laut Barat Komplek Walikota No.37, Klp. Gading Tim., Kec. Klp. Gading, Jkt Utara, Daerah Khusus Ibukota Jakarta 14240";"Klp. Gading Tim., Kec. Klp. Gading, Jkt Utara";"DAERAH KHUSUS IBUKOTA JAKARTA";"14240";"Indonesia";" 0818108299";"";"/url?q>>u003dhttps://mamikos.com/room/kost-kota-jakarta-utara-kost-campur-eksklusif-kost-bunbun-tipe-reguler-kelapa-gading-jakarta-utara-2>>u0026opi>>u003d79508299>>u0026sa>>u003dU>>u0026ved>>u003d0ahUKEwjo2-ur1LqLAxXyd2wGHSATKYsQ61gIFigS>>u0026usg>>u003dAOvVaw2EvFu0a4bCQ0LKElYpDJKN";"-6.1636631";"106.907157";"https://maps.google.com/?cid=0x0:0xd064d011b427450e";""
"komplek housing";"Komplek perumahan";"Komplek Bermis Gading";"Jl. Perintis Kemerdekaan, RT.8/RW.3, Klp. Gading Tim., Kec. Klp. Gading, Jkt Utara, Daerah Khusus Ibukota Jakarta 14240";"RT.8/RW.3, Klp. Gading Tim., Kec. Klp. Gading, Jkt Utara";"DAERAH KHUSUS IBUKOTA JAKARTA";"14240";"Indonesia";" 0817350787";"";"";"-6.1779636";"106.8989998";"https://maps.google.com/?cid=0x0:0xc63170c1d50a16bd";""
"komplek housing";"komplek housing";"Daerah Khusus Ibukota Jakarta 14240";"Kec. Klp. Gading, Jkt Utara, Daerah Khusus Ibukota Jakarta";"Jkt Utara, Daerah Khusus Ibukota Jakarta";"DAERAH KHUSUS IBUKOTA JAKARTA";"";"Indonesia";"";"";"";"-6.1588448";"106.8945456";"https://maps.google.com/?cid=0x0:0x1c00c5eb4d0323c0";""
"komplek housing";"Pembangunan Perumahan";"Kho Home";"Jl. Tarian Raya Barat No.8 Blok S, RT.4/RW.8, East Kelapa Gading, Kelapa Gading, North Jakarta City, Jakarta 14240";"RT.4/RW.8, East Kelapa Gading, Kelapa Gading, North Jakarta City";"DAERAH KHUSUS IBUKOTA JAKARTA";"14240";"Indonesia";"";"";"";"-6.1681476";"106.9109715";"https://maps.google.com/?cid=0x0:0xc2e3e5119acb0fc8";""
"komplek housing";"komplek housing";"Perumahan Kelapa Gading Pratama";"Jl. Griya Pratama Raya Blok VII No.7, RT.6/RW.1, Pegangsaan Dua, Kec. Klp. Gading, Jkt Utara, Daerah Khusus Ibukota Jakarta 14240";"RT.6/RW.1, Pegangsaan Dua, Kec. Klp. Gading, Jkt Utara";"DAERAH KHUSUS IBUKOTA JAKARTA";"14240";"Indonesia";"";"";"";"-6.1755716";"106.9122239";"https://maps.google.com/?cid=0x0:0x54ab9be7a92c81e0";""
"komplek housing";"Komplek perumahan";"Gading kusuma blok GK 12/2";"Jl. Raya Gading Kusuma No.5, RT.6/RW.6, Klp. Gading Tim., Kec. Klp. Gading, Jkt Utara, Daerah Khusus Ibukota Jakarta 14240";"RT.6/RW.6, Klp. Gading Tim., Kec. Klp. Gading, Jkt Utara";"DAERAH KHUSUS IBUKOTA JAKARTA";"14240";"Indonesia";"";"";"";"-6.1720831";"106.9063553";"https://maps.google.com/?cid=0x0:0x82d0b94e83accd36";""
"komplek housing";"Rumah Pondokan";"BC KOPYOR RAYA";"Jalan Kelapa Kopyor Raya Blok Q1 No.2, RT.1/RW.9, RT.16/RW.19, Klp. Gading Tim., Kec. Klp. Gading, Jkt Utara, Daerah Khusus Ibukota Jakarta 14240";"RT.1/RW.9, RT.16/RW.19, Klp. Gading Tim., Kec. Klp. Gading, Jkt Utara";"DAERAH KHUSUS IBUKOTA JAKARTA";"14240";"Indonesia";"";"";"";"-6.1706511";"106.9033195";"https://maps.google.com/?cid=0x0:0xe411a2fee7dcc6ee";""
"komplek housing";"Komplek perumahan";"Kelapa Gading";"Jl. Gading Raya 2 No.2, RT.2/RW.5, Klp. Gading Bar., Kec. Klp. Gading, Jkt Utara, Daerah Khusus Ibukota Jakarta 14240";"RT.2/RW.5, Klp. Gading Bar., Kec. Klp. Gading, Jkt Utara";"DAERAH KHUSUS IBUKOTA JAKARTA";"14240";"Indonesia";"";"";"";"-6.1700449";"106.8875411";"https://maps.google.com/?cid=0x0:0xf4c1d678b3534191";""
"komplek housing";"komplek housing";"Kelapagading";"Jl. Gading Kirana No.34 Blok G1, RT.9/RW.8, West Kelapa Gading, Kelapa Gading, North Jakarta City, Jakarta 14240";"RT.9/RW.8, West Kelapa Gading, Kelapa Gading, North Jakarta City";"DAERAH KHUSUS IBUKOTA JAKARTA";"14240";"Indonesia";"";"";"";"-6.1443604";"106.899056";"https://maps.google.com/?cid=0x0:0xeae81f578b36958d";""
"komplek housing";"Rumah wisata";"Borma kelapa gading";"Jl. Janur Asri VI Blok QJ 20 No. 10, RT.11/RW.12, Klp. Gading Bar., Kec. Klp. Gading, Jkt Utara, Daerah Khusus Ibukota Jakarta 14240";"RT.11/RW.12, Klp. Gading Bar., Kec. Klp. Gading, Jkt Utara";"DAERAH KHUSUS IBUKOTA JAKARTA";"14240";"Indonesia";"";"";"";"-6.1451262";"106.9090476";"https://maps.google.com/?cid=0x0:0x5bad5029092bbcf0";""
"komplek housing";"Komplek perumahan";"home Gading kirana, kelapa gading";"H8 No, Jl. Gading Kirana Timur VIII No.9, RT.3/RW.8, West Kelapa Gading, Kelapa Gading, North Jakarta City, Jakarta 14240";"Jl. Gading Kirana Timur VIII No.9, RT.3/RW.8, West Kelapa Gading, Kelapa Gading, North Jakarta City";"DAERAH KHUSUS IBUKOTA JAKARTA";"14240";"Indonesia";"";"";"";"-6.143862";"106.9008607";"https://maps.google.com/?cid=0x0:0xe17d4ea5733fa106";""
"komplek housing";"Komplek perumahan";"Perumahan Gading Arcadia";"Jl. Gading Arcadia No.22, RT.22/RW.22, Pegangsaan Dua, Kec. Klp. Gading, Jkt Utara, Daerah Khusus Ibukota Jakarta 14250";"RT.22/RW.22, Pegangsaan Dua, Kec. Klp. Gading, Jkt Utara";"DAERAH KHUSUS IBUKOTA JAKARTA";"14250";"Indonesia";"";"";"";"-6.1618709";"106.921373";"https://maps.google.com/?cid=0x0:0xb2c37e3c76c49d6d";""
"komplek housing";"Rumah wisata";"Gading Lavender";"Jalan Kelapa Hibrida Timur Rt. 006 / Rw. 024 Kel, perumahan gading lavender No.16, RT.4/RW.3, Pegangsaan Dua, Kelapa Gading, North Jakarta City, Jakarta 14250";"perumahan gading lavender No.16, RT.4/RW.3, Pegangsaan Dua, Kelapa Gading, North Jakarta City";"DAERAH KHUSUS IBUKOTA JAKARTA";"14250";"Indonesia";"";"";"";"-6.144775";"106.9135118";"https://maps.google.com/?cid=0x0:0xef730f672a71f60e";""
"komplek housing";"komplek housing";"Nias Home";"No.PA 17 No, Jl. Kelapa Nias VI No.3, RT.7/RW.14, Pegangsaan Dua, Kelapa Gading, North Jakarta City, Jakarta 14250";"Jl. Kelapa Nias VI No.3, RT.7/RW.14, Pegangsaan Dua, Kelapa Gading, North Jakarta City";"DAERAH KHUSUS IBUKOTA JAKARTA";"14250";"Indonesia";"";"";"";"-6.1521444";"106.9109945";"https://maps.google.com/?cid=0x0:0xbbbc198e92dee1cd";""
"komplek housing";"Pembangunan Perumahan";"Perumahan Pondok Gading Utama";"Jl. Pegangsaan Indah Bar. No.19 Blok H, RT.3/RW.16, Pegangsaan Dua, Kelapa Gading, North Jakarta City, Jakarta 14250";"RT.3/RW.16, Pegangsaan Dua, Kelapa Gading, North Jakarta City";"DAERAH KHUSUS IBUKOTA JAKARTA";"14250";"Indonesia";"";"";"";"-6.1682492";"106.914408";"https://maps.google.com/?cid=0x0:0x10ce302db17c1ab9";""
"komplek housing";"Komplek perumahan";"Komplek Gading Nirwana";"Jl. Raya Klp. Hybrida Blok PF 21 No.8, RT.10/RW.3, Pegangsaan Dua, Kec. Klp. Gading, Jkt Utara, Daerah Khusus Ibukota Jakarta 14250";"RT.10/RW.3, Pegangsaan Dua, Kec. Klp. Gading, Jkt Utara";"DAERAH KHUSUS IBUKOTA JAKARTA";"14250";"Indonesia";"";"";"";"-6.148773";"106.9131676";"https://maps.google.com/?cid=0x0:0x6725830ab22e6de3";""
"komplek housing";"Komplek perumahan";"Gading Grande Residence";"Jl. Klp. Lilin Tim., RT.18/RW.25, Pegangsaan Dua, Kec. Klp. Gading, Jkt Utara, Daerah Khusus Ibukota Jakarta 14250";"RT.18/RW.25, Pegangsaan Dua, Kec. Klp. Gading, Jkt Utara";"DAERAH KHUSUS IBUKOTA JAKARTA";"14250";"Indonesia";"";"";"/url?q>>u003dhttps://gadinggrande.wixsite.com/gadinggrande>>u0026opi>>u003d79508299>>u0026sa>>u003dU>>u0026ved>>u003d0ahUKEwisoJy61LqLAxXeSGwGHRbGFcAQ61gIEigO>>u0026usg>>u003dAOvVaw0w5d0AM72MtQqJOcO01Y1-";"-6.1599129";"106.9151298";"https://maps.google.com/?cid=0x0:0x6d0c01fe619429f1";""
"komplek housing";"Komplek perumahan";"Taman Pegangsaan Indah blok h nomor 27";"Blok, Jl. Pegangsaan Dua No.2 Blok H, RT.2/RW.19, Pegangsaan Dua, Kelapa Gading, North Jakarta City, Jakarta 14250";"Jl. Pegangsaan Dua No.2 Blok H, RT.2/RW.19, Pegangsaan Dua, Kelapa Gading, North Jakarta City";"DAERAH KHUSUS IBUKOTA JAKARTA";"14250";"Indonesia";"";"";"";"-6.166347";"106.9194871";"https://maps.google.com/?cid=0x0:0xf58e821fb00b9f4b";""
"komplek housing";"Komplek perumahan";"Kompleks Hibrida";"Jl. Gading Ayu I No.12 Blok RA2, Pegangsaan Dua, Kec. Klp. Gading, Jkt Utara, Daerah Khusus Ibukota Jakarta 14250";"Pegangsaan Dua, Kec. Klp. Gading, Jkt Utara";"DAERAH KHUSUS IBUKOTA JAKARTA";"14250";"Indonesia";"";"";"";"-6.1467541";"106.9098604";"https://maps.google.com/?cid=0x0:0x58ba712c362d99ab";""
"komplek housing";"Pembangunan Perumahan";"Jl. Pegangsaan Indah Barat 2 no F/6, Pondok Gading Utama";"5, RT.5/RW.16, Pegangsaan Dua, Kec. Klp. Gading, Jkt Utara, Daerah Khusus Ibukota Jakarta 14250";"RT.5/RW.16, Pegangsaan Dua, Kec. Klp. Gading, Jkt Utara";"DAERAH KHUSUS IBUKOTA JAKARTA";"14250";"Indonesia";"";"";"";"-6.1691877";"106.9146551";"https://maps.google.com/?cid=0x0:0x490a2d99b08998d7";""
"komplek housing";"Komplek perumahan";"Rumah Dea @Kelapa Gading";"Blok E, Jl. Impor 1 No.38 8, RT.8/RW.10, Pegangsaan Dua, Kelapa Gading, North Jakarta City, Jakarta 14250";"Jl. Impor 1 No.38 8, RT.8/RW.10, Pegangsaan Dua, Kelapa Gading, North Jakarta City";"DAERAH KHUSUS IBUKOTA JAKARTA";"14250";"Indonesia";"";"";"";"-6.1678111";"106.9128465";"https://maps.google.com/?cid=0x0:0x85738179eefb3c7a";""
"komplek housing";"Komplek perumahan";"Komplek TNI AL";"Jl. Gading Raya No.9 Blok D No.17, RT.5/RW.5, West Kelapa Gading, Kelapa Gading, North Jakarta City, Jakarta 14240";"RT.5/RW.5, West Kelapa Gading, Kelapa Gading, North Jakarta City";"DAERAH KHUSUS IBUKOTA JAKARTA";"14240";"Indonesia";"";"";"";"-6.1684673";"106.884864";"https://maps.google.com/?cid=0x0:0x131b7c4aeaf39811";""
"komplek housing";"Komplek perumahan";"Home";"RT.1/RW18, PE1 No. 10, Jl. Raya Janur Elok, Pegangsaan Dua, Kelapa Gading, North Jakarta City, Jakarta 14250";"PE1 No. 10, Jl. Raya Janur Elok, Pegangsaan Dua, Kelapa Gading, North Jakarta City";"DAERAH KHUSUS IBUKOTA JAKARTA";"14250";"Indonesia";"";"";"";"-6.1504277";"106.911398";"https://maps.google.com/?cid=0x0:0x8e0ad4cb3ac99f34";""
"komplek housing";"Komplek perumahan";"P/10 Perumahan Gading Arcadia";"Jl. Pegangsaan Dua Jl. Gading Arcadia Blok P10, RW.3, Pegangsaan Dua, Kelapa Gading, North Jakarta City, Jakarta 14250";"RW.3, Pegangsaan Dua, Kelapa Gading, North Jakarta City";"DAERAH KHUSUS IBUKOTA JAKARTA";"14250";"Indonesia";"";"";"";"-6.1632472";"106.9189637";"https://maps.google.com/?cid=0x0:0xbee80c12de0c2f9f";""
"komplek housing";"komplek housing";"Home Laundry";"Janur Kuning Residence, 9 Blok Wn 1 No, Jl. Janur Kuning I No.12, RT.9/RW.16, Klp. Gading Tim., Kec. Klp. Gading, Jkt Utara, Daerah Khusus Ibukota Jakarta 14240";"9 Blok Wn 1 No, Jl. Janur Kuning I No.12, RT.9/RW.16, Klp. Gading Tim., Kec. Klp. Gading, Jkt Utara";"DAERAH KHUSUS IBUKOTA JAKARTA";"14240";"Indonesia";" 08565060005";"";"";"-6.1621959";"106.9026046";"https://maps.google.com/?cid=0x0:0x7aabb8d854f0cf47";""
"komplek housing";"Komplek perumahan";"Janur Kuning Residence";"Jl. Boulevard Raya No.6, RT.11/RW.18, Klp. Gading Tim., Kec. Klp. Gading, Jkt Utara, Daerah Khusus Ibukota Jakarta 14240";"RT.11/RW.18, Klp. Gading Tim., Kec. Klp. Gading, Jkt Utara";"DAERAH KHUSUS IBUKOTA JAKARTA";"14240";"Indonesia";"";"";"";"-6.162137";"106.9038733";"https://maps.google.com/?cid=0x0:0x33bfc3f2d19bd1c4";""
"komplek housing";"Komplek perumahan";"Perum. Gading Arcadia";"Gading Arcadia Blok R, RW.3, Pegangsaan Dua, Kelapa Gading, North Jakarta City, Jakarta 14250";"RW.3, Pegangsaan Dua, Kelapa Gading, North Jakarta City";"DAERAH KHUSUS IBUKOTA JAKARTA";"14250";"Indonesia";"";"";"";"-6.1620888";"106.9205891";"https://maps.google.com/?cid=0x0:0xf13aa35caee3b96e";""
"komplek housing";"Komplek perumahan";"Gading Arcadia Blok E No 8, Pegangsaan Dua, Kelapa Gading";"Jl. Gading Arcadia E No.8, RW.3, Pegangsaan Dua, Kelapa Gading, North Jakarta City, Jakarta 14250";"RW.3, Pegangsaan Dua, Kelapa Gading, North Jakarta City";"DAERAH KHUSUS IBUKOTA JAKARTA";"14250";"Indonesia";"";"";"";"-6.1638984";"106.9201465";"https://maps.google.com/?cid=0x0:0x4c7c39f7d1c4992e";""
"komplek housing";"Komplek perumahan";"GIV House";"Jl. Gading Indah V No.9 Blok NF3, RT.12/RW.12, Pegangsaan Dua, Kelapa Gading, North Jakarta City, Jakarta 14250";"RT.12/RW.12, Pegangsaan Dua, Kelapa Gading, North Jakarta City";"DAERAH KHUSUS IBUKOTA JAKARTA";"14250";"Indonesia";"";"";"";"-6.1622506";"106.9127003";"https://maps.google.com/?cid=0x0:0xb6f731b9ca4be5e8";""
"komplek housing";"Komplek perumahan";"anfi house";"Gading Mas Barat V No.A21, RT.1/RW.11, Pegangsaan Dua, Kec. Klp. Gading, Jkt Utara, Daerah Khusus Ibukota Jakarta 14250";"RT.1/RW.11, Pegangsaan Dua, Kec. Klp. Gading, Jkt Utara";"DAERAH KHUSUS IBUKOTA JAKARTA";"14250";"Indonesia";"";"";"";"-6.1672433";"106.9106385";"https://maps.google.com/?cid=0x0:0xdb6c3898714f7ba1";""
"komplek housing";"komplek housing";"Kec. Klp. Gading";"Jkt Utara, Daerah Khusus Ibukota Jakarta";"Jkt Utara, Daerah Khusus Ibukota Jakarta";"DAERAH KHUSUS IBUKOTA JAKARTA";"";"Indonesia";"";"";"";"-6.1613087";"106.9049822";"https://maps.google.com/?cid=0x0:0x16c6fe09cb072ae0";""
"komplek housing";"Komplek perumahan";"Home";"Jl. Pelangi Biru 2 No.58 Blok A1, RT.2/RW.4, Pegangsaan Dua, Kec. Klp. Gading, Jkt Utara, Daerah Khusus Ibukota Jakarta 14250";"RT.2/RW.4, Pegangsaan Dua, Kec. Klp. Gading, Jkt Utara";"DAERAH KHUSUS IBUKOTA JAKARTA";"14250";"Indonesia";"";"";"";"-6.1802055";"106.9159273";"https://maps.google.com/?cid=0x0:0xaa31ad8ebf66efdd";""
"komplek housing";"Komplek perumahan";"Home";"blok O no 5, Taman Jl. Pegangsaan Indah Bar., Pegangsaan Dua, Kelapa Gading, North Jakarta City, Jakarta 14250";"Taman Jl. Pegangsaan Indah Bar., Pegangsaan Dua, Kelapa Gading, North Jakarta City";"DAERAH KHUSUS IBUKOTA JAKARTA";"14250";"Indonesia";"";"";"";"-6.1675271";"106.9150407";"https://maps.google.com/?cid=0x0:0xae489e6a2c52cf8a";""
"komplek housing";"Komplek perumahan";"Home";"Jl. Klp. Lilin I No.18 Blok NG-3, RT.15/RW.12, Pegangsaan Dua, Kelapa Gading, North Jakarta City, Jakarta 14250";"RT.15/RW.12, Pegangsaan Dua, Kelapa Gading, North Jakarta City";"DAERAH KHUSUS IBUKOTA JAKARTA";"14250";"Indonesia";"";"";"";"-6.1589123";"106.9104489";"https://maps.google.com/?cid=0x0:0x8cae0d555e99b6dd";""
"komplek housing";"komplek housing";"Home";"Jl. Klp. Nias III No.12A Blok Pb 7, RT.4/RW.17, Pegangsaan Dua, Kec. Klp. Gading, Jkt Utara, Daerah Khusus Ibukota Jakarta 14250";"RT.4/RW.17, Pegangsaan Dua, Kec. Klp. Gading, Jkt Utara";"DAERAH KHUSUS IBUKOTA JAKARTA";"14250";"Indonesia";"";"";"";"-6.153644";"106.9119772";"https://maps.google.com/?cid=0x0:0xa67deaf924699824";""
"komplek housing";"Komplek perumahan";"Home";"Blk. Q No.18, RW.3, Pegangsaan Dua, Kec. Klp. Gading, Jkt Utara, Daerah Khusus Ibukota Jakarta 14250";"RW.3, Pegangsaan Dua, Kec. Klp. Gading, Jkt Utara";"DAERAH KHUSUS IBUKOTA JAKARTA";"14250";"Indonesia";"";"";"";"-6.1621531";"106.9203529";"https://maps.google.com/?cid=0x0:0x1a835a32ebd104de";""
"komplek housing";"Komplek perumahan";"pondok";"Puspa Gading 7 No.33 blok H1, Pegangsaan Dua, Kelapa Gading, North Jakarta City, Jakarta 14250";"Pegangsaan Dua, Kelapa Gading, North Jakarta City";"DAERAH KHUSUS IBUKOTA JAKARTA";"14250";"Indonesia";"";"";"";"-6.1729303";"106.9148535";"https://maps.google.com/?cid=0x0:0x18f5cf8a151fc63";""
"komplek housing";"Komplek perumahan";"House";"Jl. Pelangi Raya No.51 Blok a12, RT.5/RW.2, Pegangsaan Dua, Kec. Klp. Gading, Jkt Utara, Daerah Khusus Ibukota Jakarta 14250";"RT.5/RW.2, Pegangsaan Dua, Kec. Klp. Gading, Jkt Utara";"DAERAH KHUSUS IBUKOTA JAKARTA";"14250";"Indonesia";"";"";"";"-6.1771542";"106.9149756";"https://maps.google.com/?cid=0x0:0x70b4514196d02b08";""
"komplek housing";"Komplek perumahan";"Home";"RWC8+P59, Jl. Pelangi Nila 1, RT.3/RW.2, Pegangsaan Dua, Kec. Klp. Gading, Jkt Utara, Daerah Khusus Ibukota Jakarta 14250";"Jl. Pelangi Nila 1, RT.3/RW.2, Pegangsaan Dua, Kec. Klp. Gading, Jkt Utara";"DAERAH KHUSUS IBUKOTA JAKARTA";"14250";"Indonesia";"";"";"";"-6.1782247";"106.915496";"https://maps.google.com/?cid=0x0:0x1ac8cb54e53696ac";""
"komplek housing";"komplek housing";"Kelapa gading";"Jl. Kelapa Lilin XI No.10 blok ni 10, Pegangsaan Dua, Kec. Klp. Gading, Jkt Utara, Daerah Khusus Ibukota Jakarta 14250";"Pegangsaan Dua, Kec. Klp. Gading, Jkt Utara";"DAERAH KHUSUS IBUKOTA JAKARTA";"14250";"Indonesia";"";"";"";"-6.1554257";"106.9125397";"https://maps.google.com/?cid=0x0:0x617b65df43ee8e8d";""
"komplek housing";"komplek housing";"Dragon house";"VWP5+P26, Blk. M, Lagoa, Kec. Koja, Jkt Utara, Daerah Khusus Ibukota Jakarta 14270";"Blk. M, Lagoa, Kec. Koja, Jkt Utara";"DAERAH KHUSUS IBUKOTA JAKARTA";"14270";"Indonesia";"";"";"";"-6.1132065";"106.9075201";"https://maps.google.com/?cid=0x0:0x296a397c3367a87a";""
"komplek housing";"Komplek perumahan";"Rahma house";"Jl. Cibanteng No.37, RT.1/RW.11, Koja, Kec. Koja, Jkt Utara, Daerah Khusus Ibukota Jakarta 14230";"RT.1/RW.11, Koja, Kec. Koja, Jkt Utara";"DAERAH KHUSUS IBUKOTA JAKARTA";"14230";"Indonesia";"";"";"";"-6.1142707";"106.8974347";"https://maps.google.com/?cid=0x0:0xcc097e61bbe548f2";""
"komplek housing";"Komplek perumahan";"Njuh_Repainting";"Jl. Mantang Jl. Lorong 4Y, RT.9/RW.8, Lagoa, Kec. Koja, Jkt Utara, Daerah Khusus Ibukota Jakarta 14270";"RT.9/RW.8, Lagoa, Kec. Koja, Jkt Utara";"DAERAH KHUSUS IBUKOTA JAKARTA";"14270";"Indonesia";"";"";"";"-6.1145605";"106.9087909";"https://maps.google.com/?cid=0x0:0xd0dc8ba5868e5d97";""
"komplek housing";"Komplek perumahan";"Zio";"VVQX+MFH Dahlan, Gg. H, RT.06/03/RW.no 118, Koja, Kec. Koja, Jkt Utara, Daerah Khusus Ibukota Jakarta 14230";"Gg. H, RT.06/03/RW.no 118, Koja, Kec. Koja, Jkt Utara";"DAERAH KHUSUS IBUKOTA JAKARTA";"14230";"Indonesia";"";"";"";"-6.1108189";"106.8987426";"https://maps.google.com/?cid=0x0:0xb9076bbfaab8a21c";""
"komplek housing";"Komplek perumahan";"Cluster Griya Koja";"Jl. Lorong 25 No.29, RT.4/RW.11, Koja, Kec. Koja, Jkt Utara, Daerah Khusus Ibukota Jakarta 14220";"RT.4/RW.11, Koja, Kec. Koja, Jkt Utara";"DAERAH KHUSUS IBUKOTA JAKARTA";"14220";"Indonesia";" 085641064636";"";"";"-6.1099802";"106.8973257";"https://maps.google.com/?cid=0x0:0xfa01e9ae58267e5f";""
"komplek housing";"Komplek perumahan";"WaDuLasCommunity Rt012 Rw08 Tugu Utara Koja Jakarta Utara Dki Jakarta";"Komp uka blok Au, Aw, Ax, Bs Rt012, RW.8, Tugu Utara, Jkt Utara, Daerah Khusus Ibukota Jakarta 14260";"Aw, Ax, Bs Rt012, RW.8, Tugu Utara, Jkt Utara";"DAERAH KHUSUS IBUKOTA JAKARTA";"14260";"Indonesia";" 085216337688";"";"";"-6.1244415";"106.913276";"https://maps.google.com/?cid=0x0:0xc349e28b90b22776";""
"komplek housing";"Pembangunan Perumahan";"Ardev Residence";"Jl. Cipeucang III No.23, RT.9/RW.12, Koja, Kec. Koja, Jkt Utara, Daerah Khusus Ibukota Jakarta 14220";"RT.9/RW.12, Koja, Kec. Koja, Jkt Utara";"DAERAH KHUSUS IBUKOTA JAKARTA";"14220";"Indonesia";"";"";"";"-6.113563";"106.9008615";"https://maps.google.com/?cid=0x0:0x6b1ea620292c3d7f";""
"komplek housing";"Komplek perumahan";"Teh haji onong";"VVRV+2VR, Jl. Lorong W Timur, Koja, Kec. Koja, Jkt Utara, Daerah Khusus Ibukota Jakarta 14220";"Jl. Lorong W Timur, Koja, Kec. Koja, Jkt Utara";"DAERAH KHUSUS IBUKOTA JAKARTA";"14220";"Indonesia";"";"";"";"-6.1098838";"106.8946391";"https://maps.google.com/?cid=0x0:0x866c73afa29b249f";""
"komplek housing";"Komplek perumahan";"Villa Permata Gading";"Jl. Permata Intan No.46, RT.04/RW.06, Tugu Sel., Kec. Koja, Jkt Utara, Daerah Khusus Ibukota Jakarta 14260";"RT.04/RW.06, Tugu Sel., Kec. Koja, Jkt Utara";"DAERAH KHUSUS IBUKOTA JAKARTA";"14260";"Indonesia";"";"";"";"-6.1398504";"106.9119206";"https://maps.google.com/?cid=0x0:0x2e9db5a4dce8309e";""
"komplek housing";"Komplek perumahan";"house hj. sudarti dan keluarga nurhasan";"VWP3+CR4, Jl. Mindi Gg. IV, RT.5/RW.6, Lagoa, Kec. Koja, Jkt Utara, Daerah Khusus Ibukota Jakarta 14270";"Jl. Mindi Gg. IV, RT.5/RW.6, Lagoa, Kec. Koja, Jkt Utara";"DAERAH KHUSUS IBUKOTA JAKARTA";"14270";"Indonesia";"";"";"";"-6.1139839";"106.9045821";"https://maps.google.com/?cid=0x0:0x3766928fe708fc76";""
"komplek housing";"Komplek perumahan";"RAP'K HOUSE";"Jl. Lorong Z. Timur No.7, RT.4/RW.12, Koja, Kec. Koja, Jkt Utara, Daerah Khusus Ibukota Jakarta 14220";"RT.4/RW.12, Koja, Kec. Koja, Jkt Utara";"DAERAH KHUSUS IBUKOTA JAKARTA";"14220";"Indonesia";"";"";"";"-6.1111066";"106.8937386";"https://maps.google.com/?cid=0x0:0x5aa8915aba117e2c";""
"komplek housing";"Komplek perumahan";"Keluarga besar alm Salim wira";"Jl. Mindi Raya Gg. 2 No.18, RT.3/RW.6, Lagoa, Kec. Koja, Jkt Utara, Daerah Khusus Ibukota Jakarta 14270";"RT.3/RW.6, Lagoa, Kec. Koja, Jkt Utara";"DAERAH KHUSUS IBUKOTA JAKARTA";"14270";"Indonesia";"";"";"";"-6.11429";"106.905669";"https://maps.google.com/?cid=0x0:0x4d4c2d4943425fa5";""
"komplek housing";"Komplek perumahan";"bocil spaceman";"VWQ3+248, RT.4/RW.5, Lagoa, Kec. Koja, Jkt Utara, Daerah Khusus Ibukota Jakarta";"Jkt Utara, Daerah Khusus Ibukota Jakarta";"DAERAH KHUSUS IBUKOTA JAKARTA";"";"Indonesia";"";"";"";"-6.1124614";"106.9028285";"https://maps.google.com/?cid=0x0:0x9a7bcbd578eb987c";""
"komplek housing";"Komplek perumahan";"KOS Pak Makmuri";"Jl. Lorong 28 No.25C 10, RT.9/RW.8, Koja, Kec. Koja, Jkt Utara, Daerah Khusus Ibukota Jakarta 14220";"RT.9/RW.8, Koja, Kec. Koja, Jkt Utara";"DAERAH KHUSUS IBUKOTA JAKARTA";"14220";"Indonesia";"";"";"";"-6.111265";"106.8976338";"https://maps.google.com/?cid=0x0:0x7b28c69bc360b6ca";""
"komplek housing";"Komplek perumahan";"Rumah Dd Dhafin";"Jl. Lorong 100 timur No.68, RT.3/RW.2, Koja, Kec. Koja, Jkt Utara, Daerah Khusus Ibukota Jakarta 14220";"RT.3/RW.2, Koja, Kec. Koja, Jkt Utara";"DAERAH KHUSUS IBUKOTA JAKARTA";"14220";"Indonesia";"";"";"";"-6.1123304";"106.8944111";"https://maps.google.com/?cid=0x0:0xe6af76ffee58e121";""
"komplek housing";"Komplek perumahan";"Rumah";"Jl. Dukuh No.14, RT.6/RW.8, Tanah merah atas Rawa badak selatan, Kec. Koja, Jkt Utara, Daerah Khusus Ibukota Jakarta 14270";"RT.6/RW.8, Tanah merah atas Rawa badak selatan, Kec. Koja, Jkt Utara";"DAERAH KHUSUS IBUKOTA JAKARTA";"14270";"Indonesia";"";"";"";"-6.1119426";"106.9083751";"https://maps.google.com/?cid=0x0:0x2437298e446b829c";""
"komplek housing";"komplek housing";"Taman Rusa Residence A5";"Taman Rusa Residence No.A5, Pondok Ranji, Ciputat Timur, South Tangerang City, Banten 15412";"Pondok Ranji, Ciputat Timur, South Tangerang City";"DAERAH KHUSUS IBUKOTA JAKARTA";"15412";"Indonesia";"";"";"";"-6.2871452";"106.7363821";"https://maps.google.com/?cid=0x0:0x5cf8c625e13e2eb7";""
"komplek housing";"Perhimpunan Pengembang Perumahan";"Rumah Gen Ansar";"Gg. F 2 No.14, RT.7/RW.3, Rawabadak Utara, Kec. Koja, Jkt Utara, Daerah Khusus Ibukota Jakarta 14230";"RT.7/RW.3, Rawabadak Utara, Kec. Koja, Jkt Utara";"DAERAH KHUSUS IBUKOTA JAKARTA";"14230";"Indonesia";"";"";"";"-6.1197552";"106.897319";"https://maps.google.com/?cid=0x0:0x6de7cbd87b4db599";""
"komplek housing";"komplek housing";"Rumah pak koma";"PP6Q+Q94, Jl. Menjangan IIIB, Pd. Ranji, Kec. Ciputat Tim., Kota Tangerang Selatan, Banten 15412";"Jl. Menjangan IIIB, Pd. Ranji, Kec. Ciputat Tim., Kota Tangerang Selatan";"DAERAH KHUSUS IBUKOTA JAKARTA";"15412";"Indonesia";"";"";"";"-6.2881125";"106.738455";"https://maps.google.com/?cid=0x0:0xe860e1d4d1088b34";""
"komplek housing";"komplek housing";"Daerah Khusus Ibukota Jakarta 14210";"RT.4/RW.3, Koja, Kec. Koja, Jkt Utara, Daerah Khusus Ibukota Jakarta";"Jkt Utara, Daerah Khusus Ibukota Jakarta";"DAERAH KHUSUS IBUKOTA JAKARTA";"";"Indonesia";"";"";"";"-6.1103324";"106.8992945";"https://maps.google.com/?cid=0x0:0x6613c6a90b7a5532";""
"komplek housing";"Komplek perumahan";"SYARIF 23";"Jl. B Lagoa Terusan Gg. 3 Blk. D No.C1 No.24, RT.06/RW.02, Lagoa, Kec. Koja, Jkt Utara, Daerah Khusus Ibukota Jakarta";"Jkt Utara, Daerah Khusus Ibukota Jakarta";"DAERAH KHUSUS IBUKOTA JAKARTA";"";"Indonesia";"";"";"";"-6.1103005";"106.9099644";"https://maps.google.com/?cid=0x0:0x17a0b525ba58130c";""
"komplek housing";"Komplek perumahan";"Rumah pak deni";"VVRW+4MQ, Jl. Lorong 19, RW.6, Koja, Kec. Koja, Jkt Utara, Daerah Khusus Ibukota Jakarta 14220";"Jl. Lorong 19, RW.6, Koja, Kec. Koja, Jkt Utara";"DAERAH KHUSUS IBUKOTA JAKARTA";"14220";"Indonesia";"";"";"";"-6.1096525";"106.8967263";"https://maps.google.com/?cid=0x0:0x1f43a91c05405078";""
"komplek housing";"komplek housing";"Markas 4A";"RW 13 87, RT.4";"Jkt Utara, Daerah Khusus Ibukota Jakarta";"DAERAH KHUSUS IBUKOTA JAKARTA";"";"Indonesia";"";"";"";"-6.1166244";"106.9089311";"https://maps.google.com/?cid=0x0:0x3135f34699fbcbf0";""
"komplek housing";"Komplek perumahan";"House";"Jl. Mawar Luar No.29, RT.15/RW.11, Lagoa, Kec. Koja, Jkt Utara, Daerah Khusus Ibukota Jakarta 14270";"RT.15/RW.11, Lagoa, Kec. Koja, Jkt Utara";"DAERAH KHUSUS IBUKOTA JAKARTA";"14270";"Indonesia";"";"";"";"-6.1188298";"106.9050267";"https://maps.google.com/?cid=0x0:0x9dd01889cbe59700";""
"komplek housing";"Komplek perumahan";"मनोहर s/o किशनाराम जांगू";"VWM5+J7V, Lagoa, Kec. Koja, Jkt Utara, Daerah Khusus Ibukota Jakarta";"Jkt Utara, Daerah Khusus Ibukota Jakarta";"DAERAH KHUSUS IBUKOTA JAKARTA";"";"Indonesia";"";"";"";"-6.1158872";"106.9081839";"https://maps.google.com/?cid=0x0:0xcd83d2442ec429bf";""
"komplek housing";"komplek housing";"Erwin house";"Jl. Mantang Gg. 3 No.9 Blok M, RT.7/RW.8, Lagoa, Kec. Koja, Jkt Utara, Daerah Khusus Ibukota Jakarta 14270";"RT.7/RW.8, Lagoa, Kec. Koja, Jkt Utara";"DAERAH KHUSUS IBUKOTA JAKARTA";"14270";"Indonesia";"";"";"";"-6.113498";"106.9080758";"https://maps.google.com/?cid=0x0:0x73e119e5971d5c2c";""
"komplek housing";"Komplek perumahan";"Perumahan graha laksita";"Jl. Semangka No.5D, RT./rw/RW.12/03, Lagoa, Kec. Koja, Jkt Utara, Daerah Khusus Ibukota Jakarta 14270";"RT./rw/RW.12/03, Lagoa, Kec. Koja, Jkt Utara";"DAERAH KHUSUS IBUKOTA JAKARTA";"14270";"Indonesia";"";"";"";"-6.115744";"106.9111881";"https://maps.google.com/?cid=0x0:0x761e698ae22a17a5";""
"komplek housing";"Komplek perumahan";"Home";"VWP6+Q44, Jl. Manggar, RT.2/RW.3, Lagoa, Kec. Koja, Jkt Utara, Daerah Khusus Ibukota Jakarta";"Jkt Utara, Daerah Khusus Ibukota Jakarta";"DAERAH KHUSUS IBUKOTA JAKARTA";"";"Indonesia";"";"";"";"-6.1131056";"106.9103222";"https://maps.google.com/?cid=0x0:0xd7f1ce7e23857992";""
"komplek housing";"Perhimpunan Pengembang Perumahan";"Semper Jakarta Utara";"Jl. Mahoni Gg. II, Lagoa, Kec. Koja, Jkt Utara, Daerah Khusus Ibukota Jakarta 14270";"Lagoa, Kec. Koja, Jkt Utara";"DAERAH KHUSUS IBUKOTA JAKARTA";"14270";"Indonesia";"";"";"";"-6.1168149";"106.9120912";"https://maps.google.com/?cid=0x0:0xedfaa18859740a18";""
"komplek housing";"Komplek perumahan";"KOMPLEK PELINDO II";"VWF2+FRX, Jl. Bandar II, RT.6/RW.6, Rawabadak Sel., Kec. Koja, Jkt Utara, Daerah Khusus Ibukota Jakarta 14230";"Jl. Bandar II, RT.6/RW.6, Rawabadak Sel., Kec. Koja, Jkt Utara";"DAERAH KHUSUS IBUKOTA JAKARTA";"14230";"Indonesia";"";"";"";"-6.1262623";"106.9021176";"https://maps.google.com/?cid=0x0:0xad6c9762a2ef034c";""
"komplek housing";"Komplek perumahan";"3N+M House";"Gg. H. Arsyad No.9, RT.5/RW.1, Rawa BadakSel, Kec. Koja, Jkt Utara, Daerah Khusus Ibukota Jakarta 14230";"RT.5/RW.1, Rawa BadakSel, Kec. Koja, Jkt Utara";"DAERAH KHUSUS IBUKOTA JAKARTA";"14230";"Indonesia";"";"";"";"-6.1348466";"106.9025105";"https://maps.google.com/?cid=0x0:0x2ccf5a1771bf77eb";""
"komplek housing";"Komplek perumahan";"D'Jala";"Jl. Jala-Jala No.22, RT.2/RW.1, Rawabadak Utara, Kec. Koja, Jkt Utara, Daerah Khusus Ibukota Jakarta 14230";"RT.2/RW.1, Rawabadak Utara, Kec. Koja, Jkt Utara";"DAERAH KHUSUS IBUKOTA JAKARTA";"14230";"Indonesia";"";"";"";"-6.1226867";"106.9002793";"https://maps.google.com/?cid=0x0:0x3947471e940e38f2";""
"komplek housing";"Pembangunan Perumahan";"Fayyadh Calief Home";"Jl. E1 No.36, RT.3/RW.9, Rawabadak Utara, Kec. Koja, Jkt Utara, Daerah Khusus Ibukota Jakarta 14230";"RT.3/RW.9, Rawabadak Utara, Kec. Koja, Jkt Utara";"DAERAH KHUSUS IBUKOTA JAKARTA";"14230";"Indonesia";"";"";"";"-6.1192455";"106.8997098";"https://maps.google.com/?cid=0x0:0xf41565c58f5c8b3b";""
"komplek housing";"Komplek perumahan";"Rahma house";"Jl. Cibanteng No.37, RT.1/RW.11, Koja, Kec. Koja, Jkt Utara, Daerah Khusus Ibukota Jakarta 14230";"RT.1/RW.11, Koja, Kec. Koja, Jkt Utara";"DAERAH KHUSUS IBUKOTA JAKARTA";"14230";"Indonesia";"";"";"";"-6.1142707";"106.8974347";"https://maps.google.com/?cid=0x0:0xcc097e61bbe548f2";""
"komplek housing";"komplek housing";"Ardian S Perkasa";"Jl. K II No.31, RT.2/RW.5, Rawabadak Sel., Kec. Koja, Jkt Utara, Daerah Khusus Ibukota Jakarta 14230";"RT.2/RW.5, Rawabadak Sel., Kec. Koja, Jkt Utara";"DAERAH KHUSUS IBUKOTA JAKARTA";"14230";"Indonesia";" 081388876801";"";"";"-6.1273245";"106.8983966";"https://maps.google.com/?cid=0x0:0x12072a3908022f0d";""
"komplek housing";"Komplek perumahan";"Janur hijau raya";"Jl. Janur Hijau Raya No.13, RT.5/RW.10, Rawabadak Utara, Kec. Koja, Jkt Utara, Daerah Khusus Ibukota Jakarta 14230";"RT.5/RW.10, Rawabadak Utara, Kec. Koja, Jkt Utara";"DAERAH KHUSUS IBUKOTA JAKARTA";"14230";"Indonesia";"";"";"";"-6.1218449";"106.8981818";"https://maps.google.com/?cid=0x0:0x8b31d7a3f786cef";""
"komplek housing";"Komplek perumahan";"My Home";"Jl. Pembangunan I No.3, RT.7/RW.3, Rawabadak Utara, Kec. Koja, Jkt Utara, Daerah Khusus Ibukota Jakarta 14230";"RT.7/RW.3, Rawabadak Utara, Kec. Koja, Jkt Utara";"DAERAH KHUSUS IBUKOTA JAKARTA";"14230";"Indonesia";"";"";"";"-6.1218817";"106.8971241";"https://maps.google.com/?cid=0x0:0x13ffebb4dbf85f34";""
"komplek housing";"Komplek perumahan";"Palace GOAX";"Jl. Alkurama No.20 9, RT.8/RW.2, Rawabadak Sel., Kec. Koja, Jkt Utara, Daerah Khusus Ibukota Jakarta 14230";"RT.8/RW.2, Rawabadak Sel., Kec. Koja, Jkt Utara";"DAERAH KHUSUS IBUKOTA JAKARTA";"14230";"Indonesia";"";"";"";"-6.127978";"106.9015847";"https://maps.google.com/?cid=0x0:0x5afc58f227fafa69";""
"komplek housing";"Komplek perumahan";"Achmad";"Janur Hijau 2 Jl. Pelita 1B No.1 2, RT.3/RW.3, Rawabadak Utara, Kec. Koja, Jkt Utara, Daerah Khusus Ibukota Jakarta 14230";"RT.3/RW.3, Rawabadak Utara, Kec. Koja, Jkt Utara";"DAERAH KHUSUS IBUKOTA JAKARTA";"14230";"Indonesia";"";"";"";"-6.1203466";"106.8982273";"https://maps.google.com/?cid=0x0:0x487581a0dcbf343d";""
"komplek housing";"komplek housing";"My Home Roy";"Jl. Koramil No.2, RT.4/RW.2, Rawabadak Sel., Kec. Koja, Jkt Utara, Daerah Khusus Ibukota Jakarta 14230";"RT.4/RW.2, Rawabadak Sel., Kec. Koja, Jkt Utara";"DAERAH KHUSUS IBUKOTA JAKARTA";"14230";"Indonesia";"";"";"";"-6.1314179";"106.8985344";"https://maps.google.com/?cid=0x0:0x507b19f4ac2fee8d";""
"komplek housing";"Komplek perumahan";"Kontrak bulanan";"Jl. Cempaka IV, Tanah Merah Bawah No.27, RT.3/RW.10, Rawabadak Sel., Kec. Koja, Jkt Utara, Daerah Khusus Ibukota Jakarta 14230";"Tanah Merah Bawah No.27, RT.3/RW.10, Rawabadak Sel., Kec. Koja, Jkt Utara";"DAERAH KHUSUS IBUKOTA JAKARTA";"14230";"Indonesia";"";"";"";"-6.1220792";"106.8978652";"https://maps.google.com/?cid=0x0:0xdd8a0431fe7183f7";""
"komplek housing";"komplek housing";"RUMAH PAK KARNA";"Jl. Tamrin Plumpang B No.69, RT.2/RW.11, Rawabadak Sel., Kec. Koja, Jkt Utara, Daerah Khusus Ibukota Jakarta 14230";"RT.2/RW.11, Rawabadak Sel., Kec. Koja, Jkt Utara";"DAERAH KHUSUS IBUKOTA JAKARTA";"14230";"Indonesia";"";"";"";"-6.1322722";"106.8952718";"https://maps.google.com/?cid=0x0:0xae2ee6dd0a82611d";""
"komplek housing";"Komplek perumahan";"ARSA MyHome";"Jl. B Raya Gg. B2 No.37, RT.4/RW.9, Rawabadak Utara, Kec. Koja, Jkt Utara, Daerah Khusus Ibukota Jakarta 14230";"RT.4/RW.9, Rawabadak Utara, Kec. Koja, Jkt Utara";"DAERAH KHUSUS IBUKOTA JAKARTA";"14230";"Indonesia";"";"";"";"-6.1183277";"106.9001179";"https://maps.google.com/?cid=0x0:0xd54e7983ed97e99c";""
"komplek housing";"Komplek perumahan";"Rumah Pak Haji Kosasih";"Jl. Dampra No.13, RT.2/RW.7, Rawabadak Sel., Kec. Koja, Jkt Utara, Daerah Khusus Ibukota Jakarta 14230";"RT.2/RW.7, Rawabadak Sel., Kec. Koja, Jkt Utara";"DAERAH KHUSUS IBUKOTA JAKARTA";"14230";"Indonesia";"";"";"";"-6.1243289";"106.9002909";"https://maps.google.com/?cid=0x0:0x896f90560dbe0453";""
"komplek housing";"Komplek perumahan";"Yuanis Family";"10, Gg. H. Sabki No.95A, RT.10/RW.3, Rawabadak Sel., Kec. Koja, Jkt Utara, Daerah Khusus Ibukota Jakarta 14230";"Gg. H. Sabki No.95A, RT.10/RW.3, Rawabadak Sel., Kec. Koja, Jkt Utara";"DAERAH KHUSUS IBUKOTA JAKARTA";"14230";"Indonesia";" 085778252052";"";"";"-6.1265552";"106.9024332";"https://maps.google.com/?cid=0x0:0x95fb6eb434f71eb6";""
"komplek housing";"Asosiasi/organisasi";"Mess Arih Ersada";"no 02, RT.10/RW.3, Rawabadak Sel., Kec. Koja, Jkt Utara, Daerah Khusus Ibukota Jakarta 14230";"RT.10/RW.3, Rawabadak Sel., Kec. Koja, Jkt Utara";"DAERAH KHUSUS IBUKOTA JAKARTA";"14230";"Indonesia";"";"";"";"-6.1274847";"106.9022473";"https://maps.google.com/?cid=0x0:0x28078ca6244e7115";""
"komplek housing";"Apotek";"Jamu Ayu Pak Bambang";"Jl. Rawabinangun III No.13, RT.6/RW.8, Rawabadak Utara, Kec. Koja, Jkt Utara, Daerah Khusus Ibukota Jakarta 14230";"RT.6/RW.8, Rawabadak Utara, Kec. Koja, Jkt Utara";"DAERAH KHUSUS IBUKOTA JAKARTA";"14230";"Indonesia";"";"";"";"-6.1167626";"106.8984475";"https://maps.google.com/?cid=0x0:0xb738b9fadd086575";""
"komplek housing";"komplek housing";"Matasilia Home";"Jl. Matahari No.1, RT.1/RW.13, Rawabadak Utara, Kec. Koja, Jkt Utara, Daerah Khusus Ibukota Jakarta 14230";"RT.1/RW.13, Rawabadak Utara, Kec. Koja, Jkt Utara";"DAERAH KHUSUS IBUKOTA JAKARTA";"14230";"Indonesia";"";"";"";"-6.1211619";"106.8952369";"https://maps.google.com/?cid=0x0:0x66ebcd2b0b9dfe0d";""
"komplek housing";"komplek housing";"Daerah Khusus Ibukota Jakarta 14230";"Rawabadak Sel., Kec. Koja, Jkt Utara, Daerah Khusus Ibukota Jakarta";"Jkt Utara, Daerah Khusus Ibukota Jakarta";"DAERAH KHUSUS IBUKOTA JAKARTA";"";"Indonesia";"";"";"";"-6.1255965";"106.8974964";"https://maps.google.com/?cid=0x0:0x1c00c5eb4d034420";""
"komplek housing";"Komplek perumahan";"Rumah";"Jl. Pandawa No.30, km12, Kec. Koja, Jkt Utara, Daerah Khusus Ibukota Jakarta 14230";"km12, Kec. Koja, Jkt Utara";"DAERAH KHUSUS IBUKOTA JAKARTA";"14230";"Indonesia";"";"";"";"-6.1380053";"106.9014803";"https://maps.google.com/?cid=0x0:0x49e77b97aa57b613";""
"komplek housing";"Komplek perumahan";"Home Skip Home";"Jl. Alur Laut I No.1, RW.3, Rawabadak Sel., Kec. Koja, Jkt Utara, Daerah Khusus Ibukota Jakarta 14230";"RW.3, Rawabadak Sel., Kec. Koja, Jkt Utara";"DAERAH KHUSUS IBUKOTA JAKARTA";"14230";"Indonesia";"";"";"";"-6.1291467";"106.8994957";"https://maps.google.com/?cid=0x0:0x6f3034b392cfba58";""
"komplek housing";"Komplek perumahan";"Komplek";"VVHV+CQ6, Jl. Berdikari, Rawabadak Utara, Kec. Koja, Jkt Utara, Daerah Khusus Ibukota Jakarta 14230";"Jl. Berdikari, Rawabadak Utara, Kec. Koja, Jkt Utara";"DAERAH KHUSUS IBUKOTA JAKARTA";"14230";"Indonesia";"";"";"";"-6.1214602";"106.8943961";"https://maps.google.com/?cid=0x0:0xb740640d6a3fbb26";""
"komplek housing";"Komplek perumahan";"Rumah saka";"Jl. 10 November No.1 no 13, RT.11/RW.1, Rawabadak Sel., Kec. Koja, Jkt Utara, Daerah Khusus Ibukota Jakarta 14230";"RT.11/RW.1, Rawabadak Sel., Kec. Koja, Jkt Utara";"DAERAH KHUSUS IBUKOTA JAKARTA";"14230";"Indonesia";"";"";"";"-6.1332428";"106.9032778";"https://maps.google.com/?cid=0x0:0xc82d5b96a19070db";""
"komplek housing";"Klinik Gigi";"Ahli gigi terdekat";"Gg. Sekolah No.10 10, RT.10/RW.2, Rawabadak Sel., Kec. Koja, Jkt Utara, Daerah Khusus Ibukota Jakarta 14230";"RT.10/RW.2, Rawabadak Sel., Kec. Koja, Jkt Utara";"DAERAH KHUSUS IBUKOTA JAKARTA";"14230";"Indonesia";" 082213569790";"";"";"-6.130352";"106.9025713";"https://maps.google.com/?cid=0x0:0x7b22e34f68e868cd";""
"komplek housing";"komplek housing";"Andi Solihin";"Jl. Alur Laut Blok HH No.56, RT.1/RW.10, Rawabadak Utara, Kec. Koja, Jkt Utara, Daerah Khusus Ibukota Jakarta 14230";"RT.1/RW.10, Rawabadak Utara, Kec. Koja, Jkt Utara";"DAERAH KHUSUS IBUKOTA JAKARTA";"14230";"Indonesia";"";"";"";"-6.1216432";"106.8991354";"https://maps.google.com/?cid=0x0:0x5509c8c877457cfb";""
"komplek housing";"Komplek perumahan";"Home";"Jl. Melur III blok C no, RT.4RT.5/RW.13, North Rawabadak, Koja, North Jakarta City, Jakarta 14230";"RT.4RT.5/RW.13, North Rawabadak, Koja, North Jakarta City";"DAERAH KHUSUS IBUKOTA JAKARTA";"14230";"Indonesia";"";"";"";"-6.1179868";"106.8957131";"https://maps.google.com/?cid=0x0:0xa5df1f2a72e6ea36";""
"komplek housing";"Pembangunan Perumahan";"Home Al Varro";"Jl. Tamrin Plumpang B No.32, RT.15/RW.4, Rawabadak Sel., Kec. Koja, Jkt Utara, Daerah Khusus Ibukota Jakarta 14230";"RT.15/RW.4, Rawabadak Sel., Kec. Koja, Jkt Utara";"DAERAH KHUSUS IBUKOTA JAKARTA";"14230";"Indonesia";" 081250404433";"";"";"-6.1292813";"106.8965099";"https://maps.google.com/?cid=0x0:0x4b38f71184192239";""
"komplek housing";"komplek housing";"Dian's Home";"Jl. Tamrin Plumpang B No.45, RT.13/RW.4, Rawabadak Sel., Kec. Koja, Jkt Utara, Daerah Khusus Ibukota Jakarta 14230";"RT.13/RW.4, Rawabadak Sel., Kec. Koja, Jkt Utara";"DAERAH KHUSUS IBUKOTA JAKARTA";"14230";"Indonesia";"";"";"";"-6.1278117";"106.8954613";"https://maps.google.com/?cid=0x0:0x2b7384f55edd59ac";""
"komplek housing";"Komplek perumahan";"Housing";"Jl. Balai Rakyat 8 No.3, RT.3/RW.3, Tugu Sel., Kec. Koja, Jkt Utara, Daerah Khusus Ibukota Jakarta 14260";"RT.3/RW.3, Tugu Sel., Kec. Koja, Jkt Utara";"DAERAH KHUSUS IBUKOTA JAKARTA";"14260";"Indonesia";"";"";"";"-6.1328873";"106.9120701";"https://maps.google.com/?cid=0x0:0x35e61be778ef9d6";""
"komplek housing";"komplek housing";"Rumah";"Jl. Balai Rakyat Dalam No.56, RT.5/RW.3, Tugu Sel., Kec. Koja, Jkt Utara, Daerah Khusus Ibukota Jakarta 14260";"RT.5/RW.3, Tugu Sel., Kec. Koja, Jkt Utara";"DAERAH KHUSUS IBUKOTA JAKARTA";"14260";"Indonesia";"";"";"";"-6.1326433";"106.9133804";"https://maps.google.com/?cid=0x0:0x5f79ec0135285a1";""
"komplek housing";"Komplek perumahan";"House";"Jl. Permata V No.3, Tugu Utara, Kec. Koja, Jkt Utara, Daerah Khusus Ibukota Jakarta 14260";"Tugu Utara, Kec. Koja, Jkt Utara";"DAERAH KHUSUS IBUKOTA JAKARTA";"14260";"Indonesia";"";"";"";"-6.1278712";"106.9143752";"https://maps.google.com/?cid=0x0:0xd960be78fd679c98";""
"komplek housing";"komplek housing";"Zlatan’s Home";"Jl. Komp. Uka No.11, RT.8/RW.8, Kp. Tugu, Tugu Utara, Kec. Koja, Jkt Utara, Daerah Khusus Ibukota Jakarta 14260";"RT.8/RW.8, Kp. Tugu, Tugu Utara, Kec. Koja, Jkt Utara";"DAERAH KHUSUS IBUKOTA JAKARTA";"14260";"Indonesia";"";"";"";"-6.124562";"106.9145405";"https://maps.google.com/?cid=0x0:0xfa8542fde84bf6c7";""
"komplek housing";"Komplek perumahan";"मनोहर s/o किशनाराम जांगू";"VWM5+J7V, Lagoa, Kec. Koja, Jkt Utara, Daerah Khusus Ibukota Jakarta";"Jkt Utara, Daerah Khusus Ibukota Jakarta";"DAERAH KHUSUS IBUKOTA JAKARTA";"";"Indonesia";"";"";"";"-6.1158872";"106.9081839";"https://maps.google.com/?cid=0x0:0xcd83d2442ec429bf";""
