Category,Real Category,Business Name,Address,City,State,Postal Code,Country,Phone,Email,Website,Latitude,Longitude,Map Link,Details Link
hotel,hotel,Kec. Ampibabo,"Kabupaten Parigi Moutong, Sulawesi Tengah","Kabupaten Parigi Moutong, Sulawesi Tengah",SULAWESI TENGAH,,Indonesia,,,,-0.4581692,120.0653145,https://maps.google.com/?cid=0x0:0x960283f1cc426234,
hotel,hotel,Cameloan Hotel,"Jalan Tanjung Tururuka No. 43 Lolu Selatan, Tatura Utara, Kec. Palu Sel., Kota Palu, Sulawesi Tengah 94111","Tatura Utara, Kec. Palu Sel., Kota Palu",SULAWESI TENGAH,94111.0,Indonesia,895417300072.0,,,-0.9072941,119.8842516,https://maps.google.com/?cid=0x0:0x99e6316eb17d703b,
hotel,hotel,,,,SULAWESI TENGAH,,Indonesia,,,,,,https://maps.google.com/?cid=0x0:0x99e6316eb17d703b%7C/g/11bxc7261n%7Cen-ID,
hotel,hotel,HOTEL FAAWAZ,"Baka, Tinangkung, Kabupaten Banggai Kepulauan, Sulawesi Tengah 94885","Tinangkung, Kabupaten Banggai Kepulauan",SULAWESI TENGAH,94885.0,Indonesia,82290539907.0,,,-1.3147929,123.2913921,https://maps.google.com/?cid=0x0:0xac756b05058fb9ba,
hotel,hotel,Hotel Victory Ampana,"4HGH+MW8, Jl. Sungai Ampana No.11, Uentanaga Atas, Kec. Ampana Kota, Kabupaten Tojo Una-Una, Sulawesi Tengah 94683","Jl. Sungai Ampana No.11, Uentanaga Atas, Kec. Ampana Kota, Kabupaten Tojo Una-Una",SULAWESI TENGAH,94683.0,Indonesia,46421236.0,,,-0.8732832,121.5820535,https://maps.google.com/?cid=0x0:0x260eedc6013ab578,
hotel,hotel,ASMORA HOTEL,"Moutong Tengah, Kec. Moutong, Kabupaten Parigi Moutong, Sulawesi Tengah 94479","Kec. Moutong, Kabupaten Parigi Moutong",SULAWESI TENGAH,94479.0,Indonesia,82348260424.0,,,0.4649994,121.2306823,https://maps.google.com/?cid=0x0:0x652a10a595e4fb4,
hotel,hotel,Kec. Balinggi,"Kabupaten Parigi Moutong, Sulawesi Tengah","Kabupaten Parigi Moutong, Sulawesi Tengah",SULAWESI TENGAH,,Indonesia,,,,-1.0022906,120.364708,https://maps.google.com/?cid=0x0:0x5b3c4d9bcafcce39,
hotel,hotel,Cameloan Hotel,"Jalan Tanjung Tururuka No. 43 Lolu Selatan, Tatura Utara, Kec. Palu Sel., Kota Palu, Sulawesi Tengah 94111","Tatura Utara, Kec. Palu Sel., Kota Palu",SULAWESI TENGAH,94111.0,Indonesia,895417300072.0,,,-0.9072941,119.8842516,https://maps.google.com/?cid=0x0:0x99e6316eb17d703b,
hotel,hotel,,,,SULAWESI TENGAH,,Indonesia,,,,,,https://maps.google.com/?cid=0x0:0x99e6316eb17d703b%7C/g/11bxc7261n%7Cen-ID,
hotel,hotel,,,,SULAWESI TENGAH,,Indonesia,,,,,,https://maps.google.com/?cid=0x0:0x674157881dbaefe4%7C/g/11r9j2h0w%7Cen-ID,
hotel,hotel,Hotel Oktaria Parigi Moutong,"Masigi, Kec. Parigi, Kabupaten Parigi Moutong, Sulawesi Tengah 94471","Kec. Parigi, Kabupaten Parigi Moutong",SULAWESI TENGAH,94471.0,Indonesia,81354321282.0,,,-0.8136588,120.1666225,https://maps.google.com/?cid=0x0:0x6a8a2e7918e60294,
hotel,hotel,Hotel Brizky,"Jl. RE Martadinata No.03, Tondo, Kec. Mantikulore, Kota Palu, Sulawesi Tengah 94111","Tondo, Kec. Mantikulore, Kota Palu",SULAWESI TENGAH,94111.0,Indonesia,4514012739.0,,,-0.8533987,119.8822596,https://maps.google.com/?cid=0x0:0x6a7e51b26d5e694d,
hotel,hotel,Guest House Asni,"Jalan MH. Thamrin Kelurahan No.68, Besusu Tim., Kec. Palu Tim., Kota Palu, Sulawesi Tengah 94118","Besusu Tim., Kec. Palu Tim., Kota Palu",SULAWESI TENGAH,94118.0,Indonesia,82293333716.0,,,-0.896302,119.8856077,https://maps.google.com/?cid=0x0:0xd1874ca38b9eb168,
hotel,hotel,Grand Mitra Hotel Masigi,"Jl. Finono No.Desa, Masigi, Kec. Parigi, Kabupaten Parigi Moutong, Sulawesi Tengah 94471","Masigi, Kec. Parigi, Kabupaten Parigi Moutong",SULAWESI TENGAH,94471.0,Indonesia,82197411785.0,,,-0.8147303,120.1686227,https://maps.google.com/?cid=0x0:0x25f2d8e26d6eeadd,
hotel,hotel,ASMORA HOTEL,"Moutong Tengah, Kec. Moutong, Kabupaten Parigi Moutong, Sulawesi Tengah 94479","Kec. Moutong, Kabupaten Parigi Moutong",SULAWESI TENGAH,94479.0,Indonesia,82348260424.0,,,0.4649994,121.2306823,https://maps.google.com/?cid=0x0:0x652a10a595e4fb4,
hotel,hotel,Pelangi Hotel Palu RedPartner,"Jl. Letjen Suprapto No. 18, Besusu, Palu Timur, Talise, Kec. Ulujadi, Kota Palu, Sulawesi Tengah 94111","Besusu, Palu Timur, Talise, Kec. Ulujadi, Kota Palu",SULAWESI TENGAH,94111.0,Indonesia,451426596.0,,,-0.8834294,119.8758326,https://maps.google.com/?cid=0x0:0x4d2e4e942753d530,
hotel,hotel,,,,SULAWESI TENGAH,,Indonesia,,,,,,https://maps.google.com/?cid=0x0:0x4d2e4e942753d530%7C/g/1vfvcywb%7Cen-ID,
hotel,hotel,Balinggi,"Kec. Balinggi, Kabupaten Parigi Moutong, Sulawesi Tengah","Kabupaten Parigi Moutong, Sulawesi Tengah",SULAWESI TENGAH,,Indonesia,,,,-1.0708969,120.3550808,https://maps.google.com/?cid=0x0:0xe9ac0bade573ee0d,
hotel,hotel,Bolano,"Kec. Parigi, Kabupaten Parigi Moutong, Sulawesi Tengah","Kabupaten Parigi Moutong, Sulawesi Tengah",SULAWESI TENGAH,,Indonesia,,,,0.4428024,120.9532123,https://maps.google.com/?cid=0x0:0xccb982fbd81b9cf4,
hotel,Hotel,Penginapan Mokosua,"CXR3+M26, Jl. Trans-Sulawesi, Bolano, Kec. Parigi, Kabupaten Parigi Moutong, Sulawesi Tengah 94479","Jl. Trans-Sulawesi, Bolano, Kec. Parigi, Kabupaten Parigi Moutong",SULAWESI TENGAH,94479.0,Indonesia,81354652246.0,,,0.4416566,120.9525187,https://maps.google.com/?cid=0x0:0x5a6c6494e8929d5b,
hotel,Pondok,PENGINAPAN SAHABAT RAYHAN,"GX68+6G9, Margapura, Kec. Bolano Lambunu, Kabupaten Parigi Moutong, Sulawesi Tengah 94479","Margapura, Kec. Bolano Lambunu, Kabupaten Parigi Moutong",SULAWESI TENGAH,94479.0,Indonesia,,,,0.5105413,120.9663612,https://maps.google.com/?cid=0x0:0x87ba08296837496d,
hotel,Hotel,hotel Kaltim,"Margapura, Kec. Bolano Lambunu, Kabupaten Parigi Moutong, Sulawesi Tengah 94479","Kec. Bolano Lambunu, Kabupaten Parigi Moutong",SULAWESI TENGAH,94479.0,Indonesia,85288332065.0,,,0.5182949,120.9681696,https://maps.google.com/?cid=0x0:0x2ce76e80484b3900,
hotel,Rumah wisata,Hotel,"GXG5+M59, Kotanagaya, Kec. Bolano Lambunu, Kabupaten Parigi Moutong, Sulawesi Tengah","Kabupaten Parigi Moutong, Sulawesi Tengah",SULAWESI TENGAH,,Indonesia,,,,0.5266644,120.957975,https://maps.google.com/?cid=0x0:0xf6ed5ac51d188490,
hotel,hotel,Hotel,"FWCJ+H3V, Beringin Jaya, Kec. Bolano Lambunu, Kabupaten Parigi Moutong, Sulawesi Tengah 94479","Beringin Jaya, Kec. Bolano Lambunu, Kabupaten Parigi Moutong",SULAWESI TENGAH,94479.0,Indonesia,,,,0.4714321,120.9301725,https://maps.google.com/?cid=0x0:0x540d3483287a3730,
hotel,Rumah wisata,Rumah Pak Arsjad,"CXV3+2WR, Jl. Trans-Sulawesi, Bolano, Kec. Bolano Lambunu, Kabupaten Parigi Moutong, Sulawesi Tengah 94479","Jl. Trans-Sulawesi, Bolano, Kec. Bolano Lambunu, Kabupaten Parigi Moutong",SULAWESI TENGAH,94479.0,Indonesia,,,,0.4426064,120.9547593,https://maps.google.com/?cid=0x0:0x331b921c69beda9d,
hotel,Penginapan Dalam Ruangan,Marsel,"FWPM+744, Wanamukti, Kec. Parigi, Kabupaten Parigi Moutong, Sulawesi Tengah","Kabupaten Parigi Moutong, Sulawesi Tengah",SULAWESI TENGAH,,Indonesia,,,,0.4856312,120.9328208,https://maps.google.com/?cid=0x0:0xa47270d042331e05,
hotel,hotel,Hotel Bintang Kejora,"FWFM+27C hotel bintang kejora, Beringin Jaya, Kec. Bolano Lambunu, Kabupaten Parigi Moutong, Sulawesi Tengah 94479","Beringin Jaya, Kec. Bolano Lambunu, Kabupaten Parigi Moutong",SULAWESI TENGAH,94479.0,Indonesia,,,,0.4725685,120.9331377,https://maps.google.com/?cid=0x0:0x7934d2a730d5b4d4,
hotel,Bar,Bunak hotel,"FWFJ+533, Unnamed Road, Sritabaang, Kec. Bolano Lambunu, Kabupaten Parigi Moutong, Sulawesi Tengah 94479","Unnamed Road, Sritabaang, Kec. Bolano Lambunu, Kabupaten Parigi Moutong",SULAWESI TENGAH,94479.0,Indonesia,,,,0.4728916,120.9301628,https://maps.google.com/?cid=0x0:0x7067f0534e9d1846,
hotel,hotel,Naval Hotel,"Jl. Sukajadi No.180, Pasteur, Kec. Sukajadi, Kota Bandung, Jawa Barat 40161","Pasteur, Kec. Sukajadi, Kota Bandung",SULAWESI TENGAH,40161.0,Indonesia,81286660335.0,,,-6.885002,107.596887,https://maps.google.com/?cid=0x0:0xd12c2fff61490131,
hotel,hotel,,,,SULAWESI TENGAH,,Indonesia,,,,,,https://maps.google.com/?cid=0x0:0xd12c2fff61490131%7C/g/1th46606%7Cen-ID,
hotel,hotel,Residences by RedDoorz near Rumah Mode,"Jl. Cipaganti No.150-152, Cipaganti, Kecamatan Coblong, Kota Bandung, Jawa Barat 40131","Cipaganti, Kecamatan Coblong, Kota Bandung",SULAWESI TENGAH,40131.0,Indonesia,2180629666.0,,,-6.8868907,107.6022043,https://maps.google.com/?cid=0x0:0xb40e3601aa26f668,
hotel,Museum,Gedung Sate,"Jl. Diponegoro No.22, Citarum, Kec. Bandung Wetan, Kota Bandung, Jawa Barat 40115","Citarum, Kec. Bandung Wetan, Kota Bandung",SULAWESI TENGAH,40115.0,Indonesia,224233347.0,,,-6.9024715,107.6187018,https://maps.google.com/?cid=0x0:0x37be7ac9d575f7ed,
hotel,Layanan Transportasi,St. Bandung,"Jl. Stasiun Barat, Kb. Jeruk, Kec. Andir, Kota Bandung, Jawa Barat 40181","Kb. Jeruk, Kec. Andir, Kota Bandung",SULAWESI TENGAH,40181.0,Indonesia,,,,-6.9146466,107.6024376,https://maps.google.com/?cid=0x0:0x34c1c07f21617455,
hotel,hotel,Kec. Sukajadi,"Kota Bandung, Jawa Barat","Kota Bandung, Jawa Barat",SULAWESI TENGAH,,Indonesia,,,,-6.8922842,107.5909487,https://maps.google.com/?cid=0x0:0x487870020c4f8b2c,
hotel,hotel,Kec. Bolano Lambunu,"Kabupaten Parigi Moutong, Sulawesi Tengah","Kabupaten Parigi Moutong, Sulawesi Tengah",SULAWESI TENGAH,,Indonesia,,,,0.5179502,120.9684228,https://maps.google.com/?cid=0x0:0xde947b8ab58cce62,
hotel,Pondok,Penginapan Singani lambunu,"Lambunu, Kec. Bolano Lambunu, Kabupaten Parigi Moutong, Sulawesi Tengah 94379","Kec. Bolano Lambunu, Kabupaten Parigi Moutong",SULAWESI TENGAH,94379.0,Indonesia,82335631226.0,,,0.4551071,120.9794391,https://maps.google.com/?cid=0x0:0x4c9d69a344a262e9,
hotel,Hotel,HOTEL INTAN MOUTONG,"Jl. Borman No.22, Moutong Tengah, Kec. Moutong, Kabupaten Parigi Moutong, Sulawesi Tengah","Kabupaten Parigi Moutong, Sulawesi Tengah",SULAWESI TENGAH,,Indonesia,82192052614.0,,,0.4616926,121.2327478,https://maps.google.com/?cid=0x0:0xc4a2e6bdd86e1277,
hotel,Pembangunan Perumahan,Bandar Udara Sultan Bantilan,"Pantai Lalos, Lalos, Galang, Lalos, Kec. Galang, Kabupaten Toli-Toli, Sulawesi Tengah 94561","Lalos, Galang, Lalos, Kec. Galang, Kabupaten Toli-Toli",SULAWESI TENGAH,94561.0,Indonesia,45322978.0,,,1.1216862,120.7935153,https://maps.google.com/?cid=0x0:0x8efb8368e72675d5,
hotel,Hostel,Theresia hotel,"Moutong Tengah, Kec. Moutong, Kabupaten Parigi Moutong, Sulawesi Tengah 94479","Kec. Moutong, Kabupaten Parigi Moutong",SULAWESI TENGAH,94479.0,Indonesia,,,,0.4651684,121.2278107,https://maps.google.com/?cid=0x0:0xdf893e49f7580d52,
hotel,hotel,Kasimbar,"Kasimbar Sel., Kec. Kasimbar, Kabupaten Parigi Moutong, Sulawesi Tengah","Kabupaten Parigi Moutong, Sulawesi Tengah",SULAWESI TENGAH,,Indonesia,,,,-0.146819,120.019302,https://maps.google.com/?cid=0x0:0x858cc26738af1e2c,
hotel,hotel,Cameloan Hotel,"Jalan Tanjung Tururuka No. 43 Lolu Selatan, Tatura Utara, Kec. Palu Sel., Kota Palu, Sulawesi Tengah 94111","Tatura Utara, Kec. Palu Sel., Kota Palu",SULAWESI TENGAH,94111.0,Indonesia,895417300072.0,,,-0.9072941,119.8842516,https://maps.google.com/?cid=0x0:0x99e6316eb17d703b,
hotel,hotel,,,,SULAWESI TENGAH,,Indonesia,,,,,,https://maps.google.com/?cid=0x0:0x99e6316eb17d703b%7C/g/11bxc7261n%7Cen-ID,
hotel,hotel,HOTEL FAAWAZ,"Baka, Tinangkung, Kabupaten Banggai Kepulauan, Sulawesi Tengah 94885","Tinangkung, Kabupaten Banggai Kepulauan",SULAWESI TENGAH,94885.0,Indonesia,82290539907.0,,,-1.3147929,123.2913921,https://maps.google.com/?cid=0x0:0xac756b05058fb9ba,
hotel,hotel,ASMORA HOTEL,"Moutong Tengah, Kec. Moutong, Kabupaten Parigi Moutong, Sulawesi Tengah 94479","Kec. Moutong, Kabupaten Parigi Moutong",SULAWESI TENGAH,94479.0,Indonesia,82348260424.0,,,0.4649994,121.2306823,https://maps.google.com/?cid=0x0:0x652a10a595e4fb4,
hotel,hotel,Mepanga,"Kabupaten Parigi Moutong, Sulawesi Tengah","Kabupaten Parigi Moutong, Sulawesi Tengah",SULAWESI TENGAH,,Indonesia,,,,0.5661401,120.6890055,https://maps.google.com/?cid=0x0:0x74452552d444cee8,
hotel,hotel,Cameloan Hotel,"Jalan Tanjung Tururuka No. 43 Lolu Selatan, Tatura Utara, Kec. Palu Sel., Kota Palu, Sulawesi Tengah 94111","Tatura Utara, Kec. Palu Sel., Kota Palu",SULAWESI TENGAH,94111.0,Indonesia,895417300072.0,,,-0.9072941,119.8842516,https://maps.google.com/?cid=0x0:0x99e6316eb17d703b,
hotel,hotel,,,,SULAWESI TENGAH,,Indonesia,,,,,,https://maps.google.com/?cid=0x0:0x99e6316eb17d703b%7C/g/11bxc7261n%7Cen-ID,
hotel,hotel,HOTEL FAAWAZ,"Baka, Tinangkung, Kabupaten Banggai Kepulauan, Sulawesi Tengah 94885","Tinangkung, Kabupaten Banggai Kepulauan",SULAWESI TENGAH,94885.0,Indonesia,82290539907.0,,,-1.3147929,123.2913921,https://maps.google.com/?cid=0x0:0xac756b05058fb9ba,
hotel,hotel,Hotel Galang,"Jl. Abdul Wahab No.7, Marsaoleh, Kec. Bungku Tengah, Kabupaten Morowali, Sulawesi Tengah 94973","Marsaoleh, Kec. Bungku Tengah, Kabupaten Morowali",SULAWESI TENGAH,94973.0,Indonesia,81354439700.0,,,-2.5431707,121.9698521,https://maps.google.com/?cid=0x0:0xbaa8ed93b4ad6fa,
hotel,hotel,ASMORA HOTEL,"Moutong Tengah, Kec. Moutong, Kabupaten Parigi Moutong, Sulawesi Tengah 94479","Kec. Moutong, Kabupaten Parigi Moutong",SULAWESI TENGAH,94479.0,Indonesia,82348260424.0,,,0.4649994,121.2306823,https://maps.google.com/?cid=0x0:0x652a10a595e4fb4,
hotel,hotel,SURYADI HOTEL,"Jl. Magamu No.95, Baru, Kec. Baolan, Kabupaten Toli-Toli, Sulawesi Tengah 94514","Baru, Kec. Baolan, Kabupaten Toli-Toli",SULAWESI TENGAH,94514.0,Indonesia,82349396919.0,,,1.0422774,120.8121517,https://maps.google.com/?cid=0x0:0x11954805b9c68edc,
hotel,hotel,Mepanga,"Mepanga, Kabupaten Parigi Moutong, Sulawesi Tengah","Kabupaten Parigi Moutong, Sulawesi Tengah",SULAWESI TENGAH,,Indonesia,,,,0.5214061,120.671755,https://maps.google.com/?cid=0x0:0xad46793cf20e095a,
hotel,hotel,Hotel Oktaria Parigi Moutong,"Masigi, Kec. Parigi, Kabupaten Parigi Moutong, Sulawesi Tengah 94471","Kec. Parigi, Kabupaten Parigi Moutong",SULAWESI TENGAH,94471.0,Indonesia,81354321282.0,,,-0.8136588,120.1666225,https://maps.google.com/?cid=0x0:0x6a8a2e7918e60294,
hotel,hotel,HOTEL FAAWAZ,"Baka, Tinangkung, Kabupaten Banggai Kepulauan, Sulawesi Tengah 94885","Tinangkung, Kabupaten Banggai Kepulauan",SULAWESI TENGAH,94885.0,Indonesia,82290539907.0,,,-1.3147929,123.2913921,https://maps.google.com/?cid=0x0:0xac756b05058fb9ba,
hotel,hotel,ASMORA HOTEL,"Moutong Tengah, Kec. Moutong, Kabupaten Parigi Moutong, Sulawesi Tengah 94479","Kec. Moutong, Kabupaten Parigi Moutong",SULAWESI TENGAH,94479.0,Indonesia,82348260424.0,,,0.4649994,121.2306823,https://maps.google.com/?cid=0x0:0x652a10a595e4fb4,
hotel,hotel,Kec. Moutong,"Kabupaten Parigi Moutong, Sulawesi Tengah","Kabupaten Parigi Moutong, Sulawesi Tengah",SULAWESI TENGAH,,Indonesia,,,,0.4651968,121.2276711,https://maps.google.com/?cid=0x0:0x59fa9f4642c9475e,
hotel,hotel,Cameloan Hotel,"Jalan Tanjung Tururuka No. 43 Lolu Selatan, Tatura Utara, Kec. Palu Sel., Kota Palu, Sulawesi Tengah 94111","Tatura Utara, Kec. Palu Sel., Kota Palu",SULAWESI TENGAH,94111.0,Indonesia,895417300072.0,,,-0.9072941,119.8842516,https://maps.google.com/?cid=0x0:0x99e6316eb17d703b,
hotel,hotel,,,,SULAWESI TENGAH,,Indonesia,,,,,,https://maps.google.com/?cid=0x0:0x99e6316eb17d703b%7C/g/11bxc7261n%7Cen-ID,
hotel,hotel,ASMORA HOTEL,"Moutong Tengah, Kec. Moutong, Kabupaten Parigi Moutong, Sulawesi Tengah 94479","Kec. Moutong, Kabupaten Parigi Moutong",SULAWESI TENGAH,94479.0,Indonesia,82348260424.0,,,0.4649994,121.2306823,https://maps.google.com/?cid=0x0:0x652a10a595e4fb4,
hotel,hotel,HOTEL FAAWAZ,"Baka, Tinangkung, Kabupaten Banggai Kepulauan, Sulawesi Tengah 94885","Tinangkung, Kabupaten Banggai Kepulauan",SULAWESI TENGAH,94885.0,Indonesia,82290539907.0,,,-1.3147929,123.2913921,https://maps.google.com/?cid=0x0:0xac756b05058fb9ba,
hotel,hotel,Kec. Ongka Malino,"Kabupaten Parigi Moutong, Sulawesi Tengah","Kabupaten Parigi Moutong, Sulawesi Tengah",SULAWESI TENGAH,,Indonesia,,,,0.5805801,120.7649084,https://maps.google.com/?cid=0x0:0x8110b20377892e03,
hotel,hotel,Cameloan Hotel,"Jalan Tanjung Tururuka No. 43 Lolu Selatan, Tatura Utara, Kec. Palu Sel., Kota Palu, Sulawesi Tengah 94111","Tatura Utara, Kec. Palu Sel., Kota Palu",SULAWESI TENGAH,94111.0,Indonesia,895417300072.0,,,-0.9072941,119.8842516,https://maps.google.com/?cid=0x0:0x99e6316eb17d703b,
hotel,hotel,,,,SULAWESI TENGAH,,Indonesia,,,,,,https://maps.google.com/?cid=0x0:0x99e6316eb17d703b%7C/g/11bxc7261n%7Cen-ID,
hotel,hotel,ASMORA HOTEL,"Moutong Tengah, Kec. Moutong, Kabupaten Parigi Moutong, Sulawesi Tengah 94479","Kec. Moutong, Kabupaten Parigi Moutong",SULAWESI TENGAH,94479.0,Indonesia,82348260424.0,,,0.4649994,121.2306823,https://maps.google.com/?cid=0x0:0x652a10a595e4fb4,
hotel,hotel,Kec. Palasa,"Kabupaten Parigi Moutong, Sulawesi Tengah","Kabupaten Parigi Moutong, Sulawesi Tengah",SULAWESI TENGAH,,Indonesia,,,,0.4814136,120.4286472,https://maps.google.com/?cid=0x0:0xeb7c2c3315eb8c61,
hotel,hotel,Hotel Helsinki Palu,"Jl. Batavia No.7, Birobuli Utara, Kec. Palu Sel., Kota Palu, Sulawesi Tengah 94116","Birobuli Utara, Kec. Palu Sel., Kota Palu",SULAWESI TENGAH,94116.0,Indonesia,82113555520.0,,,-0.9119132,119.8981128,https://maps.google.com/?cid=0x0:0x9e32499b4b2c696d,
hotel,hotel,Cameloan Hotel,"Jalan Tanjung Tururuka No. 43 Lolu Selatan, Tatura Utara, Kec. Palu Sel., Kota Palu, Sulawesi Tengah 94111","Tatura Utara, Kec. Palu Sel., Kota Palu",SULAWESI TENGAH,94111.0,Indonesia,895417300072.0,,,-0.9072941,119.8842516,https://maps.google.com/?cid=0x0:0x99e6316eb17d703b,
hotel,hotel,Hotel Santika Palu,"Jl. Moh. Hatta No.18, Lolu Utara, Kec. Palu Tim., Kota Palu, Sulawesi Tengah 94114","Lolu Utara, Kec. Palu Tim., Kota Palu",SULAWESI TENGAH,94114.0,Indonesia,451424888.0,,,-0.8968027,119.8728966,https://maps.google.com/?cid=0x0:0x674157881dbaefe4,
hotel,hotel,,,,SULAWESI TENGAH,,Indonesia,,,,,,https://maps.google.com/?cid=0x0:0x674157881dbaefe4%7C/g/11r9j2h0w%7Cen-ID,
hotel,hotel,Palu Plaza Hotel,"Jl. Danau Poso No.18, Siranindi, Kec. Palu Bar., Kota Palu, Sulawesi Tengah 94111","Siranindi, Kec. Palu Bar., Kota Palu",SULAWESI TENGAH,94111.0,Indonesia,8170084927.0,,,-0.9001512,119.8602525,https://maps.google.com/?cid=0x0:0x9ed2c3af6fbed954,
hotel,hotel,HOTEL FAAWAZ,"Baka, Tinangkung, Kabupaten Banggai Kepulauan, Sulawesi Tengah 94885","Tinangkung, Kabupaten Banggai Kepulauan",SULAWESI TENGAH,94885.0,Indonesia,82290539907.0,,,-1.3147929,123.2913921,https://maps.google.com/?cid=0x0:0xac756b05058fb9ba,
hotel,Toko Kosmetik,New Sentral Hotel,"Jl. Wolter Monginsidi No.71, RW.73, Lolu Sel., Kec. Palu Sel., Kota Palu, Sulawesi Tengah 94111","RW.73, Lolu Sel., Kec. Palu Sel., Kota Palu",SULAWESI TENGAH,94111.0,Indonesia,82363888333.0,,,-0.9035805,119.8747179,https://maps.google.com/?cid=0x0:0x51a9164bbc750c6f,
hotel,hotel,Hotel Brizky,"Jl. RE Martadinata No.03, Tondo, Kec. Mantikulore, Kota Palu, Sulawesi Tengah 94111","Tondo, Kec. Mantikulore, Kota Palu",SULAWESI TENGAH,94111.0,Indonesia,4514012739.0,,,-0.8533987,119.8822596,https://maps.google.com/?cid=0x0:0x6a7e51b26d5e694d,
hotel,hotel,Pelangi Hotel Palu RedPartner,"Jl. Letjen Suprapto No. 18, Besusu, Palu Timur, Talise, Kec. Ulujadi, Kota Palu, Sulawesi Tengah 94111","Besusu, Palu Timur, Talise, Kec. Ulujadi, Kota Palu",SULAWESI TENGAH,94111.0,Indonesia,451426596.0,,,-0.8834294,119.8758326,https://maps.google.com/?cid=0x0:0x4d2e4e942753d530,
hotel,hotel,,,,SULAWESI TENGAH,,Indonesia,,,,,,https://maps.google.com/?cid=0x0:0x4d2e4e942753d530%7C/g/1vfvcywb%7Cen-ID,
hotel,hotel,OYO 1325 Grand Wisata Hotel,"Besusu Tengah, Kec. Palu Tim., Kota Palu, Sulawesi Tengah 94118","Kec. Palu Tim., Kota Palu",SULAWESI TENGAH,94118.0,Indonesia,2129707601.0,,,-0.8882946,119.8759652,https://maps.google.com/?cid=0x0:0xd693c8f7c387be7,
hotel,hotel,,,,SULAWESI TENGAH,,Indonesia,,,,,,https://maps.google.com/?cid=0x0:0xd693c8f7c387be7%7C/g/11h6qk_cry%7Cen-ID,
hotel,hotel,JAZZ ANNA HOTEL PALU,"Jl. Sam Ratulangi, Besusu Bar., Kec. Palu Tim., Kota Palu, Sulawesi Tengah 94118","Besusu Bar., Kec. Palu Tim., Kota Palu",SULAWESI TENGAH,94118.0,Indonesia,2129706666.0,,,-0.887511,119.871146,https://maps.google.com/?cid=0x0:0x917824ded588fea9,
hotel,hotel,ASMORA HOTEL,"Moutong Tengah, Kec. Moutong, Kabupaten Parigi Moutong, Sulawesi Tengah 94479","Kec. Moutong, Kabupaten Parigi Moutong",SULAWESI TENGAH,94479.0,Indonesia,82348260424.0,,,0.4649994,121.2306823,https://maps.google.com/?cid=0x0:0x652a10a595e4fb4,
hotel,hotel,Palu City Guest House RedPartner,"Jl. Sis Aljufri No.17, Boyaoge, Kec. Palu Bar., Kota Palu, Sulawesi Tengah 94111","Boyaoge, Kec. Palu Bar., Kota Palu",SULAWESI TENGAH,94111.0,Indonesia,451426498.0,,,-0.89827,119.859537,https://maps.google.com/?cid=0x0:0x8e8f1612d0c071df,
hotel,hotel,Hotel Aramas Palu,"Jl. Anoa No.33, Tatura Utara, Kec. Palu Sel., Kota Palu, Sulawesi Tengah 94111","Tatura Utara, Kec. Palu Sel., Kota Palu",SULAWESI TENGAH,94111.0,Indonesia,4514016021.0,,,-0.9127311,119.8842105,https://maps.google.com/?cid=0x0:0x9201e5a56144cdac,
hotel,hotel,Palasa,"Andhra Pradesh, India","Palasa, Andhra Pradesh, India",SULAWESI TENGAH,,Indonesia,,,,18.7723549,84.4109252,https://maps.google.com/?cid=0x0:0x97298eade0563276,
hotel,hotel,KVR stay inn,"main road, beside sr shopping mall, Shivaji Nagar, Kasibugga, Andhra Pradesh 532221, India","beside sr shopping mall, Shivaji Nagar, Kasibugga, Andhra Pradesh",SULAWESI TENGAH,532221.0,Indonesia,919052660526.0,,,18.7670567,84.4181402,https://maps.google.com/?cid=0x0:0xdd3c3fb5e74f668c,
hotel,hotel,Ganapathy Residency,"QC8C+9C8, 13-03-104, Tilak Nagar, Shivaji Nagar, Kasibugga, Andhra Pradesh 532222, India","Tilak Nagar, Shivaji Nagar, Kasibugga, Andhra Pradesh",SULAWESI TENGAH,532222.0,Indonesia,919393391424.0,,,18.7640598,84.4201158,https://maps.google.com/?cid=0x0:0xf58a66b7746f674e,
hotel,hotel,Sri Swapna Lodge And Amaravathi Hotel,"Kasibugga, Andhra Pradesh 532222, India",Andhra Pradesh,SULAWESI TENGAH,532222.0,Indonesia,,,,18.7619369,84.4194379,https://maps.google.com/?cid=0x0:0xa87346dd10a0c832,
hotel,hotel,Parigi,"Masigi, Kec. Parigi, Kabupaten Parigi Moutong, Sulawesi Tengah","Kabupaten Parigi Moutong, Sulawesi Tengah",SULAWESI TENGAH,,Indonesia,,,,-0.819175,120.167297,https://maps.google.com/?cid=0x0:0x28e4c1487f7d5d74,
hotel,hotel,Hotel Oktaria Parigi Moutong,"Masigi, Kec. Parigi, Kabupaten Parigi Moutong, Sulawesi Tengah 94471","Kec. Parigi, Kabupaten Parigi Moutong",SULAWESI TENGAH,94471.0,Indonesia,81354321282.0,,,-0.8136588,120.1666225,https://maps.google.com/?cid=0x0:0x6a8a2e7918e60294,
hotel,hotel,ASMORA HOTEL,"Moutong Tengah, Kec. Moutong, Kabupaten Parigi Moutong, Sulawesi Tengah 94479","Kec. Moutong, Kabupaten Parigi Moutong",SULAWESI TENGAH,94479.0,Indonesia,82348260424.0,,,0.4649994,121.2306823,https://maps.google.com/?cid=0x0:0x652a10a595e4fb4,
hotel,hotel,Paris,Prancis,"Paris, Prancis",SULAWESI TENGAH,,Indonesia,,,,48.8575475,2.3513765,https://maps.google.com/?cid=0x0:0x40b82c3688c9460,
hotel,hotel,,,,SULAWESI TENGAH,,Indonesia,,,,,,https://maps.google.com/?cid=0x0:0x9821a421c5564a8c%7C/g/11cm_ht_zp%7Cen-ID,
hotel,hotel,ibis budget Paris Porte de Bercy,"Paris Bercy 2, 2 Pl. de l'Europe, 94220 Charenton-le-Pont, Prancis",Charenton-le-Pont,SULAWESI TENGAH,94220.0,Indonesia,33892680671.0,,,48.8253575,2.3936953,https://maps.google.com/?cid=0x0:0x9821a421c5564a8c,
hotel,hotel,,,,SULAWESI TENGAH,,Indonesia,,,,,,https://maps.google.com/?cid=0x0:0x651a57f6d128211c%7C/g/11rt_s4vz4%7Cen-ID,
hotel,hotel,The People Paris Marais,"17 Bd Morland, 75004 Paris, Prancis",Paris,SULAWESI TENGAH,75004.0,Indonesia,33181224088.0,,,48.8501827,2.3629828,https://maps.google.com/?cid=0x0:0x651a57f6d128211c,
hotel,hotel,,,,SULAWESI TENGAH,,Indonesia,,,,,,https://maps.google.com/?cid=0x0:0xe3e194aebc4d3970%7C/g/12qg393xj%7Cen-ID,
hotel,hotel,St Christopher's Inn Paris Gare du Nord,"5 Rue de Dunkerque, 75010 Paris, Prancis",Paris,SULAWESI TENGAH,75010.0,Indonesia,33170085222.0,,,48.8793378,2.3580637,https://maps.google.com/?cid=0x0:0xe3e194aebc4d3970,
hotel,hotel,,,,SULAWESI TENGAH,,Indonesia,,,,,,https://maps.google.com/?cid=0x0:0xa237acbe2f3a6203%7C/g/1tdplczl%7Cen-ID,
hotel,hotel,Hôtel de Paris Opéra,"37 Rue de Maubeuge, 75009 Paris, Prancis",Paris,SULAWESI TENGAH,75009.0,Indonesia,33148783449.0,,,48.8787561,2.3459915,https://maps.google.com/?cid=0x0:0xa237acbe2f3a6203,
hotel,hotel,Hôtel CHEVALLIER,"67 Rue Louis Rouquier, 92300 Levallois-Perret, Prancis",Levallois-Perret,SULAWESI TENGAH,92300.0,Indonesia,33147587982.0,,,48.891373,2.288138,https://maps.google.com/?cid=0x0:0x2b080195f4fecc67,
hotel,hotel,,,,SULAWESI TENGAH,,Indonesia,,,,,,https://maps.google.com/?cid=0x0:0x9c8dea180598517%7C/g/11bwkdmrv8%7Cen-ID,
hotel,hotel,Le Regent Montmartre,"37 Blvd Marguerite de Rochechouart, 75009 Paris, Prancis",Paris,SULAWESI TENGAH,75009.0,Indonesia,33148782400.0,,,48.8827959,2.3450615,https://maps.google.com/?cid=0x0:0x9c8dea180598517,
hotel,hotel,,,,SULAWESI TENGAH,,Indonesia,,,,,,https://maps.google.com/?cid=0x0:0x9e46c03c191f085d%7C/g/1tfgck1t%7Cen-ID,
hotel,hotel,Hotel Antin Saint Georges,"21 Rue Notre Dame de Lorette, 75009 Paris, Prancis",Paris,SULAWESI TENGAH,75009.0,Indonesia,33148786047.0,,,48.8779554,2.3378432,https://maps.google.com/?cid=0x0:0x9e46c03c191f085d,
hotel,hotel,,,,SULAWESI TENGAH,,Indonesia,,,,,,https://maps.google.com/?cid=0x0:0x196cc051f6af8d4b%7C/g/11gy1twcgz%7Cen-ID,
hotel,hotel,JOJOE Paris Gentilly,"89-93 Av. Paul Vaillant Couturier, 94250 Gentilly, Prancis",Gentilly,SULAWESI TENGAH,94250.0,Indonesia,33184233760.0,,,48.8163491,2.3382857,https://maps.google.com/?cid=0x0:0x196cc051f6af8d4b,
hotel,hotel,,,,SULAWESI TENGAH,,Indonesia,,,,,,https://maps.google.com/?cid=0x0:0xc223495d404babf3%7C/g/11lrn0k4vy%7Cen-ID,
hotel,hotel,The People Paris Nation,"28 Bis Pl. de la Nation, 75012 Paris, Prancis",Paris,SULAWESI TENGAH,75012.0,Indonesia,33978362028.0,,,48.8477131,2.3973172,https://maps.google.com/?cid=0x0:0xc223495d404babf3,
hotel,hotel,Paris Hôtel,"3 Rue Henri Poincaré, 92110 Clichy, Prancis",Clichy,SULAWESI TENGAH,92110.0,Indonesia,33972575352.0,,,48.9020943,2.3131208,https://maps.google.com/?cid=0x0:0xf002a43471c411f3,
hotel,hotel,,,,SULAWESI TENGAH,,Indonesia,,,,,,https://maps.google.com/?cid=0x0:0x177221821cbec893%7C/g/1q5bp6njy%7Cen-ID,
hotel,hotel,Auberge de jeunesse Fourcy - MIJE Marais,"6 Rue de Fourcy, 75004 Paris, Prancis",Paris,SULAWESI TENGAH,75004.0,Indonesia,33142742345.0,,,48.8546192,2.3591694,https://maps.google.com/?cid=0x0:0x177221821cbec893,
hotel,hotel,Chez Coffice,"79 Rue de Patay, 75013 Paris, Prancis",Paris,SULAWESI TENGAH,75013.0,Indonesia,,,,48.826648,2.3726351,https://maps.google.com/?cid=0x0:0xb41e5b0866600860,
hotel,hotel,A La Pinte du Nord,"38 Rue de Saint-Quentin, 75010 Paris, Prancis",Paris,SULAWESI TENGAH,75010.0,Indonesia,33145261189.0,,,48.8794141,2.3559951,https://maps.google.com/?cid=0x0:0x48b8e92770c33f27,
hotel,hotel,,,,SULAWESI TENGAH,,Indonesia,,,,,,https://maps.google.com/?cid=0x0:0x68722096a1aa5c0d%7C/g/1n09xs9lk%7Cen-ID,
hotel,hotel,Paris France Hotel,"72 R. de Turbigo, 75003 Paris, Prancis",Paris,SULAWESI TENGAH,75003.0,Indonesia,33142780004.0,,,48.8663414,2.3606007,https://maps.google.com/?cid=0x0:0x68722096a1aa5c0d,
hotel,hotel,Parigi,"Masigi, Kec. Parigi, Kabupaten Parigi Moutong, Sulawesi Tengah","Kabupaten Parigi Moutong, Sulawesi Tengah",SULAWESI TENGAH,,Indonesia,,,,-0.819175,120.167297,https://maps.google.com/?cid=0x0:0x28e4c1487f7d5d74,
hotel,hotel,Hotel Oktaria Parigi Moutong,"Masigi, Kec. Parigi, Kabupaten Parigi Moutong, Sulawesi Tengah 94471","Kec. Parigi, Kabupaten Parigi Moutong",SULAWESI TENGAH,94471.0,Indonesia,81354321282.0,,,-0.8136588,120.1666225,https://maps.google.com/?cid=0x0:0x6a8a2e7918e60294,
hotel,hotel,Cameloan Hotel,"Jalan Tanjung Tururuka No. 43 Lolu Selatan, Tatura Utara, Kec. Palu Sel., Kota Palu, Sulawesi Tengah 94111","Tatura Utara, Kec. Palu Sel., Kota Palu",SULAWESI TENGAH,94111.0,Indonesia,895417300072.0,,,-0.9072941,119.8842516,https://maps.google.com/?cid=0x0:0x99e6316eb17d703b,
hotel,hotel,Grand Mitra Hotel Masigi,"Jl. Finono No.Desa, Masigi, Kec. Parigi, Kabupaten Parigi Moutong, Sulawesi Tengah 94471","Masigi, Kec. Parigi, Kabupaten Parigi Moutong",SULAWESI TENGAH,94471.0,Indonesia,82197411785.0,,,-0.8147303,120.1686227,https://maps.google.com/?cid=0x0:0x25f2d8e26d6eeadd,
hotel,hotel,ASMORA HOTEL,"Moutong Tengah, Kec. Moutong, Kabupaten Parigi Moutong, Sulawesi Tengah 94479","Kec. Moutong, Kabupaten Parigi Moutong",SULAWESI TENGAH,94479.0,Indonesia,82348260424.0,,,0.4649994,121.2306823,https://maps.google.com/?cid=0x0:0x652a10a595e4fb4,
hotel,hotel,Paris,Prancis,"Paris, Prancis",SULAWESI TENGAH,,Indonesia,,,,48.8575475,2.3513765,https://maps.google.com/?cid=0x0:0x40b82c3688c9460,
hotel,hotel,ibis budget Paris Porte de Bercy,"Paris Bercy 2, 2 Pl. de l'Europe, 94220 Charenton-le-Pont, Prancis",Charenton-le-Pont,SULAWESI TENGAH,94220.0,Indonesia,33892680671.0,,,48.8253575,2.3936953,https://maps.google.com/?cid=0x0:0x9821a421c5564a8c,
hotel,hotel,,,,SULAWESI TENGAH,,Indonesia,,,,,,https://maps.google.com/?cid=0x0:0x9821a421c5564a8c%7C/g/11cm_ht_zp%7Cen-ID,
hotel,hotel,,,,SULAWESI TENGAH,,Indonesia,,,,,,https://maps.google.com/?cid=0x0:0x651a57f6d128211c%7C/g/11rt_s4vz4%7Cen-ID,
hotel,hotel,The People Paris Marais,"17 Bd Morland, 75004 Paris, Prancis",Paris,SULAWESI TENGAH,75004.0,Indonesia,33181224088.0,,,48.8501827,2.3629828,https://maps.google.com/?cid=0x0:0x651a57f6d128211c,
hotel,hotel,St Christopher's Inn Paris Gare du Nord,"5 Rue de Dunkerque, 75010 Paris, Prancis",Paris,SULAWESI TENGAH,75010.0,Indonesia,33170085222.0,,,48.8793378,2.3580637,https://maps.google.com/?cid=0x0:0xe3e194aebc4d3970,
hotel,hotel,,,,SULAWESI TENGAH,,Indonesia,,,,,,https://maps.google.com/?cid=0x0:0xe3e194aebc4d3970%7C/g/12qg393xj%7Cen-ID,
hotel,hotel,Hôtel de Paris Opéra,"37 Rue de Maubeuge, 75009 Paris, Prancis",Paris,SULAWESI TENGAH,75009.0,Indonesia,33148783449.0,,,48.8787561,2.3459915,https://maps.google.com/?cid=0x0:0xa237acbe2f3a6203,
hotel,hotel,,,,SULAWESI TENGAH,,Indonesia,,,,,,https://maps.google.com/?cid=0x0:0xa237acbe2f3a6203%7C/g/1tdplczl%7Cen-ID,
hotel,hotel,Hôtel CHEVALLIER,"67 Rue Louis Rouquier, 92300 Levallois-Perret, Prancis",Levallois-Perret,SULAWESI TENGAH,92300.0,Indonesia,33147587982.0,,,48.891373,2.288138,https://maps.google.com/?cid=0x0:0x2b080195f4fecc67,
hotel,hotel,,,,SULAWESI TENGAH,,Indonesia,,,,,,https://maps.google.com/?cid=0x0:0x9c8dea180598517%7C/g/11bwkdmrv8%7Cen-ID,
hotel,hotel,Le Regent Montmartre,"37 Blvd Marguerite de Rochechouart, 75009 Paris, Prancis",Paris,SULAWESI TENGAH,75009.0,Indonesia,33148782400.0,,,48.8827959,2.3450615,https://maps.google.com/?cid=0x0:0x9c8dea180598517,
hotel,hotel,,,,SULAWESI TENGAH,,Indonesia,,,,,,https://maps.google.com/?cid=0x0:0x9e46c03c191f085d%7C/g/1tfgck1t%7Cen-ID,
hotel,hotel,Hotel Antin Saint Georges,"21 Rue Notre Dame de Lorette, 75009 Paris, Prancis",Paris,SULAWESI TENGAH,75009.0,Indonesia,33148786047.0,,,48.8779554,2.3378432,https://maps.google.com/?cid=0x0:0x9e46c03c191f085d,
hotel,hotel,JOJOE Paris Gentilly,"89-93 Av. Paul Vaillant Couturier, 94250 Gentilly, Prancis",Gentilly,SULAWESI TENGAH,94250.0,Indonesia,33184233760.0,,,48.8163491,2.3382857,https://maps.google.com/?cid=0x0:0x196cc051f6af8d4b,
hotel,hotel,,,,SULAWESI TENGAH,,Indonesia,,,,,,https://maps.google.com/?cid=0x0:0x196cc051f6af8d4b%7C/g/11gy1twcgz%7Cen-ID,
hotel,hotel,,,,SULAWESI TENGAH,,Indonesia,,,,,,https://maps.google.com/?cid=0x0:0xc223495d404babf3%7C/g/11lrn0k4vy%7Cen-ID,
hotel,hotel,The People Paris Nation,"28 Bis Pl. de la Nation, 75012 Paris, Prancis",Paris,SULAWESI TENGAH,75012.0,Indonesia,33978362028.0,,,48.8477131,2.3973172,https://maps.google.com/?cid=0x0:0xc223495d404babf3,
hotel,hotel,Paris Hôtel,"3 Rue Henri Poincaré, 92110 Clichy, Prancis",Clichy,SULAWESI TENGAH,92110.0,Indonesia,33972575352.0,,,48.9020943,2.3131208,https://maps.google.com/?cid=0x0:0xf002a43471c411f3,
hotel,hotel,,,,SULAWESI TENGAH,,Indonesia,,,,,,https://maps.google.com/?cid=0x0:0x177221821cbec893%7C/g/1q5bp6njy%7Cen-ID,
hotel,hotel,Auberge de jeunesse Fourcy - MIJE Marais,"6 Rue de Fourcy, 75004 Paris, Prancis",Paris,SULAWESI TENGAH,75004.0,Indonesia,33142742345.0,,,48.8546192,2.3591694,https://maps.google.com/?cid=0x0:0x177221821cbec893,
hotel,hotel,A La Pinte du Nord,"38 Rue de Saint-Quentin, 75010 Paris, Prancis",Paris,SULAWESI TENGAH,75010.0,Indonesia,33145261189.0,,,48.8794141,2.3559951,https://maps.google.com/?cid=0x0:0x48b8e92770c33f27,
hotel,hotel,Chez Coffice,"79 Rue de Patay, 75013 Paris, Prancis",Paris,SULAWESI TENGAH,75013.0,Indonesia,,,,48.826648,2.3726351,https://maps.google.com/?cid=0x0:0xb41e5b0866600860,
hotel,hotel,Parigi,"Masigi, Kec. Parigi, Kabupaten Parigi Moutong, Sulawesi Tengah","Kabupaten Parigi Moutong, Sulawesi Tengah",SULAWESI TENGAH,,Indonesia,,,,-0.819175,120.167297,https://maps.google.com/?cid=0x0:0x28e4c1487f7d5d74,
hotel,hotel,Hotel Oktaria Parigi Moutong,"Masigi, Kec. Parigi, Kabupaten Parigi Moutong, Sulawesi Tengah 94471","Kec. Parigi, Kabupaten Parigi Moutong",SULAWESI TENGAH,94471.0,Indonesia,81354321282.0,,,-0.8136588,120.1666225,https://maps.google.com/?cid=0x0:0x6a8a2e7918e60294,
hotel,hotel,Cameloan Hotel,"Jalan Tanjung Tururuka No. 43 Lolu Selatan, Tatura Utara, Kec. Palu Sel., Kota Palu, Sulawesi Tengah 94111","Tatura Utara, Kec. Palu Sel., Kota Palu",SULAWESI TENGAH,94111.0,Indonesia,895417300072.0,,,-0.9072941,119.8842516,https://maps.google.com/?cid=0x0:0x99e6316eb17d703b,
hotel,hotel,Grand Mitra Hotel Masigi,"Jl. Finono No.Desa, Masigi, Kec. Parigi, Kabupaten Parigi Moutong, Sulawesi Tengah 94471","Masigi, Kec. Parigi, Kabupaten Parigi Moutong",SULAWESI TENGAH,94471.0,Indonesia,82197411785.0,,,-0.8147303,120.1686227,https://maps.google.com/?cid=0x0:0x25f2d8e26d6eeadd,
hotel,hotel,HOTEL FAAWAZ,"Baka, Tinangkung, Kabupaten Banggai Kepulauan, Sulawesi Tengah 94885","Tinangkung, Kabupaten Banggai Kepulauan",SULAWESI TENGAH,94885.0,Indonesia,82290539907.0,,,-1.3147929,123.2913921,https://maps.google.com/?cid=0x0:0xac756b05058fb9ba,
hotel,hotel,ASMORA HOTEL,"Moutong Tengah, Kec. Moutong, Kabupaten Parigi Moutong, Sulawesi Tengah 94479","Kec. Moutong, Kabupaten Parigi Moutong",SULAWESI TENGAH,94479.0,Indonesia,82348260424.0,,,0.4649994,121.2306823,https://maps.google.com/?cid=0x0:0x652a10a595e4fb4,
hotel,hotel,Paris,Prancis,"Paris, Prancis",SULAWESI TENGAH,,Indonesia,,,,48.8575475,2.3513765,https://maps.google.com/?cid=0x0:0x40b82c3688c9460,
hotel,hotel,ibis budget Paris Porte de Bercy,"Paris Bercy 2, 2 Pl. de l'Europe, 94220 Charenton-le-Pont, Prancis",Charenton-le-Pont,SULAWESI TENGAH,94220.0,Indonesia,33892680671.0,,,48.8253575,2.3936953,https://maps.google.com/?cid=0x0:0x9821a421c5564a8c,
hotel,hotel,,,,SULAWESI TENGAH,,Indonesia,,,,,,https://maps.google.com/?cid=0x0:0x9821a421c5564a8c%7C/g/11cm_ht_zp%7Cen-ID,
hotel,hotel,,,,SULAWESI TENGAH,,Indonesia,,,,,,https://maps.google.com/?cid=0x0:0x651a57f6d128211c%7C/g/11rt_s4vz4%7Cen-ID,
hotel,hotel,The People Paris Marais,"17 Bd Morland, 75004 Paris, Prancis",Paris,SULAWESI TENGAH,75004.0,Indonesia,33181224088.0,,,48.8501827,2.3629828,https://maps.google.com/?cid=0x0:0x651a57f6d128211c,
hotel,hotel,St Christopher's Inn Paris Gare du Nord,"5 Rue de Dunkerque, 75010 Paris, Prancis",Paris,SULAWESI TENGAH,75010.0,Indonesia,33170085222.0,,,48.8793378,2.3580637,https://maps.google.com/?cid=0x0:0xe3e194aebc4d3970,
hotel,hotel,,,,SULAWESI TENGAH,,Indonesia,,,,,,https://maps.google.com/?cid=0x0:0xe3e194aebc4d3970%7C/g/12qg393xj%7Cen-ID,
hotel,hotel,,,,SULAWESI TENGAH,,Indonesia,,,,,,https://maps.google.com/?cid=0x0:0xa237acbe2f3a6203%7C/g/1tdplczl%7Cen-ID,
hotel,hotel,Hôtel de Paris Opéra,"37 Rue de Maubeuge, 75009 Paris, Prancis",Paris,SULAWESI TENGAH,75009.0,Indonesia,33148783449.0,,,48.8787561,2.3459915,https://maps.google.com/?cid=0x0:0xa237acbe2f3a6203,
hotel,hotel,Le Regent Montmartre,"37 Blvd Marguerite de Rochechouart, 75009 Paris, Prancis",Paris,SULAWESI TENGAH,75009.0,Indonesia,33148782400.0,,,48.8827959,2.3450615,https://maps.google.com/?cid=0x0:0x9c8dea180598517,
hotel,hotel,Hôtel CHEVALLIER,"67 Rue Louis Rouquier, 92300 Levallois-Perret, Prancis",Levallois-Perret,SULAWESI TENGAH,92300.0,Indonesia,33147587982.0,,,48.891373,2.288138,https://maps.google.com/?cid=0x0:0x2b080195f4fecc67,
hotel,hotel,,,,SULAWESI TENGAH,,Indonesia,,,,,,https://maps.google.com/?cid=0x0:0x9c8dea180598517%7C/g/11bwkdmrv8%7Cen-ID,
hotel,hotel,,,,SULAWESI TENGAH,,Indonesia,,,,,,https://maps.google.com/?cid=0x0:0x9e46c03c191f085d%7C/g/1tfgck1t%7Cen-ID,
hotel,hotel,Hotel Antin Saint Georges,"21 Rue Notre Dame de Lorette, 75009 Paris, Prancis",Paris,SULAWESI TENGAH,75009.0,Indonesia,33148786047.0,,,48.8779554,2.3378432,https://maps.google.com/?cid=0x0:0x9e46c03c191f085d,
hotel,hotel,JOJOE Paris Gentilly,"89-93 Av. Paul Vaillant Couturier, 94250 Gentilly, Prancis",Gentilly,SULAWESI TENGAH,94250.0,Indonesia,33184233760.0,,,48.8163491,2.3382857,https://maps.google.com/?cid=0x0:0x196cc051f6af8d4b,
hotel,hotel,,,,SULAWESI TENGAH,,Indonesia,,,,,,https://maps.google.com/?cid=0x0:0x196cc051f6af8d4b%7C/g/11gy1twcgz%7Cen-ID,
hotel,hotel,,,,SULAWESI TENGAH,,Indonesia,,,,,,https://maps.google.com/?cid=0x0:0xc223495d404babf3%7C/g/11lrn0k4vy%7Cen-ID,
hotel,hotel,The People Paris Nation,"28 Bis Pl. de la Nation, 75012 Paris, Prancis",Paris,SULAWESI TENGAH,75012.0,Indonesia,33978362028.0,,,48.8477131,2.3973172,https://maps.google.com/?cid=0x0:0xc223495d404babf3,
hotel,hotel,Paris Hôtel,"3 Rue Henri Poincaré, 92110 Clichy, Prancis",Clichy,SULAWESI TENGAH,92110.0,Indonesia,33972575352.0,,,48.9020943,2.3131208,https://maps.google.com/?cid=0x0:0xf002a43471c411f3,
hotel,hotel,,,,SULAWESI TENGAH,,Indonesia,,,,,,https://maps.google.com/?cid=0x0:0x177221821cbec893%7C/g/1q5bp6njy%7Cen-ID,
hotel,hotel,Auberge de jeunesse Fourcy - MIJE Marais,"6 Rue de Fourcy, 75004 Paris, Prancis",Paris,SULAWESI TENGAH,75004.0,Indonesia,33142742345.0,,,48.8546192,2.3591694,https://maps.google.com/?cid=0x0:0x177221821cbec893,
hotel,hotel,A La Pinte du Nord,"38 Rue de Saint-Quentin, 75010 Paris, Prancis",Paris,SULAWESI TENGAH,75010.0,Indonesia,33145261189.0,,,48.8794141,2.3559951,https://maps.google.com/?cid=0x0:0x48b8e92770c33f27,
hotel,hotel,Parigi,"Masigi, Kec. Parigi, Kabupaten Parigi Moutong, Sulawesi Tengah","Kabupaten Parigi Moutong, Sulawesi Tengah",SULAWESI TENGAH,,Indonesia,,,,-0.819175,120.167297,https://maps.google.com/?cid=0x0:0x28e4c1487f7d5d74,
hotel,hotel,Hotel Oktaria Parigi Moutong,"Masigi, Kec. Parigi, Kabupaten Parigi Moutong, Sulawesi Tengah 94471","Kec. Parigi, Kabupaten Parigi Moutong",SULAWESI TENGAH,94471.0,Indonesia,81354321282.0,,,-0.8136588,120.1666225,https://maps.google.com/?cid=0x0:0x6a8a2e7918e60294,
hotel,hotel,Cameloan Hotel,"Jalan Tanjung Tururuka No. 43 Lolu Selatan, Tatura Utara, Kec. Palu Sel., Kota Palu, Sulawesi Tengah 94111","Tatura Utara, Kec. Palu Sel., Kota Palu",SULAWESI TENGAH,94111.0,Indonesia,895417300072.0,,,-0.9072941,119.8842516,https://maps.google.com/?cid=0x0:0x99e6316eb17d703b,
hotel,hotel,Grand Mitra Hotel Masigi,"Jl. Finono No.Desa, Masigi, Kec. Parigi, Kabupaten Parigi Moutong, Sulawesi Tengah 94471","Masigi, Kec. Parigi, Kabupaten Parigi Moutong",SULAWESI TENGAH,94471.0,Indonesia,82197411785.0,,,-0.8147303,120.1686227,https://maps.google.com/?cid=0x0:0x25f2d8e26d6eeadd,
hotel,hotel,ASMORA HOTEL,"Moutong Tengah, Kec. Moutong, Kabupaten Parigi Moutong, Sulawesi Tengah 94479","Kec. Moutong, Kabupaten Parigi Moutong",SULAWESI TENGAH,94479.0,Indonesia,82348260424.0,,,0.4649994,121.2306823,https://maps.google.com/?cid=0x0:0x652a10a595e4fb4,
hotel,hotel,Paris,Prancis,"Paris, Prancis",SULAWESI TENGAH,,Indonesia,,,,48.8575475,2.3513765,https://maps.google.com/?cid=0x0:0x40b82c3688c9460,
hotel,hotel,ibis budget Paris Porte de Bercy,"Paris Bercy 2, 2 Pl. de l'Europe, 94220 Charenton-le-Pont, Prancis",Charenton-le-Pont,SULAWESI TENGAH,94220.0,Indonesia,33892680671.0,,,48.8253575,2.3936953,https://maps.google.com/?cid=0x0:0x9821a421c5564a8c,
hotel,hotel,,,,SULAWESI TENGAH,,Indonesia,,,,,,https://maps.google.com/?cid=0x0:0x9821a421c5564a8c%7C/g/11cm_ht_zp%7Cen-ID,
hotel,hotel,The People Paris Marais,"17 Bd Morland, 75004 Paris, Prancis",Paris,SULAWESI TENGAH,75004.0,Indonesia,33181224088.0,,,48.8501827,2.3629828,https://maps.google.com/?cid=0x0:0x651a57f6d128211c,
hotel,hotel,,,,SULAWESI TENGAH,,Indonesia,,,,,,https://maps.google.com/?cid=0x0:0x651a57f6d128211c%7C/g/11rt_s4vz4%7Cen-ID,
hotel,hotel,St Christopher's Inn Paris Gare du Nord,"5 Rue de Dunkerque, 75010 Paris, Prancis",Paris,SULAWESI TENGAH,75010.0,Indonesia,33170085222.0,,,48.8793378,2.3580637,https://maps.google.com/?cid=0x0:0xe3e194aebc4d3970,
hotel,hotel,,,,SULAWESI TENGAH,,Indonesia,,,,,,https://maps.google.com/?cid=0x0:0xe3e194aebc4d3970%7C/g/12qg393xj%7Cen-ID,
hotel,hotel,Hôtel de Paris Opéra,"37 Rue de Maubeuge, 75009 Paris, Prancis",Paris,SULAWESI TENGAH,75009.0,Indonesia,33148783449.0,,,48.8787561,2.3459915,https://maps.google.com/?cid=0x0:0xa237acbe2f3a6203,
hotel,hotel,,,,SULAWESI TENGAH,,Indonesia,,,,,,https://maps.google.com/?cid=0x0:0xa237acbe2f3a6203%7C/g/1tdplczl%7Cen-ID,
hotel,hotel,Le Regent Montmartre,"37 Blvd Marguerite de Rochechouart, 75009 Paris, Prancis",Paris,SULAWESI TENGAH,75009.0,Indonesia,33148782400.0,,,48.8827959,2.3450615,https://maps.google.com/?cid=0x0:0x9c8dea180598517,
hotel,hotel,,,,SULAWESI TENGAH,,Indonesia,,,,,,https://maps.google.com/?cid=0x0:0x9c8dea180598517%7C/g/11bwkdmrv8%7Cen-ID,
hotel,hotel,Hôtel CHEVALLIER,"67 Rue Louis Rouquier, 92300 Levallois-Perret, Prancis",Levallois-Perret,SULAWESI TENGAH,92300.0,Indonesia,33147587982.0,,,48.891373,2.288138,https://maps.google.com/?cid=0x0:0x2b080195f4fecc67,
hotel,hotel,,,,SULAWESI TENGAH,,Indonesia,,,,,,https://maps.google.com/?cid=0x0:0x9e46c03c191f085d%7C/g/1tfgck1t%7Cen-ID,
hotel,hotel,Hotel Antin Saint Georges,"21 Rue Notre Dame de Lorette, 75009 Paris, Prancis",Paris,SULAWESI TENGAH,75009.0,Indonesia,33148786047.0,,,48.8779554,2.3378432,https://maps.google.com/?cid=0x0:0x9e46c03c191f085d,
hotel,hotel,The People Paris Nation,"28 Bis Pl. de la Nation, 75012 Paris, Prancis",Paris,SULAWESI TENGAH,75012.0,Indonesia,33978362028.0,,,48.8477131,2.3973172,https://maps.google.com/?cid=0x0:0xc223495d404babf3,
hotel,hotel,,,,SULAWESI TENGAH,,Indonesia,,,,,,https://maps.google.com/?cid=0x0:0xc223495d404babf3%7C/g/11lrn0k4vy%7Cen-ID,
hotel,hotel,Paris Hôtel,"3 Rue Henri Poincaré, 92110 Clichy, Prancis",Clichy,SULAWESI TENGAH,92110.0,Indonesia,33972575352.0,,,48.9020943,2.3131208,https://maps.google.com/?cid=0x0:0xf002a43471c411f3,
hotel,hotel,Auberge de jeunesse Fourcy - MIJE Marais,"6 Rue de Fourcy, 75004 Paris, Prancis",Paris,SULAWESI TENGAH,75004.0,Indonesia,33142742345.0,,,48.8546192,2.3591694,https://maps.google.com/?cid=0x0:0x177221821cbec893,
hotel,hotel,,,,SULAWESI TENGAH,,Indonesia,,,,,,https://maps.google.com/?cid=0x0:0x177221821cbec893%7C/g/1q5bp6njy%7Cen-ID,
hotel,hotel,A La Pinte du Nord,"38 Rue de Saint-Quentin, 75010 Paris, Prancis",Paris,SULAWESI TENGAH,75010.0,Indonesia,33145261189.0,,,48.8794141,2.3559951,https://maps.google.com/?cid=0x0:0x48b8e92770c33f27,
hotel,hotel,Chez Coffice,"79 Rue de Patay, 75013 Paris, Prancis",Paris,SULAWESI TENGAH,75013.0,Indonesia,,,,48.826648,2.3726351,https://maps.google.com/?cid=0x0:0xb41e5b0866600860,
hotel,hotel,,,,SULAWESI TENGAH,,Indonesia,,,,,,https://maps.google.com/?cid=0x0:0x68722096a1aa5c0d%7C/g/1n09xs9lk%7Cen-ID,
hotel,hotel,Paris France Hotel,"72 R. de Turbigo, 75003 Paris, Prancis",Paris,SULAWESI TENGAH,75003.0,Indonesia,33142780004.0,,,48.8663414,2.3606007,https://maps.google.com/?cid=0x0:0x68722096a1aa5c0d,
hotel,hotel,Kec. Parigi Bar.,"Kabupaten Parigi Moutong, Sulawesi Tengah","Kabupaten Parigi Moutong, Sulawesi Tengah",SULAWESI TENGAH,,Indonesia,,,,-0.8138741,120.1568479,https://maps.google.com/?cid=0x0:0x5efb286888bb53a2,
hotel,hotel,Hotel Oktaria Parigi Moutong,"Masigi, Kec. Parigi, Kabupaten Parigi Moutong, Sulawesi Tengah 94471","Kec. Parigi, Kabupaten Parigi Moutong",SULAWESI TENGAH,94471.0,Indonesia,81354321282.0,,,-0.8136588,120.1666225,https://maps.google.com/?cid=0x0:0x6a8a2e7918e60294,
hotel,hotel,Cameloan Hotel,"Jalan Tanjung Tururuka No. 43 Lolu Selatan, Tatura Utara, Kec. Palu Sel., Kota Palu, Sulawesi Tengah 94111","Tatura Utara, Kec. Palu Sel., Kota Palu",SULAWESI TENGAH,94111.0,Indonesia,895417300072.0,,,-0.9072941,119.8842516,https://maps.google.com/?cid=0x0:0x99e6316eb17d703b,
hotel,hotel,,,,SULAWESI TENGAH,,Indonesia,,,,,,https://maps.google.com/?cid=0x0:0x99e6316eb17d703b%7C/g/11bxc7261n%7Cen-ID,
hotel,hotel,HOTEL FAAWAZ,"Baka, Tinangkung, Kabupaten Banggai Kepulauan, Sulawesi Tengah 94885","Tinangkung, Kabupaten Banggai Kepulauan",SULAWESI TENGAH,94885.0,Indonesia,82290539907.0,,,-1.3147929,123.2913921,https://maps.google.com/?cid=0x0:0xac756b05058fb9ba,
hotel,hotel,New Sentral Hotel,"Jl. Wolter Monginsidi No.71, RW.73, Lolu Sel., Kec. Palu Sel., Kota Palu, Sulawesi Tengah 94111","RW.73, Lolu Sel., Kec. Palu Sel., Kota Palu",SULAWESI TENGAH,94111.0,Indonesia,82363888333.0,,,-0.9035805,119.8747179,https://maps.google.com/?cid=0x0:0x51a9164bbc750c6f,
hotel,hotel,ASMORA HOTEL,"Moutong Tengah, Kec. Moutong, Kabupaten Parigi Moutong, Sulawesi Tengah 94479","Kec. Moutong, Kabupaten Parigi Moutong",SULAWESI TENGAH,94479.0,Indonesia,82348260424.0,,,0.4649994,121.2306823,https://maps.google.com/?cid=0x0:0x652a10a595e4fb4,
hotel,hotel,Sulawesi Tengah 94471,"Kec. Parigi, Kabupaten Parigi Moutong, Sulawesi Tengah","Kabupaten Parigi Moutong, Sulawesi Tengah",SULAWESI TENGAH,,Indonesia,,,,-0.8826431,120.112735,https://maps.google.com/?cid=0x0:0x3ecc456c52911a2f,
hotel,hotel,Hotel Oktaria Parigi Moutong,"Masigi, Kec. Parigi, Kabupaten Parigi Moutong, Sulawesi Tengah 94471","Kec. Parigi, Kabupaten Parigi Moutong",SULAWESI TENGAH,94471.0,Indonesia,81354321282.0,,,-0.8136588,120.1666225,https://maps.google.com/?cid=0x0:0x6a8a2e7918e60294,
hotel,hotel,,,,SULAWESI TENGAH,,Indonesia,,,,,,https://maps.google.com/?cid=0x0:0x99e6316eb17d703b%7C/g/11bxc7261n%7Cen-ID,
hotel,hotel,Grand Mitra Hotel Masigi,"Jl. Finono No.Desa, Masigi, Kec. Parigi, Kabupaten Parigi Moutong, Sulawesi Tengah 94471","Masigi, Kec. Parigi, Kabupaten Parigi Moutong",SULAWESI TENGAH,94471.0,Indonesia,82197411785.0,,,-0.8147303,120.1686227,https://maps.google.com/?cid=0x0:0x25f2d8e26d6eeadd,
hotel,hotel,ASMORA HOTEL,"Moutong Tengah, Kec. Moutong, Kabupaten Parigi Moutong, Sulawesi Tengah 94479","Kec. Moutong, Kabupaten Parigi Moutong",SULAWESI TENGAH,94479.0,Indonesia,82348260424.0,,,0.4649994,121.2306823,https://maps.google.com/?cid=0x0:0x652a10a595e4fb4,
hotel,hotel,Kec. Parigi Tengah,"Kabupaten Parigi Moutong, Sulawesi Tengah","Kabupaten Parigi Moutong, Sulawesi Tengah",SULAWESI TENGAH,,Indonesia,,,,-0.7594241,120.1214945,https://maps.google.com/?cid=0x0:0xc5fae55e12835d4d,
hotel,hotel,Hotel Oktaria Parigi Moutong,"Masigi, Kec. Parigi, Kabupaten Parigi Moutong, Sulawesi Tengah 94471","Kec. Parigi, Kabupaten Parigi Moutong",SULAWESI TENGAH,94471.0,Indonesia,81354321282.0,,,-0.8136588,120.1666225,https://maps.google.com/?cid=0x0:0x6a8a2e7918e60294,
hotel,hotel,KHAS Palu Hotel,"Jl. Zebra I, Birobuli Utara, Kec. Palu Sel., Kota Palu, Sulawesi Tengah 94231","Birobuli Utara, Kec. Palu Sel., Kota Palu",SULAWESI TENGAH,94231.0,Indonesia,82189813411.0,,,-0.9230481,119.8854046,https://maps.google.com/?cid=0x0:0xf4e0383ed6d8b5b4,
hotel,hotel,,,,SULAWESI TENGAH,,Indonesia,,,,,,https://maps.google.com/?cid=0x0:0xca450264fd44ad2%7C/g/11b8_sbyr8%7Cen-ID,
hotel,hotel,Villa Sutan Raja Palu,"Jl. Hang Tuah, Talise, Kec. Palu Tim., Kota Palu, Sulawesi Tengah 94118","Talise, Kec. Palu Tim., Kota Palu",SULAWESI TENGAH,94118.0,Indonesia,81145602134.0,,,-0.8751089,119.8831048,https://maps.google.com/?cid=0x0:0xbd925546f80e9deb,
hotel,hotel,MEDIO INN HOTEL,"Jl. Tj. Harapan No.2, Tatura Utara, Kec. Palu Sel., Kota Palu, Sulawesi Tengah 94111","Tatura Utara, Kec. Palu Sel., Kota Palu",SULAWESI TENGAH,94111.0,Indonesia,895417300072.0,,,-0.9083623,119.8840933,https://maps.google.com/?cid=0x0:0xce8abd1d91179967,
hotel,hotel,Best Western Plus Coco Palu,"Jl. Basuki Rahmat, Birobuli Utara, Kec. Palu Sel., Kota Palu, Sulawesi Tengah 94111","Birobuli Utara, Kec. Palu Sel., Kota Palu",SULAWESI TENGAH,94111.0,Indonesia,451481500.0,,,-0.9192089,119.8872921,https://maps.google.com/?cid=0x0:0x695b6e0ad9a54dcd,
hotel,hotel,,,,SULAWESI TENGAH,,Indonesia,,,,,,https://maps.google.com/?cid=0x0:0x695b6e0ad9a54dcd%7C/g/11c20bwmmy%7Cen-ID,
hotel,hotel,Jazz Hotel,"Jl. Zebra II No.11, Birobuli Utara, Kec. Palu Sel., Kota Palu, Sulawesi Tengah 94231","Birobuli Utara, Kec. Palu Sel., Kota Palu",SULAWESI TENGAH,94231.0,Indonesia,85184521100.0,,,-0.9236372,119.8859911,https://maps.google.com/?cid=0x0:0xb8dead7bb79d3ad6,
hotel,hotel,Cameloan Hotel,"Jalan Tanjung Tururuka No. 43 Lolu Selatan, Tatura Utara, Kec. Palu Sel., Kota Palu, Sulawesi Tengah 94111","Tatura Utara, Kec. Palu Sel., Kota Palu",SULAWESI TENGAH,94111.0,Indonesia,895417300072.0,,,-0.9072941,119.8842516,https://maps.google.com/?cid=0x0:0x99e6316eb17d703b,
hotel,hotel,,,,SULAWESI TENGAH,,Indonesia,,,,,,https://maps.google.com/?cid=0x0:0x99e6316eb17d703b%7C/g/11bxc7261n%7Cen-ID,
hotel,hotel,Hotel Helsinki Palu,"Jl. Batavia No.7, Birobuli Utara, Kec. Palu Sel., Kota Palu, Sulawesi Tengah 94116","Birobuli Utara, Kec. Palu Sel., Kota Palu",SULAWESI TENGAH,94116.0,Indonesia,82113555520.0,,,-0.9119132,119.8981128,https://maps.google.com/?cid=0x0:0x9e32499b4b2c696d,
hotel,hotel,Bamboo House,"Jl. Kaluku Dasa, Tanamodindi, Kec. Mantikulore, Kota Palu, Sulawesi Tengah 94111","Tanamodindi, Kec. Mantikulore, Kota Palu",SULAWESI TENGAH,94111.0,Indonesia,81949638768.0,,,-0.8986542,119.899002,https://maps.google.com/?cid=0x0:0x23c5670e156328d6,
hotel,hotel,OYO 3240 Ininnawa Homestay,"Birobuli Utara, Kec. Palu Sel., Kota Palu, Sulawesi Tengah 94111","Kec. Palu Sel., Kota Palu",SULAWESI TENGAH,94111.0,Indonesia,2129707601.0,,,-0.9160601,119.8943153,https://maps.google.com/?cid=0x0:0xa3b25e4eec612d8f,
hotel,hotel,,,,SULAWESI TENGAH,,Indonesia,,,,,,https://maps.google.com/?cid=0x0:0xa3b25e4eec612d8f%7C/g/11gdvqpsk0%7Cen-ID,
hotel,hotel,Grand Mitra Hotel Masigi,"Jl. Finono No.Desa, Masigi, Kec. Parigi, Kabupaten Parigi Moutong, Sulawesi Tengah 94471","Masigi, Kec. Parigi, Kabupaten Parigi Moutong",SULAWESI TENGAH,94471.0,Indonesia,82197411785.0,,,-0.8147303,120.1686227,https://maps.google.com/?cid=0x0:0x25f2d8e26d6eeadd,
hotel,hotel,Tanjung Angin Guest House,"Jl. Tj. Angin No.3, Tatura Utara, Kec. Palu Sel., Kota Palu, Sulawesi Tengah 94111","Tatura Utara, Kec. Palu Sel., Kota Palu",SULAWESI TENGAH,94111.0,Indonesia,81388311122.0,,,-0.9097049,119.8890692,https://maps.google.com/?cid=0x0:0xe350b78d3c1e4375,
hotel,hotel,Hotel Aramas Palu,"Jl. Anoa No.33, Tatura Utara, Kec. Palu Sel., Kota Palu, Sulawesi Tengah 94111","Tatura Utara, Kec. Palu Sel., Kota Palu",SULAWESI TENGAH,94111.0,Indonesia,4514016021.0,,,-0.9127311,119.8842105,https://maps.google.com/?cid=0x0:0x9201e5a56144cdac,
hotel,hotel,Rego Hotel,"Jl. Tj. Balantak No.11A, Lolu Sel., Kec. Palu Sel., Kota Palu, Sulawesi Tengah 94235","Lolu Sel., Kec. Palu Sel., Kota Palu",SULAWESI TENGAH,94235.0,Indonesia,8114515600.0,,,-0.9039248,119.8851035,https://maps.google.com/?cid=0x0:0x702c95e4f44253ff,
hotel,hotel,Yuma Homestay,"Jl. Banteng 1 Jl. Pelanduk, Birobuli Sel., Kec. Palu Sel., Kota Palu, Sulawesi Tengah 94235","Birobuli Sel., Kec. Palu Sel., Kota Palu",SULAWESI TENGAH,94235.0,Indonesia,895417300072.0,,,-0.9278337,119.8918239,https://maps.google.com/?cid=0x0:0xd2b98afd55c9815d,
hotel,hotel,RedDoorz near Taman Makam Pahlawan Tatura,"Tatura Utara, Kec. Palu Sel., Kota Palu, Sulawesi Tengah 94111","Kec. Palu Sel., Kota Palu",SULAWESI TENGAH,94111.0,Indonesia,895417300072.0,,,-0.9143546,119.8823704,https://maps.google.com/?cid=0x0:0xf6187b9bb67f9972,
hotel,hotel,RedDoorz @ Hotel Bumi Palupy,"Jl. Mangunsarkoro Jl. Juanda No.21, Besusu Tim., Kec. Palu Tim., Kota Palu, Sulawesi Tengah 94118","Besusu Tim., Kec. Palu Tim., Kota Palu",SULAWESI TENGAH,94118.0,Indonesia,895417300072.0,,,-0.8950279,119.883774,https://maps.google.com/?cid=0x0:0xce6935cb01a2b754,
hotel,hotel,Fidelia Homestay,"Jl. Zebra 1A No.84, Tatura Sel., Kec. Palu Sel., Kota Palu, Sulawesi Tengah 94111","Tatura Sel., Kec. Palu Sel., Kota Palu",SULAWESI TENGAH,94111.0,Indonesia,81949638768.0,,,-0.9229813,119.8924408,https://maps.google.com/?cid=0x0:0xa75ff301422fd6dd,
hotel,hotel,RedDoorz near Mutiara SIS Al Jufrie Airport Palu,"Jl. Zebra IV, Tatura Sel., Kec. Palu Sel., Kota Palu, Sulawesi Tengah 94111","Tatura Sel., Kec. Palu Sel., Kota Palu",SULAWESI TENGAH,94111.0,Indonesia,895417300072.0,,,-0.9250068,119.8859206,https://maps.google.com/?cid=0x0:0x68ff3c761617a5d0,
hotel,hotel,Kec. Parigi Utara,"Kabupaten Parigi Moutong, Sulawesi Tengah","Kabupaten Parigi Moutong, Sulawesi Tengah",SULAWESI TENGAH,,Indonesia,,,,-0.7092868,120.0944431,https://maps.google.com/?cid=0x0:0xd02aa048b405070e,
hotel,hotel,MEDIO INN HOTEL,"Jl. Tj. Harapan No.2, Tatura Utara, Kec. Palu Sel., Kota Palu, Sulawesi Tengah 94111","Tatura Utara, Kec. Palu Sel., Kota Palu",SULAWESI TENGAH,94111.0,Indonesia,895417300072.0,,,-0.9083623,119.8840933,https://maps.google.com/?cid=0x0:0xce8abd1d91179967,
hotel,hotel,Hotel Oktaria Parigi Moutong,"Masigi, Kec. Parigi, Kabupaten Parigi Moutong, Sulawesi Tengah 94471","Kec. Parigi, Kabupaten Parigi Moutong",SULAWESI TENGAH,94471.0,Indonesia,81354321282.0,,,-0.8136588,120.1666225,https://maps.google.com/?cid=0x0:0x6a8a2e7918e60294,
hotel,hotel,Palu Golden Hotel,"4V89+695, Jl. Raden Saleh No.1, Besusu Bar., Kec. Palu Tim., Kota Palu, Sulawesi Tengah 94118","Jl. Raden Saleh No.1, Besusu Bar., Kec. Palu Tim., Kota Palu",SULAWESI TENGAH,94118.0,Indonesia,4518456565.0,,,-0.88487,119.8687019,https://maps.google.com/?cid=0x0:0x1b1f92d71b1f63e2,
hotel,hotel,Aston Palu Hotel  Conference Centre,"Jl. Wolter Monginsidi No.60, Lolu Sel., Kec. Palu Sel., Kota Palu, Sulawesi Tengah 94111","Lolu Sel., Kec. Palu Sel., Kota Palu",SULAWESI TENGAH,94111.0,Indonesia,4514050027.0,,,-0.9048202,119.8746287,https://maps.google.com/?cid=0x0:0x781397a7cd0921a5,
hotel,hotel,Jazz Hotel,"Jl. Zebra II No.11, Birobuli Utara, Kec. Palu Sel., Kota Palu, Sulawesi Tengah 94231","Birobuli Utara, Kec. Palu Sel., Kota Palu",SULAWESI TENGAH,94231.0,Indonesia,85184521100.0,,,-0.9236372,119.8859911,https://maps.google.com/?cid=0x0:0xb8dead7bb79d3ad6,
hotel,hotel,Villa Sutan Raja Palu,"Jl. Hang Tuah, Talise, Kec. Palu Tim., Kota Palu, Sulawesi Tengah 94118","Talise, Kec. Palu Tim., Kota Palu",SULAWESI TENGAH,94118.0,Indonesia,81145602134.0,,,-0.8751089,119.8831048,https://maps.google.com/?cid=0x0:0xbd925546f80e9deb,
hotel,hotel,Sutan Raja Hotel  Convention Palu,"Jl. DR. Abdurrahman Saleh No.45, Birobuli Utara, Kec. Palu Sel., Kota Palu, Sulawesi Tengah 94111","Birobuli Utara, Kec. Palu Sel., Kota Palu",SULAWESI TENGAH,94111.0,Indonesia,811412136.0,,,-0.9189474,119.8979311,https://maps.google.com/?cid=0x0:0xca450264fd44ad2,
hotel,hotel,,,,SULAWESI TENGAH,,Indonesia,,,,,,https://maps.google.com/?cid=0x0:0xca450264fd44ad2%7C/g/11b8_sbyr8%7Cen-ID,
hotel,hotel,Best Western Plus Coco Palu,"Jl. Basuki Rahmat, Birobuli Utara, Kec. Palu Sel., Kota Palu, Sulawesi Tengah 94111","Birobuli Utara, Kec. Palu Sel., Kota Palu",SULAWESI TENGAH,94111.0,Indonesia,451481500.0,,,-0.9192089,119.8872921,https://maps.google.com/?cid=0x0:0x695b6e0ad9a54dcd,
hotel,hotel,,,,SULAWESI TENGAH,,Indonesia,,,,,,https://maps.google.com/?cid=0x0:0x695b6e0ad9a54dcd%7C/g/11c20bwmmy%7Cen-ID,
hotel,hotel,Lucky Hotel,"Jl. Sriwijaya No.29, Besusu Bar., Kec. Palu Tim., Kota Palu, Sulawesi Tengah 94111","Besusu Bar., Kec. Palu Tim., Kota Palu",SULAWESI TENGAH,94111.0,Indonesia,85368001300.0,,,-0.891144,119.8643353,https://maps.google.com/?cid=0x0:0x91f04fb13bc8ad6c,
hotel,hotel,Rama Garden Hotel,"Jl. Tj. Santigi No.26, Lolu Sel., Kec. Palu Sel., Kota Palu, Sulawesi Tengah 94111","Lolu Sel., Kec. Palu Sel., Kota Palu",SULAWESI TENGAH,94111.0,Indonesia,451429500.0,,,-0.9041211,119.8757338,https://maps.google.com/?cid=0x0:0xdc5d4dd832ef5ee5,
hotel,hotel,,,,SULAWESI TENGAH,,Indonesia,,,,,,https://maps.google.com/?cid=0x0:0xdc5d4dd832ef5ee5%7C/g/1tgtzrh3%7Cen-ID,
hotel,Hotel,Cameloan Hotel,"Jalan Tanjung Tururuka No. 43 Lolu Selatan, Tatura Utara, Kec. Palu Sel., Kota Palu, Sulawesi Tengah 94111","Tatura Utara, Kec. Palu Sel., Kota Palu",SULAWESI TENGAH,94111.0,Indonesia,895417300072.0,,,-0.9072941,119.8842516,https://maps.google.com/?cid=0x0:0x99e6316eb17d703b,
hotel,hotel,,,,SULAWESI TENGAH,,Indonesia,,,,,,https://maps.google.com/?cid=0x0:0x99e6316eb17d703b%7C/g/11bxc7261n%7Cen-ID,
hotel,hotel,Bamboo House,"Jl. Kaluku Dasa, Tanamodindi, Kec. Mantikulore, Kota Palu, Sulawesi Tengah 94111","Tanamodindi, Kec. Mantikulore, Kota Palu",SULAWESI TENGAH,94111.0,Indonesia,81949638768.0,,,-0.8986542,119.899002,https://maps.google.com/?cid=0x0:0x23c5670e156328d6,
hotel,Hotel bintang 2,Hotel Helsinki Palu,"Jl. Batavia No.7, Birobuli Utara, Kec. Palu Sel., Kota Palu, Sulawesi Tengah 94116","Birobuli Utara, Kec. Palu Sel., Kota Palu",SULAWESI TENGAH,94116.0,Indonesia,82113555520.0,,,-0.9119132,119.8981128,https://maps.google.com/?cid=0x0:0x9e32499b4b2c696d,
hotel,Hotel,OYO 3240 Ininnawa Homestay,"Birobuli Utara, Kec. Palu Sel., Kota Palu, Sulawesi Tengah 94111","Kec. Palu Sel., Kota Palu",SULAWESI TENGAH,94111.0,Indonesia,2129707601.0,,,-0.9160601,119.8943153,https://maps.google.com/?cid=0x0:0xa3b25e4eec612d8f,
hotel,hotel,,,,SULAWESI TENGAH,,Indonesia,,,,,,https://maps.google.com/?cid=0x0:0xa3b25e4eec612d8f%7C/g/11gdvqpsk0%7Cen-ID,
hotel,hotel,Hotel Kembang joyo palu,"3VPG+HC4, Jl. Emmy Saelan, Tatura Sel., Kec. Palu Sel., Kota Palu, Sulawesi Tengah 94111","Jl. Emmy Saelan, Tatura Sel., Kec. Palu Sel., Kota Palu",SULAWESI TENGAH,94111.0,Indonesia,8114404455.0,,,-0.9135625,119.8760625,https://maps.google.com/?cid=0x0:0x2774fefaeeceeba5,
hotel,hotel,Hotel RAJA AKAS,"Jl. Towua No.15, Tatura Sel., Kec. Palu Sel., Kota Palu, Sulawesi Tengah 94126","Tatura Sel., Kec. Palu Sel., Kota Palu",SULAWESI TENGAH,94126.0,Indonesia,,,,-0.9205053,119.8780032,https://maps.google.com/?cid=0x0:0xfdfbf5e71f8924ef,
hotel,hotel,Granada Inn,"Jl. Tanjung Karang No.38A, Tatura Utara, Kec. Palu Sel., Kota Palu, Sulawesi Tengah 94111","Tatura Utara, Kec. Palu Sel., Kota Palu",SULAWESI TENGAH,94111.0,Indonesia,82291207199.0,,,-0.9069043,119.8776272,https://maps.google.com/?cid=0x0:0x67f78d6ba81465c2,
hotel,hotel,HOTEL PAVILION,"Jl. Kimaja No.56, Besusu Bar., Kec. Palu Tim., Kota Palu, Sulawesi Tengah 94111","Besusu Bar., Kec. Palu Tim., Kota Palu",SULAWESI TENGAH,94111.0,Indonesia,8996954444.0,,,-0.892241,119.8648289,https://maps.google.com/?cid=0x0:0x14f7bc514b78e711,
hotel,hotel,,,,SULAWESI TENGAH,,Indonesia,,,,,,https://maps.google.com/?cid=0x0:0x14f7bc514b78e711%7C/g/11bwm6dysp%7Cen-ID,
hotel,hotel,Tanjung Angin Guest House,"Jl. Tj. Angin No.3, Tatura Utara, Kec. Palu Sel., Kota Palu, Sulawesi Tengah 94111","Tatura Utara, Kec. Palu Sel., Kota Palu",SULAWESI TENGAH,94111.0,Indonesia,81388311122.0,,,-0.9097049,119.8890692,https://maps.google.com/?cid=0x0:0xe350b78d3c1e4375,
hotel,hotel,Hotel Aramas Palu,"Jl. Anoa No.33, Tatura Utara, Kec. Palu Sel., Kota Palu, Sulawesi Tengah 94111","Tatura Utara, Kec. Palu Sel., Kota Palu",SULAWESI TENGAH,94111.0,Indonesia,4514016021.0,,,-0.9127311,119.8842105,https://maps.google.com/?cid=0x0:0x9201e5a56144cdac,
hotel,hotel,RedDoorz near Taman Makam Pahlawan Tatura,"Tatura Utara, Kec. Palu Sel., Kota Palu, Sulawesi Tengah 94111","Kec. Palu Sel., Kota Palu",SULAWESI TENGAH,94111.0,Indonesia,895417300072.0,,,-0.9143546,119.8823704,https://maps.google.com/?cid=0x0:0xf6187b9bb67f9972,
hotel,hotel,Sausu,"Sausu Gandasari, Kec. Sausu, Kabupaten Parigi Moutong, Sulawesi Tengah","Kabupaten Parigi Moutong, Sulawesi Tengah",SULAWESI TENGAH,,Indonesia,,,,-1.009792,120.4813,https://maps.google.com/?cid=0x0:0xa7f3ed9d6c2d9846,
hotel,hotel,Cameloan Hotel,"Jalan Tanjung Tururuka No. 43 Lolu Selatan, Tatura Utara, Kec. Palu Sel., Kota Palu, Sulawesi Tengah 94111","Tatura Utara, Kec. Palu Sel., Kota Palu",SULAWESI TENGAH,94111.0,Indonesia,895417300072.0,,,-0.9072941,119.8842516,https://maps.google.com/?cid=0x0:0x99e6316eb17d703b,
hotel,hotel,,,,SULAWESI TENGAH,,Indonesia,,,,,,https://maps.google.com/?cid=0x0:0x99e6316eb17d703b%7C/g/11bxc7261n%7Cen-ID,
hotel,hotel,,,,SULAWESI TENGAH,,Indonesia,,,,,,https://maps.google.com/?cid=0x0:0x674157881dbaefe4%7C/g/11r9j2h0w%7Cen-ID,
hotel,hotel,Hotel Aramas Palu,"Jl. Anoa No.33, Tatura Utara, Kec. Palu Sel., Kota Palu, Sulawesi Tengah 94111","Tatura Utara, Kec. Palu Sel., Kota Palu",SULAWESI TENGAH,94111.0,Indonesia,4514016021.0,,,-0.9127311,119.8842105,https://maps.google.com/?cid=0x0:0x9201e5a56144cdac,
hotel,hotel,Palu Plaza Hotel,"Jl. Danau Poso No.18, Siranindi, Kec. Palu Bar., Kota Palu, Sulawesi Tengah 94111","Siranindi, Kec. Palu Bar., Kota Palu",SULAWESI TENGAH,94111.0,Indonesia,8170084927.0,,,-0.9001512,119.8602525,https://maps.google.com/?cid=0x0:0x9ed2c3af6fbed954,
hotel,hotel,Hotel Oktaria Parigi Moutong,"Masigi, Kec. Parigi, Kabupaten Parigi Moutong, Sulawesi Tengah 94471","Kec. Parigi, Kabupaten Parigi Moutong",SULAWESI TENGAH,94471.0,Indonesia,81354321282.0,,,-0.8136588,120.1666225,https://maps.google.com/?cid=0x0:0x6a8a2e7918e60294,
hotel,hotel,RedDooz Plus @ Ininnawa Homestay Syariah Palu,"Jl. Merak Lrg. I No.41B, Birobuli Utara, Kec. Palu Sel., Kota Palu, Sulawesi Tengah 94111","Birobuli Utara, Kec. Palu Sel., Kota Palu",SULAWESI TENGAH,94111.0,Indonesia,895417300072.0,,,-0.9167547,119.8948801,https://maps.google.com/?cid=0x0:0x1cd328f658524830,
hotel,hotel,New Sentral Hotel,"Jl. Wolter Monginsidi No.71, RW.73, Lolu Sel., Kec. Palu Sel., Kota Palu, Sulawesi Tengah 94111","RW.73, Lolu Sel., Kec. Palu Sel., Kota Palu",SULAWESI TENGAH,94111.0,Indonesia,82363888333.0,,,-0.9035805,119.8747179,https://maps.google.com/?cid=0x0:0x51a9164bbc750c6f,
hotel,hotel,Victory Tentena,"Sangele, Pamona Pusalemba, Kabupaten Poso, Sulawesi Tengah 94663","Pamona Pusalemba, Kabupaten Poso",SULAWESI TENGAH,94663.0,Indonesia,81355118099.0,,,-1.7647027,120.6410843,https://maps.google.com/?cid=0x0:0x661b0a77c25f2b4a,
hotel,hotel,ASMORA HOTEL,"Moutong Tengah, Kec. Moutong, Kabupaten Parigi Moutong, Sulawesi Tengah 94479","Kec. Moutong, Kabupaten Parigi Moutong",SULAWESI TENGAH,94479.0,Indonesia,82348260424.0,,,0.4649994,121.2306823,https://maps.google.com/?cid=0x0:0x652a10a595e4fb4,
hotel,hotel,Guest House Asni,"Jalan MH. Thamrin Kelurahan No.68, Besusu Tim., Kec. Palu Tim., Kota Palu, Sulawesi Tengah 94118","Besusu Tim., Kec. Palu Tim., Kota Palu",SULAWESI TENGAH,94118.0,Indonesia,82293333716.0,,,-0.896302,119.8856077,https://maps.google.com/?cid=0x0:0xd1874ca38b9eb168,
hotel,Hotel,Penginapan Margalau,"55QF+2X8, Jl. Trans Sulawesi, Loji, Kec. Parigi, Kabupaten Parigi Moutong, Sulawesi Tengah 94471","Jl. Trans Sulawesi, Loji, Kec. Parigi, Kabupaten Parigi Moutong",SULAWESI TENGAH,94471.0,Indonesia,81341257697.0,,,-0.8124521,120.174944,https://maps.google.com/?cid=0x0:0x3c7ffcea512e4633,
hotel,Hotel,Penginapan Ipul,"55HG+34F, Mertasari, Kec. Parigi, Kabupaten Parigi Moutong, Sulawesi Tengah 94471","Mertasari, Kec. Parigi, Kabupaten Parigi Moutong",SULAWESI TENGAH,94471.0,Indonesia,8974390400.0,,,-0.8223071,120.1753026,https://maps.google.com/?cid=0x0:0xbe40670373df2804,
hotel,hotel,Kec. Siniu,"Kabupaten Parigi Moutong, Sulawesi Tengah","Kabupaten Parigi Moutong, Sulawesi Tengah",SULAWESI TENGAH,,Indonesia,,,,-0.5741689,120.0520235,https://maps.google.com/?cid=0x0:0x6dd4258bc2e74e42,
hotel,hotel,Cameloan Hotel,"Jalan Tanjung Tururuka No. 43 Lolu Selatan, Tatura Utara, Kec. Palu Sel., Kota Palu, Sulawesi Tengah 94111","Tatura Utara, Kec. Palu Sel., Kota Palu",SULAWESI TENGAH,94111.0,Indonesia,895417300072.0,,,-0.9072941,119.8842516,https://maps.google.com/?cid=0x0:0x99e6316eb17d703b,
hotel,hotel,,,,SULAWESI TENGAH,,Indonesia,,,,,,https://maps.google.com/?cid=0x0:0x99e6316eb17d703b%7C/g/11bxc7261n%7Cen-ID,
hotel,hotel,Hotel Kota,"3Q2Q+F75, Jl. S. Parman No.2, Luwuk, Kabupaten Banggai, Sulawesi Tengah 94711","Jl. S. Parman No.2, Luwuk, Kabupaten Banggai",SULAWESI TENGAH,94711.0,Indonesia,46121335.0,,,-0.9504929,122.791724,https://maps.google.com/?cid=0x0:0xde3019d7d6d0a23e,
hotel,hotel,HOTEL FAAWAZ,"Baka, Tinangkung, Kabupaten Banggai Kepulauan, Sulawesi Tengah 94885","Tinangkung, Kabupaten Banggai Kepulauan",SULAWESI TENGAH,94885.0,Indonesia,82290539907.0,,,-1.3147929,123.2913921,https://maps.google.com/?cid=0x0:0xac756b05058fb9ba,
hotel,hotel,Hotel Victory Ampana,"4HGH+MW8, Jl. Sungai Ampana No.11, Uentanaga Atas, Kec. Ampana Kota, Kabupaten Tojo Una-Una, Sulawesi Tengah 94683","Jl. Sungai Ampana No.11, Uentanaga Atas, Kec. Ampana Kota, Kabupaten Tojo Una-Una",SULAWESI TENGAH,94683.0,Indonesia,46421236.0,,,-0.8732832,121.5820535,https://maps.google.com/?cid=0x0:0x260eedc6013ab578,
hotel,hotel,ASMORA HOTEL,"Moutong Tengah, Kec. Moutong, Kabupaten Parigi Moutong, Sulawesi Tengah 94479","Kec. Moutong, Kabupaten Parigi Moutong",SULAWESI TENGAH,94479.0,Indonesia,82348260424.0,,,0.4649994,121.2306823,https://maps.google.com/?cid=0x0:0x652a10a595e4fb4,
hotel,hotel,Swiss-Belinn Luwuk,"Jl. Kantor DPRD Baru, Maahas, Luwuk, Kabupaten Banggai, Sulawesi Tengah 94711","Maahas, Luwuk, Kabupaten Banggai",SULAWESI TENGAH,94711.0,Indonesia,4613128600.0,,,-0.9879494,122.7860761,https://maps.google.com/?cid=0x0:0x6e2630f801c88a55,
hotel,hotel,Hotel Brizky,"Jl. RE Martadinata No.03, Tondo, Kec. Mantikulore, Kota Palu, Sulawesi Tengah 94111","Tondo, Kec. Mantikulore, Kota Palu",SULAWESI TENGAH,94111.0,Indonesia,4514012739.0,,,-0.8533987,119.8822596,https://maps.google.com/?cid=0x0:0x6a7e51b26d5e694d,
hotel,hotel,Victory Tentena,"Sangele, Pamona Pusalemba, Kabupaten Poso, Sulawesi Tengah 94663","Pamona Pusalemba, Kabupaten Poso",SULAWESI TENGAH,94663.0,Indonesia,81355118099.0,,,-1.7647027,120.6410843,https://maps.google.com/?cid=0x0:0x661b0a77c25f2b4a,
hotel,hotel,Penginapan Aladin,"Jl. Dr. Moh. Hatta, Maahas, Luwuk, Kabupaten Banggai, Sulawesi Tengah 94712","Maahas, Luwuk, Kabupaten Banggai",SULAWESI TENGAH,94712.0,Indonesia,82271635046.0,,,-0.9788364,122.7862404,https://maps.google.com/?cid=0x0:0xf0eb009da821e3b6,
hotel,hotel,Sibiu,Romania,"Sibiu, Romania",SULAWESI TENGAH,,Indonesia,,,,45.8034789,24.1449997,https://maps.google.com/?cid=0x0:0x3ade9d214e3390b4,
hotel,hotel,,,,SULAWESI TENGAH,,Indonesia,,,,,,https://maps.google.com/?cid=0x0:0x1c6edfc887d9720%7C/m/076twhn%7Cen-ID,
hotel,hotel,Continental Forum,"Piața Unirii 10, Sibiu 550173, Rumania",Sibiu,SULAWESI TENGAH,550173.0,Indonesia,40372692692.0,,,45.7922171,24.1479144,https://maps.google.com/?cid=0x0:0x1c6edfc887d9720,
hotel,hotel,,,,SULAWESI TENGAH,,Indonesia,,,,,,https://maps.google.com/?cid=0x0:0x2398d5061929910a%7C/g/11ckr627zq%7Cen-ID,
hotel,hotel,Hotel Apollo Central Sibiu,"Strada Nicolae Teclu 14, Sibiu 550200, Rumania",Sibiu,SULAWESI TENGAH,550200.0,Indonesia,40755084082.0,,,45.80216,24.1551644,https://maps.google.com/?cid=0x0:0x2398d5061929910a,
hotel,hotel,Hilton Sibiu,"Strada Pădurea Dumbrava 1, Sibiu 550399, Rumania",Sibiu,SULAWESI TENGAH,550399.0,Indonesia,40269505600.0,,,45.7604916,24.1269517,https://maps.google.com/?cid=0x0:0x255c873f4de56e67,
hotel,hotel,,,,SULAWESI TENGAH,,Indonesia,,,,,,https://maps.google.com/?cid=0x0:0x255c873f4de56e67%7C/g/1tlgwr87%7Cen-ID,
hotel,hotel,Hotel MyContinental Sibiu,"2-4, Calea Dumbrăvii, Sibiu 550324, Rumania","Calea Dumbrăvii, Sibiu",SULAWESI TENGAH,550324.0,Indonesia,40269218100.0,,,45.7897183,24.1491964,https://maps.google.com/?cid=0x0:0xaeafc85a78370ffd,
hotel,hotel,,,,SULAWESI TENGAH,,Indonesia,,,,,,https://maps.google.com/?cid=0x0:0x2025fcb6951074db%7C/g/1tdl9hmq%7Cen-ID,
hotel,hotel,Imparatul Romanilor Hotel,"Strada Nicolae Bălcescu 4, Sibiu 550159, Rumania",Sibiu,SULAWESI TENGAH,550159.0,Indonesia,40269216500.0,,,45.795572,24.150693,https://maps.google.com/?cid=0x0:0x2025fcb6951074db,
hotel,hotel,,,,SULAWESI TENGAH,,Indonesia,,,,,,https://maps.google.com/?cid=0x0:0x36a6a8d4eea3f63a%7C/g/11fls6jn_f%7Cen-ID,
hotel,hotel,Hotel Parc Sibiu,"Str. Școala de Înot 1-3, Sibiu 550005, Rumania",Sibiu,SULAWESI TENGAH,550005.0,Indonesia,40752272394.0,,,45.784532,24.1444789,https://maps.google.com/?cid=0x0:0x2355eb289551f46b,
hotel,hotel,Mercure,"Șoseaua Alba Iulia 120, Sibiu 550052, Rumania",Sibiu,SULAWESI TENGAH,550052.0,Indonesia,40269228875.0,,,45.7933005,24.1116046,https://maps.google.com/?cid=0x0:0x36a6a8d4eea3f63a,
hotel,hotel,,,,SULAWESI TENGAH,,Indonesia,,,,,,https://maps.google.com/?cid=0x0:0x2355eb289551f46b%7C/g/1tmgb6ly%7Cen-ID,
hotel,hotel,Hermanns Hotel Sibiu,"Calea Gușteriței 20, Sibiu 557260, Rumania",Sibiu,SULAWESI TENGAH,557260.0,Indonesia,40770407203.0,,,45.8013553,24.1689364,https://maps.google.com/?cid=0x0:0x4874beb788427f82,
hotel,hotel,Mercure Sibiu Arsenal,"Bulevardul Victoriei 48, Sibiu 550024, Rumania",Sibiu,SULAWESI TENGAH,550024.0,Indonesia,40744683097.0,,,45.7837656,24.1385577,https://maps.google.com/?cid=0x0:0x3cee0415dee541bc,
hotel,hotel,Exclusive Hotel  More,"Strada Ion Luca Caragiale 1A, Sibiu 550117, Rumania",Sibiu,SULAWESI TENGAH,550117.0,Indonesia,40369454601.0,,,45.8012606,24.1430569,https://maps.google.com/?cid=0x0:0x3e8f54a71c999906,
hotel,hotel,,,,SULAWESI TENGAH,,Indonesia,,,,,,https://maps.google.com/?cid=0x0:0x3e8f54a71c999906%7C/g/11b6spdwtj%7Cen-ID,
hotel,hotel,Kec. Taopa,"Kabupaten Parigi Moutong, Sulawesi Tengah","Kabupaten Parigi Moutong, Sulawesi Tengah",SULAWESI TENGAH,,Indonesia,,,,0.4559883,121.0731943,https://maps.google.com/?cid=0x0:0x46b6859f12488d16,
hotel,hotel,Hotel Oktaria Parigi Moutong,"Masigi, Kec. Parigi, Kabupaten Parigi Moutong, Sulawesi Tengah 94471","Kec. Parigi, Kabupaten Parigi Moutong",SULAWESI TENGAH,94471.0,Indonesia,81354321282.0,,,-0.8136588,120.1666225,https://maps.google.com/?cid=0x0:0x6a8a2e7918e60294,
hotel,hotel,HOTEL FAAWAZ,"Baka, Tinangkung, Kabupaten Banggai Kepulauan, Sulawesi Tengah 94885","Tinangkung, Kabupaten Banggai Kepulauan",SULAWESI TENGAH,94885.0,Indonesia,82290539907.0,,,-1.3147929,123.2913921,https://maps.google.com/?cid=0x0:0xac756b05058fb9ba,
hotel,hotel,Hotel Kota,"3Q2Q+F75, Jl. S. Parman No.2, Luwuk, Kabupaten Banggai, Sulawesi Tengah 94711","Jl. S. Parman No.2, Luwuk, Kabupaten Banggai",SULAWESI TENGAH,94711.0,Indonesia,46121335.0,,,-0.9504929,122.791724,https://maps.google.com/?cid=0x0:0xde3019d7d6d0a23e,
hotel,hotel,Sulawesi Tengah 94475,"Kabupaten Parigi Moutong, Sulawesi Tengah","Kabupaten Parigi Moutong, Sulawesi Tengah",SULAWESI TENGAH,,Indonesia,,,,0.2104538,120.0896313,https://maps.google.com/?cid=0x0:0xb849fa86cafee25e,
hotel,hotel,Cameloan Hotel,"Jalan Tanjung Tururuka No. 43 Lolu Selatan, Tatura Utara, Kec. Palu Sel., Kota Palu, Sulawesi Tengah 94111","Tatura Utara, Kec. Palu Sel., Kota Palu",SULAWESI TENGAH,94111.0,Indonesia,895417300072.0,,,-0.9072941,119.8842516,https://maps.google.com/?cid=0x0:0x99e6316eb17d703b,
hotel,hotel,,,,SULAWESI TENGAH,,Indonesia,,,,,,https://maps.google.com/?cid=0x0:0x99e6316eb17d703b%7C/g/11bxc7261n%7Cen-ID,
hotel,hotel,ASMORA HOTEL,"Moutong Tengah, Kec. Moutong, Kabupaten Parigi Moutong, Sulawesi Tengah 94479","Kec. Moutong, Kabupaten Parigi Moutong",SULAWESI TENGAH,94479.0,Indonesia,82348260424.0,,,0.4649994,121.2306823,https://maps.google.com/?cid=0x0:0x652a10a595e4fb4,
hotel,hotel,Hotel Oktaria Parigi Moutong,"Masigi, Kec. Parigi, Kabupaten Parigi Moutong, Sulawesi Tengah 94471","Kec. Parigi, Kabupaten Parigi Moutong",SULAWESI TENGAH,94471.0,Indonesia,81354321282.0,,,-0.8136588,120.1666225,https://maps.google.com/?cid=0x0:0x6a8a2e7918e60294,
hotel,hotel,Sulawesi Tengah 94475,"Kabupaten Parigi Moutong, Sulawesi Tengah","Kabupaten Parigi Moutong, Sulawesi Tengah",SULAWESI TENGAH,,Indonesia,,,,0.2104538,120.0896313,https://maps.google.com/?cid=0x0:0xb849fa86cafee25e,
hotel,hotel,Hotel Oktaria Parigi Moutong,"Masigi, Kec. Parigi, Kabupaten Parigi Moutong, Sulawesi Tengah 94471","Kec. Parigi, Kabupaten Parigi Moutong",SULAWESI TENGAH,94471.0,Indonesia,81354321282.0,,,-0.8136588,120.1666225,https://maps.google.com/?cid=0x0:0x6a8a2e7918e60294,
hotel,hotel,ASMORA HOTEL,"Moutong Tengah, Kec. Moutong, Kabupaten Parigi Moutong, Sulawesi Tengah 94479","Kec. Moutong, Kabupaten Parigi Moutong",SULAWESI TENGAH,94479.0,Indonesia,82348260424.0,,,0.4649994,121.2306823,https://maps.google.com/?cid=0x0:0x652a10a595e4fb4,
hotel,Motel,Penginapan maninili,"24V4+V52, Jl. Trans-Sulawesi, Maninili, Kec. Tinombo Sel., Kabupaten Parigi Moutong, Sulawesi Tengah 94475","Jl. Trans-Sulawesi, Maninili, Kec. Tinombo Sel., Kabupaten Parigi Moutong",SULAWESI TENGAH,94475.0,Indonesia,,,,0.04498,120.105606,https://maps.google.com/?cid=0x0:0x8904c6737520d06e,
hotel,Pondok,penginapan DB beach,"W26M+V6C, Jl. Trans-Sulawesi, Kec. Kasimbar, Kabupaten Parigi Moutong, Sulawesi Tengah","Kabupaten Parigi Moutong, Sulawesi Tengah",SULAWESI TENGAH,,Indonesia,82291692050.0,,,-0.0878115,120.0330084,https://maps.google.com/?cid=0x0:0xc6214e14ab5034c4,
hotel,Rumah wisata,Peginapan SIAGA BEACH,"Siaga, Kec. Tinombo Sel., Kabupaten Parigi Moutong, Sulawesi Tengah 94475","Kec. Tinombo Sel., Kabupaten Parigi Moutong",SULAWESI TENGAH,94475.0,Indonesia,85398939545.0,,,0.0421325,120.1034108,https://maps.google.com/?cid=0x0:0xd345f621f4ef142a,
hotel,Motel,Penginapan Angin Mamiri,"97PP+CR5, Tinombo, Kec. Tinombo, Kabupaten Parigi Moutong, Sulawesi Tengah 94476","Tinombo, Kec. Tinombo, Kabupaten Parigi Moutong",SULAWESI TENGAH,94476.0,Indonesia,81245187226.0,,,0.3860086,120.2871199,https://maps.google.com/?cid=0x0:0xdeb61448f863f4fb,
hotel,Penginapan Dalam Ruangan,KOS  TOKO DAYANA 2,"Tinombo, Kec. Tinombo, Kabupaten Parigi Moutong, Sulawesi Tengah 94475","Kec. Tinombo, Kabupaten Parigi Moutong",SULAWESI TENGAH,94475.0,Indonesia,82235412727.0,,,0.3866275,120.2845494,https://maps.google.com/?cid=0x0:0x3551b083a11fe931,
hotel,hotel,Kec. Tomini,"Kabupaten Parigi Moutong, Sulawesi Tengah","Kabupaten Parigi Moutong, Sulawesi Tengah",SULAWESI TENGAH,,Indonesia,,,,0.5227421,120.5939265,https://maps.google.com/?cid=0x0:0xa4a875d85875c358,
hotel,hotel,Cameloan Hotel,"Jalan Tanjung Tururuka No. 43 Lolu Selatan, Tatura Utara, Kec. Palu Sel., Kota Palu, Sulawesi Tengah 94111","Tatura Utara, Kec. Palu Sel., Kota Palu",SULAWESI TENGAH,94111.0,Indonesia,895417300072.0,,,-0.9072941,119.8842516,https://maps.google.com/?cid=0x0:0x99e6316eb17d703b,
hotel,hotel,,,,SULAWESI TENGAH,,Indonesia,,,,,,https://maps.google.com/?cid=0x0:0x99e6316eb17d703b%7C/g/11bxc7261n%7Cen-ID,
hotel,,Sail Tomini Hotel,"55HF+JGR, Nyiur Indah, Maesa, Kec. Parigi, Kabupaten Parigi Moutong, Sulawesi Tengah 94471","Nyiur Indah, Maesa, Kec. Parigi, Kabupaten Parigi Moutong",SULAWESI TENGAH,94471.0,Indonesia,82291493571.0,,,-0.8208865,120.1737715,https://maps.google.com/?cid=0x0:0x7e524b99e8c6cf12,
hotel,Hotel,HOTEL INTAN MOUTONG,"Jl. Borman No.22, Moutong Tengah, Kec. Moutong, Kabupaten Parigi Moutong, Sulawesi Tengah","Kabupaten Parigi Moutong, Sulawesi Tengah",SULAWESI TENGAH,,Indonesia,82192052614.0,,,0.4616926,121.2327478,https://maps.google.com/?cid=0x0:0xc4a2e6bdd86e1277,
hotel,Taman,Pantai Kayu Bura,"7465+RXM, Pelawa Baru, Kec. Parigi Tengah, Kabupaten Parigi Moutong, Sulawesi Tengah","Kabupaten Parigi Moutong, Sulawesi Tengah",SULAWESI TENGAH,,Indonesia,,,,-0.7379244,120.1099299,https://maps.google.com/?cid=0x0:0xc8025f2fe28043fe,
hotel,Hotel,Hotel Asni,"Penginapan Asni, Kampal, Kec. Parigi, Kabupaten Parigi Moutong, Sulawesi Tengah 94471","Kampal, Kec. Parigi, Kabupaten Parigi Moutong",SULAWESI TENGAH,94471.0,Indonesia,85342624430.0,,,-0.8013125,120.1725625,https://maps.google.com/?cid=0x0:0x58371857d46bf2c9,
hotel,hotel,Holiday Inn,"Jl. Jababeka Raya No.Kav. A, RW.2, Pasirsari, Cikarang Sel., Kabupaten Bekasi, Jawa Barat 17530","RW.2, Pasirsari, Cikarang Sel., Kabupaten Bekasi",SULAWESI TENGAH,17530.0,Indonesia,2128510000.0,,,-6.2949277,107.1455487,https://maps.google.com/?cid=0x0:0xf3a42d07bdc62910,
hotel,hotel,,,,SULAWESI TENGAH,,Indonesia,,,,,,https://maps.google.com/?cid=0x0:0xf3a42d07bdc62910%7C/g/11b75cnlxk%7Cen-ID,
hotel,Taman Rekreasi Air,WaterBoom Lippo Cikarang,"Jl. Madiun No.Kav. 115, Cibatu, Kabupaten Bekasi, Jawa Barat 17550","Cibatu, Kabupaten Bekasi",SULAWESI TENGAH,17550.0,Indonesia,85283868186.0,,,-6.331396,107.1382858,https://maps.google.com/?cid=0x0:0xf9931a1b0336f09e,
hotel,Stasiun Kereta,Lemah Abang,"Lemah Abang, Jalan Raya Lemah Abang Blok Lemah Abang No.4, Simpangan, Cikarang Utara, Kabupaten Bekasi, Jawa Barat 17530","Jalan Raya Lemah Abang Blok Lemah Abang No.4, Simpangan, Cikarang Utara, Kabupaten Bekasi",SULAWESI TENGAH,17530.0,Indonesia,,,,-6.27054,107.17984,https://maps.google.com/?cid=0x0:0x71684600c61f9493,
hotel,hotel,Toribulu,"Sienjo, Kec. Toribulu, Kabupaten Parigi Moutong, Sulawesi Tengah","Kabupaten Parigi Moutong, Sulawesi Tengah",SULAWESI TENGAH,,Indonesia,,,,-0.305884,120.004997,https://maps.google.com/?cid=0x0:0x8d8f3ef686fe6cb3,
hotel,hotel,Cameloan Hotel,"Jalan Tanjung Tururuka No. 43 Lolu Selatan, Tatura Utara, Kec. Palu Sel., Kota Palu, Sulawesi Tengah 94111","Tatura Utara, Kec. Palu Sel., Kota Palu",SULAWESI TENGAH,94111.0,Indonesia,895417300072.0,,,-0.9072941,119.8842516,https://maps.google.com/?cid=0x0:0x99e6316eb17d703b,
hotel,hotel,,,,SULAWESI TENGAH,,Indonesia,,,,,,https://maps.google.com/?cid=0x0:0x99e6316eb17d703b%7C/g/11bxc7261n%7Cen-ID,
hotel,hotel,Victory Tentena,"Sangele, Pamona Pusalemba, Kabupaten Poso, Sulawesi Tengah 94663","Pamona Pusalemba, Kabupaten Poso",SULAWESI TENGAH,94663.0,Indonesia,81355118099.0,,,-1.7647027,120.6410843,https://maps.google.com/?cid=0x0:0x661b0a77c25f2b4a,
hotel,hotel,Hotel Brizky,"Jl. RE Martadinata No.03, Tondo, Kec. Mantikulore, Kota Palu, Sulawesi Tengah 94111","Tondo, Kec. Mantikulore, Kota Palu",SULAWESI TENGAH,94111.0,Indonesia,4514012739.0,,,-0.8533987,119.8822596,https://maps.google.com/?cid=0x0:0x6a7e51b26d5e694d,
hotel,hotel,ASMORA HOTEL,"Moutong Tengah, Kec. Moutong, Kabupaten Parigi Moutong, Sulawesi Tengah 94479","Kec. Moutong, Kabupaten Parigi Moutong",SULAWESI TENGAH,94479.0,Indonesia,82348260424.0,,,0.4649994,121.2306823,https://maps.google.com/?cid=0x0:0x652a10a595e4fb4,
hotel,Hotel,Hotel Mitra Buana 2,"285Q+7RH, Tolai, Kec. Torue, Kabupaten Parigi Moutong, Sulawesi Tengah 94473","Tolai, Kec. Torue, Kabupaten Parigi Moutong",SULAWESI TENGAH,94473.0,Indonesia,,,,-0.991822,120.3396196,https://maps.google.com/?cid=0x0:0xb47781a2615b0f6e,
hotel,Pondok,Hotel Zaitun Tolai,"Jl. Trans Sulawesi, Tolai, Kec. Torue, Kabupaten Parigi Moutong, Sulawesi Tengah 94473","Tolai, Kec. Torue, Kabupaten Parigi Moutong",SULAWESI TENGAH,94473.0,Indonesia,82214298553.0,,,-0.992877,120.3391989,https://maps.google.com/?cid=0x0:0x22ec899c4577b6c7,
hotel,hotel,Kec. Torue,"Kabupaten Parigi Moutong, Sulawesi Tengah","Kabupaten Parigi Moutong, Sulawesi Tengah",SULAWESI TENGAH,,Indonesia,,,,-0.9875898,120.3403993,https://maps.google.com/?cid=0x0:0x4f7907929f22635f,
hotel,hotel,Cameloan Hotel,"Jalan Tanjung Tururuka No. 43 Lolu Selatan, Tatura Utara, Kec. Palu Sel., Kota Palu, Sulawesi Tengah 94111","Tatura Utara, Kec. Palu Sel., Kota Palu",SULAWESI TENGAH,94111.0,Indonesia,895417300072.0,,,-0.9072941,119.8842516,https://maps.google.com/?cid=0x0:0x99e6316eb17d703b,
hotel,hotel,,,,SULAWESI TENGAH,,Indonesia,,,,,,https://maps.google.com/?cid=0x0:0x99e6316eb17d703b%7C/g/11bxc7261n%7Cen-ID,
hotel,hotel,New Sentral Hotel,"Jl. Wolter Monginsidi No.71, RW.73, Lolu Sel., Kec. Palu Sel., Kota Palu, Sulawesi Tengah 94111","RW.73, Lolu Sel., Kec. Palu Sel., Kota Palu",SULAWESI TENGAH,94111.0,Indonesia,82363888333.0,,,-0.9035805,119.8747179,https://maps.google.com/?cid=0x0:0x51a9164bbc750c6f,
hotel,hotel,Citra Mulia Hotel,"Jl. Tj. Satu No.75, Lolu Sel., Kec. Palu Tim., Kota Palu, Sulawesi Tengah 94112","Lolu Sel., Kec. Palu Tim., Kota Palu",SULAWESI TENGAH,94112.0,Indonesia,451423250.0,,,-0.905967,119.8858346,https://maps.google.com/?cid=0x0:0x77f6c876f6f5f6f5,
hotel,hotel,Hotel Brizky,"Jl. RE Martadinata No.03, Tondo, Kec. Mantikulore, Kota Palu, Sulawesi Tengah 94111","Tondo, Kec. Mantikulore, Kota Palu",SULAWESI TENGAH,94111.0,Indonesia,4514012739.0,,,-0.8533987,119.8822596,https://maps.google.com/?cid=0x0:0x6a7e51b26d5e694d,
hotel,hotel,Victory Tentena,"Sangele, Pamona Pusalemba, Kabupaten Poso, Sulawesi Tengah 94663","Pamona Pusalemba, Kabupaten Poso",SULAWESI TENGAH,94663.0,Indonesia,81355118099.0,,,-1.7647027,120.6410843,https://maps.google.com/?cid=0x0:0x661b0a77c25f2b4a,
hotel,hotel,Grand Mitra Hotel Masigi,"Jl. Finono No.Desa, Masigi, Kec. Parigi, Kabupaten Parigi Moutong, Sulawesi Tengah 94471","Masigi, Kec. Parigi, Kabupaten Parigi Moutong",SULAWESI TENGAH,94471.0,Indonesia,82197411785.0,,,-0.8147303,120.1686227,https://maps.google.com/?cid=0x0:0x25f2d8e26d6eeadd,
hotel,hotel,Airy Tanjung Tururuka 43 Palu,"Jl. TG. Tururuka No.43, Tatura Utara, Kec. Palu Sel., Kota Palu, Sulawesi Tengah 94111","Tatura Utara, Kec. Palu Sel., Kota Palu",SULAWESI TENGAH,94111.0,Indonesia,8041112479.0,,,-0.9073346,119.8842057,https://maps.google.com/?cid=0x0:0x315d5cb304cdf40a,
restaurant,restaurant,Kec. Ampibabo,"Kabupaten Parigi Moutong, Sulawesi Tengah","Kabupaten Parigi Moutong, Sulawesi Tengah",SULAWESI TENGAH,,Indonesia,,,,-0.4581692,120.0653145,https://maps.google.com/?cid=0x0:0x960283f1cc426234,
restaurant,Makanan Siap Saji,Warung Mustika Laut,"G3J7+C4H, Jl. Trans-Sulawesi, Paranggi, Kec. Ampibabo, Kabupaten Parigi Moutong, Sulawesi Tengah 94474","Jl. Trans-Sulawesi, Paranggi, Kec. Ampibabo, Kabupaten Parigi Moutong",SULAWESI TENGAH,94474.0,Indonesia,82363125335.0,,,-0.4689495,120.0628568,https://maps.google.com/?cid=0x0:0xe629b7a687fa7530,
restaurant,Rumah Makan,Warung Nasi Goreng Ampibabo,"G3V8+57G, Jl. Trans-Sulawesi, Ampibabo Utara, Kec. Ampibabo, Kabupaten Parigi Moutong, Sulawesi Tengah 94474","Jl. Trans-Sulawesi, Ampibabo Utara, Kec. Ampibabo, Kabupaten Parigi Moutong",SULAWESI TENGAH,94474.0,Indonesia,,,,-0.4570524,120.0657183,https://maps.google.com/?cid=0x0:0xb37701eac05bdc44,
restaurant,Restoran,Warung makan putra solo,"G3J7+M57, Paranggi, Kec. Ampibabo, Kabupaten Parigi Moutong, Sulawesi Tengah 94474","Paranggi, Kec. Ampibabo, Kabupaten Parigi Moutong",SULAWESI TENGAH,94474.0,Indonesia,,,,-0.4683384,120.062923,https://maps.google.com/?cid=0x0:0xb7fba07585fc6dbc,
restaurant,Toko bahan makanan,Warung ABIZAR,"H328+W92, Lemo, Kec. Ampibabo, Kabupaten Parigi Moutong, Sulawesi Tengah 94474","Lemo, Kec. Ampibabo, Kabupaten Parigi Moutong",SULAWESI TENGAH,94474.0,Indonesia,82193368905.0,,,-0.4477334,120.0658868,https://maps.google.com/?cid=0x0:0x26792142ef4e75e6,
restaurant,restaurant,Garage Kopi,"Ampibabo, Kec. Ampibabo, Kabupaten Parigi Moutong, Sulawesi Tengah 94474","Kec. Ampibabo, Kabupaten Parigi Moutong",SULAWESI TENGAH,94474.0,Indonesia,82324714506.0,,,-0.4597228,120.0649006,https://maps.google.com/?cid=0x0:0xd9cd9059f97bd380,
restaurant,Restoran,Rumah makan bobalo,"G3R8+C43, Desa ampibabo depan puskesmas dekat toko zein, Ampibabo Utara, Kec. Ampibabo, Kabupaten Parigi Moutong, Sulawesi Tengah 94474","Desa ampibabo depan puskesmas dekat toko zein, Ampibabo Utara, Kec. Ampibabo, Kabupaten Parigi Moutong",SULAWESI TENGAH,94474.0,Indonesia,85757835354.0,,,-0.4589817,120.0652894,https://maps.google.com/?cid=0x0:0xe6e675afd1273e79,
restaurant,Rumah Makan,Rumah Makan Anggun,"Ampibabo Utara, Kec. Ampibabo, Kabupaten Parigi Moutong, Sulawesi Tengah 94474","Kec. Ampibabo, Kabupaten Parigi Moutong",SULAWESI TENGAH,94474.0,Indonesia,89528011749.0,,,-0.4590261,120.0650238,https://maps.google.com/?cid=0x0:0x83d77742236f32f7,
restaurant,Hidangan Laut,Warung Sari Laut - MAS WAWAN,"G3Q7+VVG, Ampibabo, Kec. Ampibabo, Kabupaten Parigi Moutong, Sulawesi Tengah 94474","Ampibabo, Kec. Ampibabo, Kabupaten Parigi Moutong",SULAWESI TENGAH,94474.0,Indonesia,85298424479.0,,,-0.4603384,120.0648301,https://maps.google.com/?cid=0x0:0xf11b166faea17200,
restaurant,Brunch,WARUNG MAKAN SHANUM,"F2XX+672, Jl. Trans-Sulawesi, Tolole, Kec. Ampibabo, Kabupaten Parigi Moutong, Sulawesi Tengah 94474","Jl. Trans-Sulawesi, Tolole, Kec. Ampibabo, Kabupaten Parigi Moutong",SULAWESI TENGAH,94474.0,Indonesia,,,,-0.50199,120.0481537,https://maps.google.com/?cid=0x0:0xc64d898162da4a2a,
restaurant,Minimarket,Pasar Ampibabo,"G3V9+G7J, Ampibabo Utara, Kec. Ampibabo, Kabupaten Parigi Moutong, Sulawesi Tengah 94474","Ampibabo Utara, Kec. Ampibabo, Kabupaten Parigi Moutong",SULAWESI TENGAH,94474.0,Indonesia,,,,-0.4561642,120.0681468,https://maps.google.com/?cid=0x0:0x741b529e3b5bbcc8,
restaurant,Dapur Umum,Seduh Kopi,"Jl. Trans-Sulawesi No.36, Lemo, Kec. Ampibabo, Kabupaten Parigi Moutong, Sulawesi Tengah 94474","Lemo, Kec. Ampibabo, Kabupaten Parigi Moutong",SULAWESI TENGAH,94474.0,Indonesia,,,,-0.4395988,120.0638651,https://maps.google.com/?cid=0x0:0x8286f86b1328383b,
restaurant,Restoran,Rumah makan Mas Wawan,"Jl. Parigi - Palu No.16, Toboli Bar., Kec. Parigi Utara, Kabupaten Parigi Moutong, Sulawesi Tengah 94471","Toboli Bar., Kec. Parigi Utara, Kabupaten Parigi Moutong",SULAWESI TENGAH,94471.0,Indonesia,,,,-0.7109799,120.0861611,https://maps.google.com/?cid=0x0:0x97ea75cd6f916081,
restaurant,Kedai Kopi,Cafe Djarot,"G3V9+8CX, Jl. Trans-Sulawesi, Ampibabo Utara, Kec. Ampibabo, Kabupaten Parigi Moutong, Sulawesi Tengah 94474","Jl. Trans-Sulawesi, Ampibabo Utara, Kec. Ampibabo, Kabupaten Parigi Moutong",SULAWESI TENGAH,94474.0,Indonesia,,,,-0.4566293,120.0686128,https://maps.google.com/?cid=0x0:0xb4295a16f204b9a,
restaurant,Restoran,COTO makassar,"G3Q7+HVM, Ampibabo, Kec. Ampibabo, Kabupaten Parigi Moutong, Sulawesi Tengah 94474","Ampibabo, Kec. Ampibabo, Kabupaten Parigi Moutong",SULAWESI TENGAH,94474.0,Indonesia,,,,-0.4610357,120.0646701,https://maps.google.com/?cid=0x0:0xf52b456d0e7e56fe,
restaurant,Restoran,Rumah makan muslim,"H394+VVR, Jl. Trans-Sulawesi, Lemo, Kec. Ampibabo, Kabupaten Parigi Moutong, Sulawesi Tengah","Kabupaten Parigi Moutong, Sulawesi Tengah",SULAWESI TENGAH,,Indonesia,,,,-0.4302602,120.0571389,https://maps.google.com/?cid=0x0:0x767a98a141cf4208,
restaurant,Kios,Kios ifa,"G269+VCH, Tanampedagi, Kec. Ampibabo, Kabupaten Parigi Moutong, Sulawesi Tengah 94474","Tanampedagi, Kec. Ampibabo, Kabupaten Parigi Moutong",SULAWESI TENGAH,94474.0,Indonesia,,,,-0.4878002,120.0186224,https://maps.google.com/?cid=0x0:0xa7e1ccc6fd023911,
restaurant,Sarapan,Warung Dini,"G2GJ+2GH, Sidole, Kec. Ampibabo, Kabupaten Parigi Moutong, Sulawesi Tengah 94474","Sidole, Kec. Ampibabo, Kabupaten Parigi Moutong",SULAWESI TENGAH,94474.0,Indonesia,,,,-0.474927,120.0313601,https://maps.google.com/?cid=0x0:0xc79784df2d754b1b,
restaurant,Sarapan,R.M. Yulin Mass Broww,"H2MX+FH6, Jl. Trans-Sulawesi, Lemo, Kec. Ampibabo, Kabupaten Parigi Moutong, Sulawesi Tengah 94474","Jl. Trans-Sulawesi, Lemo, Kec. Ampibabo, Kabupaten Parigi Moutong",SULAWESI TENGAH,94474.0,Indonesia,,,,-0.4163262,120.0488876,https://maps.google.com/?cid=0x0:0x31d3301d4f53b1ef,
restaurant,Makanan Kecil,Warung makan sederhana,"H2PX+M7X, Buranga, Kec. Ampibabo, Kabupaten Parigi Moutong, Sulawesi Tengah 94474","Buranga, Kec. Ampibabo, Kabupaten Parigi Moutong",SULAWESI TENGAH,94474.0,Indonesia,82291079397.0,,,-0.413265,120.0482436,https://maps.google.com/?cid=0x0:0x712a44da7189ea61,
restaurant,Dapur Umum,Tape Manis Elin,"G3M7+GG5, Ampibabo, Kec. Ampibabo, Kabupaten Parigi Moutong, Sulawesi Tengah 94474","Ampibabo, Kec. Ampibabo, Kabupaten Parigi Moutong",SULAWESI TENGAH,94474.0,Indonesia,,,,-0.4662364,120.0638704,https://maps.google.com/?cid=0x0:0x6a4d544f2c36b80d,
restaurant,restaurant,Kec. Balinggi,"Kabupaten Parigi Moutong, Sulawesi Tengah","Kabupaten Parigi Moutong, Sulawesi Tengah",SULAWESI TENGAH,,Indonesia,,,,-1.0022906,120.364708,https://maps.google.com/?cid=0x0:0x5b3c4d9bcafcce39,
restaurant,Sate,Rumah Makan Sate Kambing Sido Muncul,"X9X5+W56, Balinggi, Kec. Balinggi, Kabupaten Parigi Moutong, Sulawesi Tengah 94473","Balinggi, Kec. Balinggi, Kabupaten Parigi Moutong",SULAWESI TENGAH,94473.0,Indonesia,,,,-1.0002079,120.357879,https://maps.google.com/?cid=0x0:0xb998f5e0865274e2,
restaurant,Restoran,Warung Makan Jawa timur(mbk Puji),"XCR9+JRX, Suli Indah, Kec. Balinggi, Kabupaten Parigi Moutong, Sulawesi Tengah 94473","Suli Indah, Kec. Balinggi, Kabupaten Parigi Moutong",SULAWESI TENGAH,94473.0,Indonesia,85255419865.0,,,-1.0083967,120.4196103,https://maps.google.com/?cid=0x0:0xadcff7d12911316d,
restaurant,Bali,Warung Makan Byang Indra dan Ayam Betutu Vidra,"Malakosa, Kec. Balinggi, Kabupaten Parigi Moutong, Sulawesi Tengah 94473","Kec. Balinggi, Kabupaten Parigi Moutong",SULAWESI TENGAH,94473.0,Indonesia,81353418864.0,,,-0.9718203,120.4015202,https://maps.google.com/?cid=0x0:0xa6bf345002d804f3,
restaurant,Ayam,GEPREK JAGOAN🔥,"jln indra prasta, Malakosa, Kec. Balinggi, Kabupaten Parigi Moutong, Sulawesi Tengah","Kabupaten Parigi Moutong, Sulawesi Tengah",SULAWESI TENGAH,,Indonesia,82293178937.0,,,-0.9601176,120.4017465,https://maps.google.com/?cid=0x0:0xc027ea048745b2b7,
restaurant,Sate,Warung Binte Pak Gede ᬯᬭᬸᬂᬩᬶᬦ᭄ᬢᭂᬧᬓ᭄ᬕᭂᬤᬾ᭟,"2974+QQC, Unnamed Road, Balinggi Jati, Kec. Balinggi, Kabupaten Parigi Moutong, Sulawesi Tengah 94473","Unnamed Road, Balinggi Jati, Kec. Balinggi, Kabupaten Parigi Moutong",SULAWESI TENGAH,94473.0,Indonesia,,,,-0.9855558,120.35688,https://maps.google.com/?cid=0x0:0xd3491160d5b40dc5,
restaurant,Toko Perlengkapan Rumah,Mila Yuriska,"2948+HPG, Balinggi, Kec. Balinggi, Kabupaten Parigi Moutong, Sulawesi Tengah 94473","Balinggi, Kec. Balinggi, Kabupaten Parigi Moutong",SULAWESI TENGAH,94473.0,Indonesia,82292843289.0,,,-0.9935665,120.3668154,https://maps.google.com/?cid=0x0:0xe7eeb88b11e5e98c,
restaurant,Sate,Warung Sate Penyu Pan Luweng,"2988+HJC, Balinggi Jati, Kec. Balinggi, Kabupaten Parigi Moutong, Sulawesi Tengah 94473","Balinggi Jati, Kec. Balinggi, Kabupaten Parigi Moutong",SULAWESI TENGAH,94473.0,Indonesia,,,,-0.9835571,120.366527,https://maps.google.com/?cid=0x0:0x4ee6d863aaba2d93,
restaurant,Sarapan,Warung Sate sudi mampir,"2988+HHH, Balinggi Jati, Kec. Balinggi, Kabupaten Parigi Moutong, Sulawesi Tengah 94473","Balinggi Jati, Kec. Balinggi, Kabupaten Parigi Moutong",SULAWESI TENGAH,94473.0,Indonesia,,,,-0.9835526,120.3664892,https://maps.google.com/?cid=0x0:0x4e86da1210b179c6,
restaurant,Komplek perumahan,Warung Makan Taman Sari,"X9RR+VH6, Jl. Trans Sulawesi, Balinggi, Kec. Balinggi, Kabupaten Parigi Moutong, Sulawesi Tengah 94473","Jl. Trans Sulawesi, Balinggi, Kec. Balinggi, Kabupaten Parigi Moutong",SULAWESI TENGAH,94473.0,Indonesia,,,,-1.0078306,120.3913874,https://maps.google.com/?cid=0x0:0xffeadc82a4556cbf,
restaurant,Makanan Siap Saji,Warung Ayam Kare Pedes Tolai,"286R+C26, Tolai, Kec. Torue, Kabupaten Parigi Moutong, Sulawesi Tengah 94473","Tolai, Kec. Torue, Kabupaten Parigi Moutong",SULAWESI TENGAH,94473.0,Indonesia,,,,-0.988967,120.3400292,https://maps.google.com/?cid=0x0:0xd1b5085b1d731162,
restaurant,Bali,Rumah Makan Lele Dumbo,"28G6+PPW, Torue, Kec. Torue, Kabupaten Parigi Moutong, Sulawesi Tengah 94473","Torue, Kec. Torue, Kabupaten Parigi Moutong",SULAWESI TENGAH,94473.0,Indonesia,81341116221.0,,,-0.973127,120.3118255,https://maps.google.com/?cid=0x0:0x5f3bdaf998365772,
restaurant,Bakso,Warung Mas Pendek,"286R+V4R, Tolai, Kec. Torue, Kabupaten Parigi Moutong, Sulawesi Tengah 94473","Tolai, Kec. Torue, Kabupaten Parigi Moutong",SULAWESI TENGAH,94473.0,Indonesia,82194455743.0,,,-0.9877524,120.3402663,https://maps.google.com/?cid=0x0:0x1b1968e761e326f8,
restaurant,Brunch,Warung Bli Mang,"285J+GFM, Tolai, Kec. Torue, Kabupaten Parigi Moutong, Sulawesi Tengah 94473","Tolai, Kec. Torue, Kabupaten Parigi Moutong",SULAWESI TENGAH,94473.0,Indonesia,8227894564.0,,,-0.991175,120.3311679,https://maps.google.com/?cid=0x0:0x32de10b43b1873e0,
restaurant,Dapur Umum,Pak Irma,"2938+8M7, Balinggi, Kec. Balinggi, Kabupaten Parigi Moutong, Sulawesi Tengah 94473","Balinggi, Kec. Balinggi, Kabupaten Parigi Moutong",SULAWESI TENGAH,94473.0,Indonesia,81244174567.0,,,-0.9967029,120.366673,https://maps.google.com/?cid=0x0:0x1a4aec407dfe8d18,
restaurant,Restoran,Warung Surya Jaya,"XC2X+VX3, Jl. Trans Sulawesi, Sausu Trans, Kec. Sausu, Kabupaten Parigi Moutong, Sulawesi Tengah 94473","Jl. Trans Sulawesi, Sausu Trans, Kec. Sausu, Kabupaten Parigi Moutong",SULAWESI TENGAH,94473.0,Indonesia,82194873878.0,,,-1.0478669,120.4499251,https://maps.google.com/?cid=0x0:0x4613581652f4cb2d,
restaurant,Brunch,Warung makan (mad Dul gondrong),"2CQM+F4H, Jln.tumpapa indah, Malakosa, Kec. Balinggi, Kabupaten Parigi Moutong, Sulawesi Tengah","Kabupaten Parigi Moutong, Sulawesi Tengah",SULAWESI TENGAH,,Indonesia,81341233171.0,,,-0.9613236,120.4328441,https://maps.google.com/?cid=0x0:0x69908de000b5474,
restaurant,Restoran,Warung Nasi Goreng Buk Wayan,"X9CG+VWJ, Unnamed Road, Balinggi, Kec. Balinggi, Kabupaten Parigi Moutong, Sulawesi Tengah 94473","Unnamed Road, Balinggi, Kec. Balinggi, Kabupaten Parigi Moutong",SULAWESI TENGAH,94473.0,Indonesia,81564660205.0,,,-1.0277798,120.3772714,https://maps.google.com/?cid=0x0:0x35314d6a5265c80f,
restaurant,Dapur Umum,Warung Doller,"29CC+FM2, Balinggi Jati, Kec. Balinggi, Kabupaten Parigi Moutong, Sulawesi Tengah","Kabupaten Parigi Moutong, Sulawesi Tengah",SULAWESI TENGAH,,Indonesia,,,,-0.9788648,120.371628,https://maps.google.com/?cid=0x0:0x6fe755a14637a439,
restaurant,Bali,Warung Byang Ngurah,"2CV4+QQ8, Malakosa, Kec. Balinggi, Kabupaten Parigi Moutong, Sulawesi Tengah 94473","Malakosa, Kec. Balinggi, Kabupaten Parigi Moutong",SULAWESI TENGAH,94473.0,Indonesia,82271160714.0,,,-0.954922,120.408116,https://maps.google.com/?cid=0x0:0x80537f2b94432afa,
restaurant,Kedai Kopi,ROLLATE Coffee  Eatery,"Jl. Trans Sulawesi, Tolai, Kec. Torue, Kabupaten Parigi Moutong, Sulawesi Tengah 94473","Tolai, Kec. Torue, Kabupaten Parigi Moutong",SULAWESI TENGAH,94473.0,Indonesia,82211147920.0,,,-0.9937546,120.3394498,https://maps.google.com/?cid=0x0:0x52b67d73401927cf,
restaurant,restaurant,Sulawesi Tengah 94473,"Kec. Torue, Kabupaten Parigi Moutong, Sulawesi Tengah","Kabupaten Parigi Moutong, Sulawesi Tengah",SULAWESI TENGAH,,Indonesia,,,,-1.0798347,120.2974199,https://maps.google.com/?cid=0x0:0x7d359cf51011da2a,
restaurant,Restoran,Warung Makan Bu Sareh,"Jl. Trans Sulawesi, Sausu Trans, Kec. Sausu, Kabupaten Parigi Moutong, Sulawesi Tengah 94473","Sausu Trans, Kec. Sausu, Kabupaten Parigi Moutong",SULAWESI TENGAH,94473.0,Indonesia,82292998205.0,,,-1.0570298,120.451701,https://maps.google.com/?cid=0x0:0x7d8c723da4db682d,
restaurant,Kedai Kopi,Warung Bawah,"2C25+22W, Desa, gerih, Kec. Balinggi, Kabupaten Parigi Moutong, Sulawesi Tengah 94473","Desa, gerih, Kec. Balinggi, Kabupaten Parigi Moutong",SULAWESI TENGAH,94473.0,Indonesia,,,,-0.9998754,120.4075907,https://maps.google.com/?cid=0x0:0xe649fdd4c97be157,
restaurant,Kedai Kopi,Fun coffee,"29HX+6Q6, lebagu, rampi, Kec. Balinggi, Kabupaten Parigi Moutong, Sulawesi Tengah 94473","lebagu, rampi, Kec. Balinggi, Kabupaten Parigi Moutong",SULAWESI TENGAH,94473.0,Indonesia,,,,-0.9722472,120.3997535,https://maps.google.com/?cid=0x0:0x48f010823ee1c4de,
restaurant,Brunch,warung ramdan,"29GQ+9XM, Balinggi Jati, Kec. Balinggi, Kabupaten Parigi Moutong, Sulawesi Tengah 94473","Balinggi Jati, Kec. Balinggi, Kabupaten Parigi Moutong",SULAWESI TENGAH,94473.0,Indonesia,,,,-0.9740417,120.3899129,https://maps.google.com/?cid=0x0:0x39675ae91805ed54,
restaurant,Brunch,Rumqh pak viona,"2C94+F6W, Malakosa, Kec. Balinggi, Kabupaten Parigi Moutong, Sulawesi Tengah 94473","Malakosa, Kec. Balinggi, Kabupaten Parigi Moutong",SULAWESI TENGAH,94473.0,Indonesia,85396190697.0,,,-0.9812649,120.405565,https://maps.google.com/?cid=0x0:0x21dc184abb8add0e,
restaurant,Kedai Kopi,Tentang rindu,"X9RQ+X3Q, Tamansari, Kec. Balinggi, Kabupaten Parigi Moutong, Sulawesi Tengah 94473","Tamansari, Kec. Balinggi, Kabupaten Parigi Moutong",SULAWESI TENGAH,94473.0,Indonesia,,,,-1.0075359,120.3877469,https://maps.google.com/?cid=0x0:0xb81e5011c5ce8686,
restaurant,restaurant,Bolano,"Kec. Parigi, Kabupaten Parigi Moutong, Sulawesi Tengah","Kabupaten Parigi Moutong, Sulawesi Tengah",SULAWESI TENGAH,,Indonesia,,,,0.4428024,120.9532123,https://maps.google.com/?cid=0x0:0xccb982fbd81b9cf4,
restaurant,Sesuai untuk keluarga,RM TOLE KHAS MANADO,"CWWQ+HMQ, Bolano, Kec. Bolano Lambunu, Kabupaten Parigi Moutong, Sulawesi Tengah 94479","Bolano, Kec. Bolano Lambunu, Kabupaten Parigi Moutong",SULAWESI TENGAH,94479.0,Indonesia,85399454377.0,,,0.4464656,120.9392381,https://maps.google.com/?cid=0x0:0xe4c8c78b3d7186dc,
restaurant,Padang,RM Bone ( Warung Daeng ),"FV2R+2X3, Jl. Trans-Sulawesi, Bolano Bar., Kec. Bolano Lambunu, Kabupaten Parigi Moutong, Sulawesi Tengah 94479","Jl. Trans-Sulawesi, Bolano Bar., Kec. Bolano Lambunu, Kabupaten Parigi Moutong",SULAWESI TENGAH,94479.0,Indonesia,,,,0.450003,120.8924349,https://maps.google.com/?cid=0x0:0x87002c426ca74f08,
restaurant,Rumah Makan,"RM. Makassar - Gowa, Malakaji","CVXJ+PGJ, Jl. Trans-Sulawesi, Bolano Bar., Kec. Bolano Lambunu, Kabupaten Parigi Moutong, Sulawesi Tengah 94479","Jl. Trans-Sulawesi, Bolano Bar., Kec. Bolano Lambunu, Kabupaten Parigi Moutong",SULAWESI TENGAH,94479.0,Indonesia,,,,0.4493371,120.8812665,https://maps.google.com/?cid=0x0:0xd9c4d7392dec3bb0,
restaurant,Padang,Ruma Makan Mas Joko,"CXV3+47G, Bolano, Kec. Bolano Lambunu, Kabupaten Parigi Moutong, Sulawesi Tengah 94479","Bolano, Kec. Bolano Lambunu, Kabupaten Parigi Moutong",SULAWESI TENGAH,94479.0,Indonesia,82292771480.0,,,0.4428024,120.9532123,https://maps.google.com/?cid=0x0:0x17f9f65282c81049,
restaurant,Brunch,Warung Makan Istimewa,"FWRM+XGC, Wanamukti, Kec. Bolano Lambunu, Kabupaten Parigi Moutong, Sulawesi Tengah 94479","Wanamukti, Kec. Bolano Lambunu, Kabupaten Parigi Moutong",SULAWESI TENGAH,94479.0,Indonesia,,,,0.4924265,120.9337615,https://maps.google.com/?cid=0x0:0x21186530dcdbff32,
restaurant,Hotel,Penginapan Mokosua,"CXR3+M26, Jl. Trans-Sulawesi, Bolano, Kec. Parigi, Kabupaten Parigi Moutong, Sulawesi Tengah 94479","Jl. Trans-Sulawesi, Bolano, Kec. Parigi, Kabupaten Parigi Moutong",SULAWESI TENGAH,94479.0,Indonesia,81354652246.0,,,0.4416566,120.9525187,https://maps.google.com/?cid=0x0:0x5a6c6494e8929d5b,
restaurant,Kafe,Garasi Cafe,"FX3M+7WQ, Jl. Trans-Sulawesi, Lambunu, Kec. Bolano Lambunu, Kabupaten Parigi Moutong, Sulawesi Tengah 94479","Jl. Trans-Sulawesi, Lambunu, Kec. Bolano Lambunu, Kabupaten Parigi Moutong",SULAWESI TENGAH,94479.0,Indonesia,,,,0.4532091,120.984856,https://maps.google.com/?cid=0x0:0xacee65a75d351a51,
restaurant,Restoran,Rumah Makan Mba Endang,"FX29+WQ4, Jl. Trans-Sulawesi, Bolano, Kec. Bolano Lambunu, Kabupaten Parigi Moutong, Sulawesi Tengah 94479","Jl. Trans-Sulawesi, Bolano, Kec. Bolano Lambunu, Kabupaten Parigi Moutong",SULAWESI TENGAH,94479.0,Indonesia,,,,0.4522522,120.9694685,https://maps.google.com/?cid=0x0:0xe694861423e84065,
restaurant,Restoran,Rumah Makan Gorontalo,"FX3P+79G, Jl. Trans-Sulawesi, Lambunu, Kec. Bolano Lambunu, Kabupaten Parigi Moutong, Sulawesi Tengah 94479","Jl. Trans-Sulawesi, Lambunu, Kec. Bolano Lambunu, Kabupaten Parigi Moutong",SULAWESI TENGAH,94479.0,Indonesia,,,,0.4531818,120.9859623,https://maps.google.com/?cid=0x0:0x3502f28507adaa,
restaurant,Brunch,Rumah Makan Mojo Agung,"Margapura, Kec. Bolano Lambunu, Kabupaten Parigi Moutong, Sulawesi Tengah 94479","Kec. Bolano Lambunu, Kabupaten Parigi Moutong",SULAWESI TENGAH,94479.0,Indonesia,,,,0.5180415,120.9682783,https://maps.google.com/?cid=0x0:0x189684b16504e75f,
restaurant,Kafe,Cafe Abadi,"FWXJ+8VM, Unnamed Road, Wanamukti, Kec. Bolano Lambunu, Kabupaten Parigi Moutong, Sulawesi Tengah 94479","Unnamed Road, Wanamukti, Kec. Bolano Lambunu, Kabupaten Parigi Moutong",SULAWESI TENGAH,94479.0,Indonesia,82291783685.0,,,0.49833,120.932185,https://maps.google.com/?cid=0x0:0x708c3b365b8fdcb8,
restaurant,Restoran,Warung Utamy,"GXH9+6CQ, desa, Kotanagaya, Kec. Bolano Lambunu, Kabupaten Parigi Moutong, Sulawesi Tengah 94479","desa, Kotanagaya, Kec. Bolano Lambunu, Kabupaten Parigi Moutong",SULAWESI TENGAH,94479.0,Indonesia,82195930021.0,,,0.5280992,120.9686145,https://maps.google.com/?cid=0x0:0x2c272693aef1509e,
