Category;Real Category;Business Name;Address;City;State;Postal Code;Country;Phone;Latitude;Longitude;Map Link
"restaurant";"restaurant";"Kec. Banda Alam";"Kabupaten Aceh Timur, Aceh";"Kabupaten Aceh Timur, Aceh";"ACEH";"";"Indonesia";"";"4.903042";"97.6987748";"https://maps.google.com/?cid=0x0:0xbbf5a401b81b9e34"
"restaurant";"Kafe";"RF_COFFEESHOP";"Unnamed Road, Panton Rayeuk A, Kec. Banda Alam, Kabupaten Aceh Timur, Aceh 24453";"Panton Rayeuk A, Kec. Banda Alam, Kabupaten Aceh Timur";"ACEH";"24453";"Indonesia";"";"4.9028956";"97.6904508";"https://maps.google.com/?cid=0x0:0x2bfe1d0e1fcdaa29"
"restaurant";"Kedai Kopi";"Warung Kopi";"WP49+C9C, Uram Jl., Kec. Banda Alam, Kabupaten Aceh Timur, Aceh 24454";"Uram Jl., Kec. Banda Alam, Kabupaten Aceh Timur";"ACEH";"24454";"Indonesia";"";"4.9060598";"97.7183825";"https://maps.google.com/?cid=0x0:0x78232c9b8f6ec14"
"restaurant";"Kedai Kopi";"Kadir azbil";"VM4V+74, Jambo Reuhat, Kec. Banda Alam, Kabupaten Aceh Timur, Aceh 24456";"Jambo Reuhat, Kec. Banda Alam, Kabupaten Aceh Timur";"ACEH";"24456";"Indonesia";"";"4.8556838";"97.692844";"https://maps.google.com/?cid=0x0:0xb0afabddf8836f11"
"restaurant";"restaurant";"Keude Yahman";"VMRW+W37, Seuneubok Pangou, Kec. Banda Alam, Kabupaten Aceh Timur, Aceh";"Kabupaten Aceh Timur, Aceh";"ACEH";"";"Indonesia";"";"4.89228";"97.6951869";"https://maps.google.com/?cid=0x0:0x4212647b79afeace"
"restaurant";"Kedai Kopi";"Warkop Raban";"VMMW+HH6, Seuneubok Benteng, Kec. Banda Alam, Kabupaten Aceh Timur, Aceh 24454";"Seuneubok Benteng, Kec. Banda Alam, Kabupaten Aceh Timur";"ACEH";"24454";"Indonesia";"";"4.8839196";"97.6963933";"https://maps.google.com/?cid=0x0:0x1881560afdd2687b"
"restaurant";"Kedai Kopi";"AILA cafe";"RJJG+M5R, Perk Julok Rayeuk Sel., Kec. Indra Makmur, Kabupaten Aceh Timur, Aceh 24457";"Perk Julok Rayeuk Sel., Kec. Indra Makmur, Kabupaten Aceh Timur";"ACEH";"24457";"Indonesia";"";"4.8317352";"97.6253994";"https://maps.google.com/?cid=0x0:0x587c7cc7cd5e39eb"
"restaurant";"Kafe";"TEGU KUPI";"WM3X+6GW, Panton Rayeuk M, Kec. Banda Alam, Kabupaten Aceh Timur, Aceh";"Kabupaten Aceh Timur, Aceh";"ACEH";"";"Indonesia";" 082283347163";"4.9029449";"97.6986068";"https://maps.google.com/?cid=0x0:0x3be1effe6c4e4662"
"restaurant";"Kafe";"AYA JUICE";"WM3X+68P, Panton Rayeuk M, Kec. Banda Alam, Kabupaten Aceh Timur, Aceh 24454";"Panton Rayeuk M, Kec. Banda Alam, Kabupaten Aceh Timur";"ACEH";"24454";"Indonesia";"";"4.9030833";"97.6983378";"https://maps.google.com/?cid=0x0:0x3eda5e4c31cb835f"
"restaurant";"Kedai Kopi";"Warkop maulidin";"Buket Ceuradih, Panton Rayeuk M, Kec. Banda Alam, Kabupaten Aceh Timur, Aceh 24453";"Panton Rayeuk M, Kec. Banda Alam, Kabupaten Aceh Timur";"ACEH";"24453";"Indonesia";"";"4.9026373";"97.6893887";"https://maps.google.com/?cid=0x0:0x65862b68aa0ab135"
"restaurant";"Restoran";"WULAN RESTO  COFFEE";"RV6W+3F4, Leuge, Kec. Peureulak, Kabupaten Aceh Timur, Aceh";"Kabupaten Aceh Timur, Aceh";"ACEH";"";"Indonesia";"";"4.810128";"97.8962151";"https://maps.google.com/?cid=0x0:0x457f9175d38b7aef"
"restaurant";"Kedai Kopi";"Geureubak Chocolate Grong-Gr";"Panton Rayeuk M, Kec. Banda Alam, Kabupaten Aceh Timur, Aceh 24458";"Kec. Banda Alam, Kabupaten Aceh Timur";"ACEH";"24458";"Indonesia";" 085296969849";"4.9036999";"97.701132";"https://maps.google.com/?cid=0x0:0xe10edb1025293be0"
"restaurant";"Hidangan Laut";"Banda Seafood";"H84C+4XX, Jl. Teungku Angkasa, Kuta Alam, Kec. Kuta Alam, Kota Banda Aceh, Aceh 24415";"Jl. Teungku Angkasa, Kuta Alam, Kec. Kuta Alam, Kota Banda Aceh";"ACEH";"24415";"Indonesia";"";"5.5553576";"95.3224929";"https://maps.google.com/?cid=0x0:0x4fb498dca949960"
"restaurant";"Indonesia";"Alex's kitchen";"Jl. Sultan Malikul Saleh, Lam Lagang, Kec. Banda Raya, Kota Banda Aceh, Aceh 23117";"Lam Lagang, Kec. Banda Raya, Kota Banda Aceh";"ACEH";"23117";"Indonesia";" 08126914030";"5.5356463";"95.3156501";"https://maps.google.com/?cid=0x0:0x42231d94d4a68aca"
"restaurant";"Sarapan";"RM Hunian";"Jl. Medan Banda Aceh, Paya Peulawi, Kec. Birem Bayeun, Kabupaten Aceh Timur, Aceh 24452";"Paya Peulawi, Kec. Birem Bayeun, Kabupaten Aceh Timur";"ACEH";"24452";"Indonesia";" 082161114100";"4.5740715";"97.9173951";"https://maps.google.com/?cid=0x0:0x433811bc621991b3"
"restaurant";"Kedai Kopi";"WARUNG NN";"Keude Birem, Kec. Birem Bayeun, Kabupaten Aceh Timur, Aceh 24452";"Kec. Birem Bayeun, Kabupaten Aceh Timur";"ACEH";"24452";"Indonesia";" 081269455001";"4.5362862";"97.9368828";"https://maps.google.com/?cid=0x0:0xae3ce98d67023402"
"restaurant";"restaurant";"Aceh 24452";"Kabupaten Aceh Timur, Aceh";"Kabupaten Aceh Timur, Aceh";"ACEH";"";"Indonesia";"";"4.6428925";"97.8286368";"https://maps.google.com/?cid=0x0:0xab6d8837867af58f"
"restaurant";"Sarapan";"Mie Aceh Bang Adi";"GWQQ+G27, Unnamed Road, Birem Rayeuk, Kec. Birem Bayeun, Kabupaten Aceh Timur, Aceh 24452";"Unnamed Road, Birem Rayeuk, Kec. Birem Bayeun, Kabupaten Aceh Timur";"ACEH";"24452";"Indonesia";"";"4.5387988";"97.9375318";"https://maps.google.com/?cid=0x0:0x70fab4df6c45eb5f"
"restaurant";"Nasi";"Rumah makan cek nah";"HW8F+F2C, Jl. Medan Banda Aceh, Aramiyah, Kec. Birem Bayeun, Kabupaten Aceh Timur, Aceh 24455";"Jl. Medan Banda Aceh, Aramiyah, Kec. Birem Bayeun, Kabupaten Aceh Timur";"ACEH";"24455";"Indonesia";"";"4.5661767";"97.9225269";"https://maps.google.com/?cid=0x0:0xf3f1630a817aa778"
"restaurant";"Dapur Umum";"RUMAH MAKAN KOTA BASRAH";"JW4C+WG3, Sarah Teubee, Kec. Rantau Selamat, Kabupaten Aceh Timur, Aceh 24452";"Sarah Teubee, Kec. Rantau Selamat, Kabupaten Aceh Timur";"ACEH";"24452";"Indonesia";" 08126568424";"4.6072706";"97.9212929";"https://maps.google.com/?cid=0x0:0xed53ba7e742bbacf"
"restaurant";"Dapur Umum";"Warung bakso bik jamilah";"HVGC+Q7J, Unnamed Road, Alue Sentang, Kec. Birem Bayeun, Kabupaten Aceh Timur, Aceh 24452";"Unnamed Road, Alue Sentang, Kec. Birem Bayeun, Kabupaten Aceh Timur";"ACEH";"24452";"Indonesia";"";"4.5769659";"97.8706271";"https://maps.google.com/?cid=0x0:0xe004e46b0bfb7b69"
"restaurant";"Rumah Makan";"Grobak Snack ghumai";"HWG7+8FM, Jl. Medan Banda Aceh, Bayeun, Kec. Birem Bayeun, Kabupaten Aceh Timur, Aceh";"Kabupaten Aceh Timur, Aceh";"ACEH";"";"Indonesia";" 082272966462";"4.5758471";"97.9136816";"https://maps.google.com/?cid=0x0:0x239b5219e6e55315"
"restaurant";"Padang";"Rumah Makan Aja 2";"MWF8+F93, Labuhan Keude, Kec. Sungai Raya, Kabupaten Aceh Timur, Aceh 24452";"Labuhan Keude, Kec. Sungai Raya, Kabupaten Aceh Timur";"ACEH";"24452";"Indonesia";" 082292959775";"4.6736258";"97.9159139";"https://maps.google.com/?cid=0x0:0x3b7bd6c0a586ce54"
"restaurant";"Sarapan";"RM SUKMA";"Jl. Medan Banda Aceh, Gampong Bayeun, Kec. Rantau Selamat, Kabupaten Aceh Timur, Aceh 24452";"Gampong Bayeun, Kec. Rantau Selamat, Kabupaten Aceh Timur";"ACEH";"24452";"Indonesia";" 082277198367";"4.5894622";"97.9088242";"https://maps.google.com/?cid=0x0:0xdbf7a344838251fd"
"restaurant";"Dapur Umum";"@mie_oom";"HWM8+9XJ, Gampong Bayeun, Kec. Rantau Selamat, Kabupaten Aceh Timur, Aceh 24452";"Gampong Bayeun, Kec. Rantau Selamat, Kabupaten Aceh Timur";"ACEH";"24452";"Indonesia";" 082363004251";"4.5834581";"97.9173969";"https://maps.google.com/?cid=0x0:0x556d1c7a6ec64cfe"
"restaurant";"Kafe";"Cafe Rindu 86";"Jl. Medan - Banda Aceh, Geulumpang Payong, Kec. Sungai Raya, Kabupaten Aceh Timur, Aceh 24452";"Geulumpang Payong, Kec. Sungai Raya, Kabupaten Aceh Timur";"ACEH";"24452";"Indonesia";" 082269672736";"4.6805205";"97.9167209";"https://maps.google.com/?cid=0x0:0x663e64dbfec1130d"
"restaurant";"Dapur Umum";"Sarapan pagi RD";"Jln Medan - B.Aceh, Aramiyah, Kec. Birem Bayeun, Kabupaten Aceh Timur, Aceh 24452";"Aramiyah, Kec. Birem Bayeun, Kabupaten Aceh Timur";"ACEH";"24452";"Indonesia";" 081275110490";"4.5697467";"97.9217555";"https://maps.google.com/?cid=0x0:0xeb60d0074b6c83d8"
"restaurant";"Restoran";"Ady bakso alur teh";"GV4P+J9J, Unnamed Road, Alue Teh, Kec. Birem Bayeun, Kabupaten Aceh Timur, Aceh 24455";"Unnamed Road, Alue Teh, Kec. Birem Bayeun, Kabupaten Aceh Timur";"ACEH";"24455";"Indonesia";"";"4.5065805";"97.8858777";"https://maps.google.com/?cid=0x0:0xd411d5a724b38812"
"restaurant";"restaurant";"Kec. Darul Aman";"Kabupaten Aceh Timur, Aceh";"Kabupaten Aceh Timur, Aceh";"ACEH";"";"Indonesia";"";"4.9859334";"97.7204106";"https://maps.google.com/?cid=0x0:0x217e07dad240b2e4"
"restaurant";"Dapur Umum";"Rumah Makan Daurah";"XPFJ+GC5 cut, Beunot, Dama Pulo I, Darul Aman, East Aceh Regency, Aceh 24455";"Beunot, Dama Pulo I, Darul Aman, East Aceh Regency";"ACEH";"24455";"Indonesia";" 085275418246";"4.9737698";"97.731122";"https://maps.google.com/?cid=0x0:0x1931c4408bcba771"
"restaurant";"Kedai Kopi";"Dapu Kupie Leumak Meukho Kho";"XPP9+GXM, Kp. Keude, Kec. Darul Aman, Kabupaten Aceh Timur, Aceh 24455";"Kp. Keude, Kec. Darul Aman, Kabupaten Aceh Timur";"ACEH";"24455";"Indonesia";" 082274770147";"4.9870472";"97.7180031";"https://maps.google.com/?cid=0x0:0xc12dbb5cc58e8ffe"
"restaurant";"Kafe";"RyCoffeebreak";"Jl. Medan Banda Aceh, Kp. Baro, Kec. Darul Aman, Kabupaten Aceh Timur, Aceh 24455";"Kp. Baro, Kec. Darul Aman, Kabupaten Aceh Timur";"ACEH";"24455";"Indonesia";" 082243491913";"4.9839168";"97.7205106";"https://maps.google.com/?cid=0x0:0x1e295f44236c6ea7"
"restaurant";"Kafe";"Tualang Coffee";"XPHC+7QP, Jl. Medan Banda Aceh, Kp. Baro, Kec. Darul Aman, Kabupaten Aceh Timur, Aceh 24455";"Jl. Medan Banda Aceh, Kp. Baro, Kec. Darul Aman, Kabupaten Aceh Timur";"ACEH";"24455";"Indonesia";" 081335489692";"4.9782079";"97.7219582";"https://maps.google.com/?cid=0x0:0x7e4b17f9b6e83dfd"
"restaurant";"Kedai Kopi";"Kede 01_ar";"Snb teungoh, Kec. Darul Aman, Kabupaten Aceh Timur, Aceh 24455";"Kec. Darul Aman, Kabupaten Aceh Timur";"ACEH";"24455";"Indonesia";"";"4.9683274";"97.7145552";"https://maps.google.com/?cid=0x0:0x5edec51e5ec6b1b"
"restaurant";"Bakso";"Almahdali";"XPCR+G7Q, Kuta Lawah, Kec. Idi Rayeuk, Kabupaten Aceh Timur, Aceh";"Kabupaten Aceh Timur, Aceh";"ACEH";"";"Indonesia";" 082384668094";"4.9713467";"97.7407201";"https://maps.google.com/?cid=0x0:0x5c20ed591582528d"
"restaurant";"Bakso";"Bakso angkasa";"XPFJ+H6W, Jl. Alue Ie Puteh - Blang Geulumpang, Dama Pulo I, Kec. Darul Aman, Kabupaten Aceh Timur, Aceh 24455";"Jl. Alue Ie Puteh - Blang Geulumpang, Dama Pulo I, Kec. Darul Aman, Kabupaten Aceh Timur";"ACEH";"24455";"Indonesia";"";"4.9739844";"97.730573";"https://maps.google.com/?cid=0x0:0xf1a4885e8fd01456"
"restaurant";"Bakso";"Super Bakso";"XPGF+MRV, Kp. Baro, Kec. Darul Aman, Kabupaten Aceh Timur, Aceh 24455";"Kp. Baro, Kec. Darul Aman, Kabupaten Aceh Timur";"ACEH";"24455";"Indonesia";"";"4.9767481";"97.7245333";"https://maps.google.com/?cid=0x0:0xc358888303f23262"
"restaurant";"Kedai Kopi";"Cut Han Lagena Coffie";"XPGH+VPV, Unnamed Road, Beunot City, Kp. Baro, Kec. Darul Aman, Kabupaten Aceh Timur, Aceh 24455";"Unnamed Road, Beunot City, Kp. Baro, Kec. Darul Aman, Kabupaten Aceh Timur";"ACEH";"24455";"Indonesia";"";"4.9772405";"97.7292913";"https://maps.google.com/?cid=0x0:0x3b656f498e82b6c4"
"restaurant";"Kedai Kopi";"KANOT BU coffee";"XPPC+337, Jl. Medan Banda Aceh, Keude, Kec. Darul Aman, Kabupaten Aceh Timur, Aceh";"Kabupaten Aceh Timur, Aceh";"ACEH";"";"Indonesia";" 082272375720";"4.9851569";"97.7201631";"https://maps.google.com/?cid=0x0:0x632478d975ae1af9"
"restaurant";"Kedai Kopi";"Warkop Bang Kasem";"XPJC+H98, Kuala Idi Cut, Kec. Darul Aman, Kabupaten Aceh Timur, Aceh 24455";"Kuala Idi Cut, Kec. Darul Aman, Kabupaten Aceh Timur";"ACEH";"24455";"Indonesia";" 082259017319";"4.9814162";"97.7209633";"https://maps.google.com/?cid=0x0:0xa78c7920b0e7e757"
"restaurant";"Kafe";"Kupi sareng bg rahmad";"XPHC+4VR, Kp. Baro, Kec. Darul Aman, Kabupaten Aceh Timur, Aceh 24455";"Kp. Baro, Kec. Darul Aman, Kabupaten Aceh Timur";"ACEH";"24455";"Indonesia";"";"4.977883";"97.7221593";"https://maps.google.com/?cid=0x0:0xe0f532b3a3cb4647"
"restaurant";"Kedai Kopi";"STANDBYKUPI";"Jl. Medan - Banda Aceh, Kp. Keude, Kec. Darul Aman, Kabupaten Aceh Timur, Aceh 24453";"Kp. Keude, Kec. Darul Aman, Kabupaten Aceh Timur";"ACEH";"24453";"Indonesia";" 085298157715";"4.9894555";"97.7132521";"https://maps.google.com/?cid=0x0:0x291d0aa2ff95047d"
"restaurant";"Bakso";"RUMAH MAKAN SELERA BARU";"2JVF+5R2, Blang Paoh Dua, Kec. Julok, Kabupaten Aceh Timur, Aceh 24458";"Blang Paoh Dua, Kec. Julok, Kabupaten Aceh Timur";"ACEH";"24458";"Indonesia";" 085277155725";"5.0428962";"97.6245281";"https://maps.google.com/?cid=0x0:0x2f84d1851ab70648"
"restaurant";"Kafe";"Cafe Falah Restoran";"WHPF+VQP, Sukaramai, Kec. Darul Makmur, Kabupaten Nagan Raya, Aceh 23662";"Sukaramai, Kec. Darul Makmur, Kabupaten Nagan Raya";"ACEH";"23662";"Indonesia";" 082120200178";"3.9372185";"96.5744384";"https://maps.google.com/?cid=0x0:0xf8e678c1d2c4cecf"
"restaurant";"restaurant";"Kec. Darul Falah";"Kabupaten Aceh Timur, Aceh";"Kabupaten Aceh Timur, Aceh";"ACEH";"";"Indonesia";"";"5.0158049";"97.6390314";"https://maps.google.com/?cid=0x0:0xd7c29e75868d7640"
"restaurant";"Tempat acara";"Anwar Yusuf";"2JVG+365, di samping warnet Albanna net Blang Pauh Dua, Keude Kuta Binjai, Kec. Julok, Kabupaten Aceh Timur, Aceh 24458";"di samping warnet Albanna net Blang Pauh Dua, Keude Kuta Binjai, Kec. Julok, Kabupaten Aceh Timur";"ACEH";"24458";"Indonesia";" 082267974865";"5.0426404";"97.6256035";"https://maps.google.com/?cid=0x0:0x60e75d8a889e21d9"
"restaurant";"Bakso";"Ulee Ateung";"2JMC+HJ9, Ulee Ateung, Kec. Julok, Kabupaten Aceh Timur, Aceh 24458";"Ulee Ateung, Kec. Julok, Kabupaten Aceh Timur";"ACEH";"24458";"Indonesia";" 082363860920";"5.0339246";"97.6216043";"https://maps.google.com/?cid=0x0:0xfbb61ad49067bdba"
"restaurant";"Kafe";"Chans Coffee  Bamboo Kuliner";"Jln Medan - Banda Aceh Desa Meunasah teungoh, Blang bugeng, Kec. Nurussalam, Kabupaten Aceh Timur, Aceh 24456";"Blang bugeng, Kec. Nurussalam, Kabupaten Aceh Timur";"ACEH";"24456";"Indonesia";" 085276845222";"5.0339914";"97.6485074";"https://maps.google.com/?cid=0x0:0xd9cd8e869adf4839"
"restaurant";"Restoran";"Duta Aulia";"2MH8+FMG, Jl. Medan Banda Aceh, Matang Seuleumak, Kec. Nurussalam, Kabupaten Aceh Timur, Aceh 24458";"Jl. Medan Banda Aceh, Matang Seuleumak, Kec. Nurussalam, Kabupaten Aceh Timur";"ACEH";"24458";"Indonesia";"";"5.028692";"97.6667048";"https://maps.google.com/?cid=0x0:0xa04abd245b72a133"
"restaurant";"Kedai Kopi";"Warung Muhammad Abizar Algifari";"2JJQ+M6G, tunong bugeng, dusun cinta damai, Alue Siwah Dua, Kec. Darul Falah, Kabupaten Aceh Timur, Aceh 24458";"tunong bugeng, dusun cinta damai, Alue Siwah Dua, Kec. Darul Falah, Kabupaten Aceh Timur";"ACEH";"24458";"Indonesia";" 082367981657";"5.03169";"97.6380655";"https://maps.google.com/?cid=0x0:0x4f6992f43cfc4269"
"restaurant";"Kafe";"Kede Bg Pesal";"2JPG+H2W, Jl. Alue Ie Mirah, Ulee Ateung, Kec. Julok, Kabupaten Aceh Timur, Aceh 24458";"Jl. Alue Ie Mirah, Ulee Ateung, Kec. Julok, Kabupaten Aceh Timur";"ACEH";"24458";"Indonesia";" 085260405108";"5.0364761";"97.6250901";"https://maps.google.com/?cid=0x0:0x894fa7958b6fe2e9"
"restaurant";"Kedai Kopi";"TERAS COFFEE";"Ulee Tanoh, Kec. Julok, Kabupaten Aceh Timur, Aceh 24458";"Kec. Julok, Kabupaten Aceh Timur";"ACEH";"24458";"Indonesia";" 085262680220";"5.0410197";"97.6331976";"https://maps.google.com/?cid=0x0:0x8b9f05be6cd48a5b"
"restaurant";"Restoran";"Kuta Binjei";"Jl.medan-banda Aceh.gp Blang pauh dua, Keude Kuta Binjai, Kec. Julok, Kabupaten Aceh Timur, Aceh";"Kabupaten Aceh Timur, Aceh";"ACEH";"";"Indonesia";" 085216280550";"5.0420625";"97.6270625";"https://maps.google.com/?cid=0x0:0x9573fd4feaafe306"
"restaurant";"Minimarket";"Keudee kak maliah";"2M33+WC, Buket Tufah, Kec. Darul Falah, Kabupaten Aceh Timur, Aceh";"Kabupaten Aceh Timur, Aceh";"ACEH";"";"Indonesia";"";"5.0048065";"97.6535017";"https://maps.google.com/?cid=0x0:0xa834807a778ea193"
"restaurant";"Restoran";"Rumah Makan Blang Bugeng";"2MM2+99J, Meunasah Teungoh, Kec. Nurussalam, Kabupaten Aceh Timur, Aceh 24458";"Meunasah Teungoh, Kec. Nurussalam, Kabupaten Aceh Timur";"ACEH";"24458";"Indonesia";" 081375660322";"5.0334548";"97.6508763";"https://maps.google.com/?cid=0x0:0xd3fc303ee5fc3492"
"restaurant";"Kedai Kopi";"Kede";"2J6H+8V9, Seuneubok Panton, Kec. Darul Falah, Kabupaten Aceh Timur, Aceh 24458";"Seuneubok Panton, Kec. Darul Falah, Kabupaten Aceh Timur";"ACEH";"24458";"Indonesia";"";"5.010788";"97.6297233";"https://maps.google.com/?cid=0x0:0xebade339ffe93eb6"
"restaurant";"restaurant";"Kec. Darul Ihsan";"Kabupaten Aceh Timur, Aceh";"Kabupaten Aceh Timur, Aceh";"ACEH";"";"Indonesia";"";"4.9121713";"97.7511187";"https://maps.google.com/?cid=0x0:0x4217d2780b69b031"
"restaurant";"Pusat Pendidikan";"Pondok pesantren darul Iksan";"Jl. Puskesmas No.31, Bojong Baru, Kecamatan Bojonggede, Kabupaten Bogor, Jawa Barat 16920";"Bojong Baru, Kecamatan Bojonggede, Kabupaten Bogor";"ACEH";"16920";"Indonesia";"";"-6.4799425";"106.8018753";"https://maps.google.com/?cid=0x0:0xf638fd3d62f04e75"
"restaurant";"restaurant";"Ihsan Resto";"Jl. H. Abdul Gani II No.22a, Harapan Jaya, Kec. Cibinong, Kabupaten Bogor, Jawa Barat 16914";"Harapan Jaya, Kec. Cibinong, Kabupaten Bogor";"ACEH";"16914";"Indonesia";"";"-6.4510868";"106.8399389";"https://maps.google.com/?cid=0x0:0xa7502da280ebe328"
"restaurant";"restaurant";"Kec. Idi Rayeuk";"Kabupaten Aceh Timur, Aceh";"Kabupaten Aceh Timur, Aceh";"ACEH";"";"Indonesia";"";"4.9501675";"97.770381";"https://maps.google.com/?cid=0x0:0x1628dddf2364720"
"restaurant";"Rumah Makan";"Istanbul Coffee";"Jl. Medan - Banda Aceh, Tanoeh Anoe, Kec. Idi Rayeuk, Kabupaten Aceh Timur, Aceh 24454";"Tanoeh Anoe, Kec. Idi Rayeuk, Kabupaten Aceh Timur";"ACEH";"24454";"Indonesia";" 085262960642";"4.9404455";"97.7789006";"https://maps.google.com/?cid=0x0:0xf1c85113cf4aa205"
"restaurant";"Rumah Makan";"dr dimsum cafe idi Aceh timur";"Seuneubok Bacee, Kec. Idi Rayeuk, Kabupaten Aceh Timur, Aceh";"Kabupaten Aceh Timur, Aceh";"ACEH";"";"Indonesia";" 082211166244";"4.9373294";"97.7810645";"https://maps.google.com/?cid=0x0:0xb0cf9ae5d957e364"
"restaurant";"Rumah Makan";"Rumah Makan Dua Saudara idi";"Kuta Blang, Kec. Idi Rayeuk, Kabupaten Aceh Timur, Aceh";"Kabupaten Aceh Timur, Aceh";"ACEH";"";"Indonesia";" 085261762123";"4.9499486";"97.7709527";"https://maps.google.com/?cid=0x0:0xb04f100027379ca9"
"restaurant";"Seafood";"Tpi kuala idi";"XQ4G+P7V, Blang Geulumpang, Kec. Idi Rayeuk, Kabupaten Aceh Timur, Aceh 24454";"Blang Geulumpang, Kec. Idi Rayeuk, Kabupaten Aceh Timur";"ACEH";"24454";"Indonesia";"";"4.9573977";"97.7764487";"https://maps.google.com/?cid=0x0:0xf0f1a57bfc69de84"
"restaurant";"Kedai Kopi";"Conical Coffee  Dining";"Jl. Medan - Banda Aceh, Gampong Aceh, Kec. Idi Rayeuk, Kabupaten Aceh Timur, Aceh";"Kabupaten Aceh Timur, Aceh";"ACEH";"";"Indonesia";"";"4.951843";"97.765321";"https://maps.google.com/?cid=0x0:0x2c87dfe504154357"
"restaurant";"Brunch";"Warung Pak Jenggot";"Tanoh Anou, Kec. Idi Rayeuk, Kabupaten Aceh Timur, Aceh 24454";"Kec. Idi Rayeuk, Kabupaten Aceh Timur";"ACEH";"24454";"Indonesia";" 085359633128";"4.9451102";"97.7749429";"https://maps.google.com/?cid=0x0:0xb5acb8b08f160f7b"
"restaurant";"Brunch";"Rumah Makan MEUCIRASA";"Seuneubok Bacee, Kec. Idi Rayeuk, Kabupaten Aceh Timur, Aceh";"Kabupaten Aceh Timur, Aceh";"ACEH";"";"Indonesia";" 085260117044";"4.9354038";"97.7822353";"https://maps.google.com/?cid=0x0:0xea9ece5ce4d771d4"
"restaurant";"Kedai Kopi";"Rest Area Kopi Idi";"XQ29+7P9, Terminal, Keude Aceh, Kec. Idi Rayeuk, Kabupaten Aceh Timur, Aceh 24454";"Terminal, Keude Aceh, Kec. Idi Rayeuk, Kabupaten Aceh Timur";"ACEH";"24454";"Indonesia";"";"4.9506623";"97.7693561";"https://maps.google.com/?cid=0x0:0x32fdbb8b6cc3181"
"restaurant";"Kafe";"Perfect Taste Cafe";"WQRH+P7F, Tanoh Anou, Kec. Idi Rayeuk, Kabupaten Aceh Timur, Aceh";"Kabupaten Aceh Timur, Aceh";"ACEH";"";"Indonesia";"";"4.941821";"97.7781697";"https://maps.google.com/?cid=0x0:0x7040730de21df42d"
"restaurant";"Restoran";"Nasi Uduk Lestari Maju";"WQVG+X79, Tanoh Anou, Kec. Idi Rayeuk, Kabupaten Aceh Timur, Aceh";"Kabupaten Aceh Timur, Aceh";"ACEH";"";"Indonesia";"";"4.9449236";"97.7757472";"https://maps.google.com/?cid=0x0:0xa28282f9298f24ad"
"restaurant";"Ikan Bakar";"WAROENG IKAN BAKAR YAH DOE";"KOMPLEK PPN, Blang Geulumpang, Kec. Idi Rayeuk, Kabupaten Aceh Timur, Aceh";"Kabupaten Aceh Timur, Aceh";"ACEH";"";"Indonesia";" 082399222115";"4.9573171";"97.7763645";"https://maps.google.com/?cid=0x0:0xc8131c99faf17eca"
"restaurant";"Restoran";"King Fried Chicken - Idi Rayeuk";"Jl. Medan Banda Aceh, Tanoh Anou, Kec. Idi Rayeuk, Kabupaten Aceh Timur, Aceh";"Kabupaten Aceh Timur, Aceh";"ACEH";"";"Indonesia";"";"4.9468001";"97.7750312";"https://maps.google.com/?cid=0x0:0xfa234a94f57c43"
"restaurant";"Restoran";"Warung Mie Barcelona";"XQ2C+GJ2, Kp. Jawa, Kec. Idi Rayeuk, Kabupaten Aceh Timur, Aceh";"Kabupaten Aceh Timur, Aceh";"ACEH";"";"Indonesia";"";"4.9512564";"97.7715243";"https://maps.google.com/?cid=0x0:0x9faf210a4445a8a3"
"restaurant";"Rumah Makan";"dr dimsum cafe idi Aceh timur";"Seuneubok Bacee, Kec. Idi Rayeuk, Kabupaten Aceh Timur, Aceh";"Kabupaten Aceh Timur, Aceh";"ACEH";"";"Indonesia";" 082211166244";"4.9373294";"97.7810645";"https://maps.google.com/?cid=0x0:0xb0cf9ae5d957e364"
"restaurant";"Rumah Makan";"Istanbul Coffee";"Jl. Medan - Banda Aceh, Tanoeh Anoe, Kec. Idi Rayeuk, Kabupaten Aceh Timur, Aceh 24454";"Tanoeh Anoe, Kec. Idi Rayeuk, Kabupaten Aceh Timur";"ACEH";"24454";"Indonesia";" 085262960642";"4.9404455";"97.7789006";"https://maps.google.com/?cid=0x0:0xf1c85113cf4aa205"
"restaurant";"restaurant";"Kec. Idi Tim.";"Kabupaten Aceh Timur, Aceh";"Kabupaten Aceh Timur, Aceh";"ACEH";"";"Indonesia";"";"4.9203515";"97.7990189";"https://maps.google.com/?cid=0x0:0x46d60b30aadd6a41"
"restaurant";"Kafe";"Cafee resto abu panglima";"muku, Jl. Medan - Banda Aceh, Seuneubok Aceh, Kec. Idi Tim., Kabupaten Aceh Timur, Aceh";"Kabupaten Aceh Timur, Aceh";"ACEH";"";"Indonesia";" 08116741212";"4.921252";"97.7979163";"https://maps.google.com/?cid=0x0:0x4bb030b654146c"
"restaurant";"Kedai Kopi";"Kopi Paste";"WQMJ+XX5, Seuneubok Bacee, Kec. Idi Rayeuk, Kabupaten Aceh Timur, Aceh";"Kabupaten Aceh Timur, Aceh";"ACEH";"";"Indonesia";"";"4.9348859";"97.7824768";"https://maps.google.com/?cid=0x0:0xeaf3a652a5b7bf9f"
"restaurant";"Bakso";"Waroeng Herbal Pangsit  Bakso";"Jl. Medan - Banda Aceh, Kuala Pd. Puntong, Kec. Peudawa, Kabupaten Aceh Timur, Aceh 24458";"Kuala Pd. Puntong, Kec. Peudawa, Kabupaten Aceh Timur";"ACEH";"24458";"Indonesia";" 085358618993";"4.9281274";"97.7909215";"https://maps.google.com/?cid=0x0:0x53d48a582ffc4e7c"
"restaurant";"Kedai Kopi";"KAK TI COFFE";"Matang Rayeuk (SMK), Kec. Idi Tim., Kabupaten Aceh Timur, Aceh";"Kabupaten Aceh Timur, Aceh";"ACEH";"";"Indonesia";" 085372437384";"4.9254893";"97.8185051";"https://maps.google.com/?cid=0x0:0xde7076f77c6584bc"
"restaurant";"";"Hang out";"WQCX+V2R, Ketapang Dua, Kec. Idi Tim., Kabupaten Aceh Timur, Aceh";"Kabupaten Aceh Timur, Aceh";"ACEH";"";"Indonesia";"";"4.922233";"97.7975218";"https://maps.google.com/?cid=0x0:0x6cd4824bda9d1c9c"
"restaurant";"Restoran";"Nasi Uduk Lestari Maju";"WQVG+X79, Tanoh Anou, Kec. Idi Rayeuk, Kabupaten Aceh Timur, Aceh";"Kabupaten Aceh Timur, Aceh";"ACEH";"";"Indonesia";"";"4.9449236";"97.7757472";"https://maps.google.com/?cid=0x0:0xa28282f9298f24ad"
"restaurant";"Rumah Makan";"Rumah Makan Dua Saudara idi";"Kuta Blang, Kec. Idi Rayeuk, Kabupaten Aceh Timur, Aceh";"Kabupaten Aceh Timur, Aceh";"ACEH";"";"Indonesia";" 085261762123";"4.9499486";"97.7709527";"https://maps.google.com/?cid=0x0:0xb04f100027379ca9"
"restaurant";"Brunch";"Rumah Makan MEUCIRASA";"Seuneubok Bacee, Kec. Idi Rayeuk, Kabupaten Aceh Timur, Aceh";"Kabupaten Aceh Timur, Aceh";"ACEH";"";"Indonesia";" 085260117044";"4.9354038";"97.7822353";"https://maps.google.com/?cid=0x0:0xea9ece5ce4d771d4"
"restaurant";"Kedai Kopi";"Rest Area Kopi Idi";"XQ29+7P9, Terminal, Keude Aceh, Kec. Idi Rayeuk, Kabupaten Aceh Timur, Aceh 24454";"Terminal, Keude Aceh, Kec. Idi Rayeuk, Kabupaten Aceh Timur";"ACEH";"24454";"Indonesia";"";"4.9506623";"97.7693561";"https://maps.google.com/?cid=0x0:0x32fdbb8b6cc3181"
"restaurant";"Restoran";"Warung Mie Barcelona";"XQ2C+GJ2, Kp. Jawa, Kec. Idi Rayeuk, Kabupaten Aceh Timur, Aceh";"Kabupaten Aceh Timur, Aceh";"ACEH";"";"Indonesia";"";"4.9512564";"97.7715243";"https://maps.google.com/?cid=0x0:0x9faf210a4445a8a3"
"restaurant";"Padang";"Restoran padang Minang Kabau idi";"WQHQ+VQG, Jl. Medan Banda Aceh, Titi Baro, Kec. Idi Rayeuk, Kabupaten Aceh Timur, Aceh";"Kabupaten Aceh Timur, Aceh";"ACEH";"";"Indonesia";" 085270658699";"4.9296988";"97.7894569";"https://maps.google.com/?cid=0x0:0x4a5634f7163838b8"
"restaurant";"restaurant";"Kec. Idi Tunong";"Kabupaten Aceh Timur, Aceh";"Kabupaten Aceh Timur, Aceh";"ACEH";"";"Indonesia";"";"4.924037";"97.7300209";"https://maps.google.com/?cid=0x0:0xce43963eb576bc1b"
"restaurant";"Kafe";"DAPOER HAL,WAY COFFE";"XQ47+9WF, Gampong Jl., Kec. Idi Rayeuk, Kabupaten Aceh Timur, Aceh";"Kabupaten Aceh Timur, Aceh";"ACEH";"";"Indonesia";" 085361328334";"4.9559304";"97.7647835";"https://maps.google.com/?cid=0x0:0x76fb01951fb7c7b"
"restaurant";"Kedai Kopi";"Conical Coffee  Dining";"Jl. Medan - Banda Aceh, Gampong Aceh, Kec. Idi Rayeuk, Kabupaten Aceh Timur, Aceh";"Kabupaten Aceh Timur, Aceh";"ACEH";"";"Indonesia";"";"4.951843";"97.765321";"https://maps.google.com/?cid=0x0:0x2c87dfe504154357"
"restaurant";"Rumah Makan";"Istanbul Coffee";"Jl. Medan - Banda Aceh, Tanoeh Anoe, Kec. Idi Rayeuk, Kabupaten Aceh Timur, Aceh 24454";"Tanoeh Anoe, Kec. Idi Rayeuk, Kabupaten Aceh Timur";"ACEH";"24454";"Indonesia";" 085262960642";"4.9404455";"97.7789006";"https://maps.google.com/?cid=0x0:0xf1c85113cf4aa205"
"restaurant";"Rumah Makan";"dr dimsum cafe idi Aceh timur";"Seuneubok Bacee, Kec. Idi Rayeuk, Kabupaten Aceh Timur, Aceh";"Kabupaten Aceh Timur, Aceh";"ACEH";"";"Indonesia";" 082211166244";"4.9373294";"97.7810645";"https://maps.google.com/?cid=0x0:0xb0cf9ae5d957e364"
"restaurant";"Kafe";"Kopi Paste";"Gampong Aceh, Kec. Idi Rayeuk, Kabupaten Aceh Timur, Aceh";"Kabupaten Aceh Timur, Aceh";"ACEH";"";"Indonesia";" 085294533217";"4.9508609";"97.7652758";"https://maps.google.com/?cid=0x0:0x7e59221d6fec7b12"
"restaurant";"restaurant";"GERAI MBAK U_H";"Jalan Keude geurobak, Paya Awe, Kec. Idi Tunong, Aceh 24454";"Paya Awe, Kec. Idi Tunong";"ACEH";"24454";"Indonesia";" 081262040364";"4.8937973";"97.7307236";"https://maps.google.com/?cid=0x0:0x4a6e450210868f9d"
"restaurant";"Kedai Kopi";"Aceh meutuah";"WPHP+H56, Jl. Keude Geurubak, Seuneubok Jl., Kec. Idi Tunong, Kabupaten Aceh Timur, Aceh 24455";"Jl. Keude Geurubak, Seuneubok Jl., Kec. Idi Tunong, Kabupaten Aceh Timur";"ACEH";"24455";"Indonesia";" 082214462896";"4.9289048";"97.7353765";"https://maps.google.com/?cid=0x0:0x3596f3d623055550"
"restaurant";"Brunch";"Warung Pak Jenggot";"Tanoh Anou, Kec. Idi Rayeuk, Kabupaten Aceh Timur, Aceh 24454";"Kec. Idi Rayeuk, Kabupaten Aceh Timur";"ACEH";"24454";"Indonesia";" 085359633128";"4.9451102";"97.7749429";"https://maps.google.com/?cid=0x0:0xb5acb8b08f160f7b"
"restaurant";"Rumah Makan";"Rumah Makan Dua Saudara idi";"Kuta Blang, Kec. Idi Rayeuk, Kabupaten Aceh Timur, Aceh";"Kabupaten Aceh Timur, Aceh";"ACEH";"";"Indonesia";" 085261762123";"4.9499486";"97.7709527";"https://maps.google.com/?cid=0x0:0xb04f100027379ca9"
"restaurant";"Kafe";"Gampong Kupi";"Jl. Medan - Banda Aceh, Gampong Aceh, Kec. Idi Rayeuk, Kabupaten Aceh Timur, Aceh 24454";"Gampong Aceh, Kec. Idi Rayeuk, Kabupaten Aceh Timur";"ACEH";"24454";"Indonesia";" 082310377140";"4.9507152";"97.7658328";"https://maps.google.com/?cid=0x0:0x96229f7e66e8dc54"
"restaurant";"Pemasok makanan dan minuman katering";"Warung jasa mama papa";"Unnamed Road, Paya Awe, Kec. Idi Tunong, Kabupaten Aceh Timur, Aceh 24454";"Paya Awe, Kec. Idi Tunong, Kabupaten Aceh Timur";"ACEH";"24454";"Indonesia";"";"4.8936383";"97.7307583";"https://maps.google.com/?cid=0x0:0xaa2fa89cb9c6eb77"
"restaurant";"Kedai Kopi";"Dekta kupi";"WP9F+RR6, Buket Teukuh, Kec. Idi Tunong, Kabupaten Aceh Timur, Aceh 24455";"Buket Teukuh, Kec. Idi Tunong, Kabupaten Aceh Timur";"ACEH";"24455";"Indonesia";" 081262033572";"4.9195273";"97.7245262";"https://maps.google.com/?cid=0x0:0x90e74e98edec3fd0"
"restaurant";"Kedai Kopi";"Rest Area Kopi Idi";"XQ29+7P9, Terminal, Keude Aceh, Kec. Idi Rayeuk, Kabupaten Aceh Timur, Aceh 24454";"Terminal, Keude Aceh, Kec. Idi Rayeuk, Kabupaten Aceh Timur";"ACEH";"24454";"Indonesia";"";"4.9506623";"97.7693561";"https://maps.google.com/?cid=0x0:0x32fdbb8b6cc3181"
"restaurant";"Brunch";"RM Keumala";"WH9V+R43, Alue Ie Mirah, Kec. Indra Makmur, Kabupaten Aceh Timur, Aceh 24458";"Alue Ie Mirah, Kec. Indra Makmur, Kabupaten Aceh Timur";"ACEH";"24458";"Indonesia";"";"4.9195163";"97.592806";"https://maps.google.com/?cid=0x0:0x68d387733c6b208a"
"restaurant";"restaurant";"Aceh 24457";"Kabupaten Aceh Timur, Aceh";"Kabupaten Aceh Timur, Aceh";"ACEH";"";"Indonesia";"";"4.7891972";"97.5897372";"https://maps.google.com/?cid=0x0:0x9a96488e19c6198c"
"restaurant";"Kafe";"Warung Vino";"WJ74+8C3, Suka Makmur, Kec. Indra Makmur, Kabupaten Aceh Timur, Aceh 24457";"Suka Makmur, Kec. Indra Makmur, Kabupaten Aceh Timur";"ACEH";"24457";"Indonesia";" 082160831981";"4.9132594";"97.6060568";"https://maps.google.com/?cid=0x0:0xe2a8c3d0760e9012"
"restaurant";"Rumah Makan";"dr dimsum cafe idi Aceh timur";"Seuneubok Bacee, Kec. Idi Rayeuk, Kabupaten Aceh Timur, Aceh";"Kabupaten Aceh Timur, Aceh";"ACEH";"";"Indonesia";" 082211166244";"4.9373294";"97.7810645";"https://maps.google.com/?cid=0x0:0xb0cf9ae5d957e364"
"restaurant";"Kedai Kopi";"AILA cafe";"RJJG+M5R, Perk Julok Rayeuk Sel., Kec. Indra Makmur, Kabupaten Aceh Timur, Aceh 24457";"Perk Julok Rayeuk Sel., Kec. Indra Makmur, Kabupaten Aceh Timur";"ACEH";"24457";"Indonesia";"";"4.8317352";"97.6253994";"https://maps.google.com/?cid=0x0:0x587c7cc7cd5e39eb"
"restaurant";"Brunch";"Rumah Makan MEUCIRASA";"Seuneubok Bacee, Kec. Idi Rayeuk, Kabupaten Aceh Timur, Aceh";"Kabupaten Aceh Timur, Aceh";"ACEH";"";"Indonesia";" 085260117044";"4.9354038";"97.7822353";"https://maps.google.com/?cid=0x0:0xea9ece5ce4d771d4"
"restaurant";"Bakso";"Ayam Penyet Cuplis";"VJW8+557, Seuneubok Cina, Kec. Indra Makmur, Kabupaten Aceh Timur, Aceh 24457";"Seuneubok Cina, Kec. Indra Makmur, Kabupaten Aceh Timur";"ACEH";"24457";"Indonesia";" 081262137751";"4.8954008";"97.6154261";"https://maps.google.com/?cid=0x0:0x726c472e2eb88b68"
"restaurant";"Brunch";"RM Buk Say";"Ie Itam, dusun mesjid, Jl. Alue, Alue Ie Mirah, Kec. Indra Makmur, Kabupaten Aceh Timur, Aceh 24458";"dusun mesjid, Jl. Alue, Alue Ie Mirah, Kec. Indra Makmur, Kabupaten Aceh Timur";"ACEH";"24458";"Indonesia";" 082267916337";"4.9178151";"97.5932949";"https://maps.google.com/?cid=0x0:0xa68b0e6141b3968b"
"restaurant";"Toko bahan makanan";"Kedai Cek Ni";"WHFP+VFM, lrg B, Jambo Lubok, Kec. Indra Makmur, Kabupaten Aceh Timur, Aceh 24458";"lrg B, Jambo Lubok, Kec. Indra Makmur, Kabupaten Aceh Timur";"ACEH";"24458";"Indonesia";"";"4.9247123";"97.5861581";"https://maps.google.com/?cid=0x0:0x36224021c90f68ad"
"restaurant";"Kedai Kopi";"Conical Coffee  Dining";"Jl. Medan - Banda Aceh, Gampong Aceh, Kec. Idi Rayeuk, Kabupaten Aceh Timur, Aceh";"Kabupaten Aceh Timur, Aceh";"ACEH";"";"Indonesia";"";"4.951843";"97.765321";"https://maps.google.com/?cid=0x0:0x2c87dfe504154357"
"restaurant";"Jus";"Warung apa lebay";"WJR3+CCR, Blang Nisam, Kec. Indra Makmur, Kabupaten Aceh Timur, Aceh 24457";"Blang Nisam, Kec. Indra Makmur, Kabupaten Aceh Timur";"ACEH";"24457";"Indonesia";"";"4.941108";"97.6035184";"https://maps.google.com/?cid=0x0:0xf5e0d00aa4028196"
"restaurant";"Mi";"Cabang Mie Wak Hasan Langsa";"Jl. Medan Banda Aceh, Seuneubok Bacee, Kec. Idi Rayeuk, Kabupaten Aceh Timur, Aceh";"Kabupaten Aceh Timur, Aceh";"ACEH";"";"Indonesia";" 081377170200";"4.9429696";"97.777174";"https://maps.google.com/?cid=0x0:0x438257eb64345b40"
"restaurant";"Restoran";"Nasi Uduk Lestari Maju";"WQVG+X79, Tanoh Anou, Kec. Idi Rayeuk, Kabupaten Aceh Timur, Aceh";"Kabupaten Aceh Timur, Aceh";"ACEH";"";"Indonesia";"";"4.9449236";"97.7757472";"https://maps.google.com/?cid=0x0:0xa28282f9298f24ad"
"restaurant";"Bar";"Gudang mutiara tanoh anou";"Tanoh Anou, Kec. Darul Ihsan, Kabupaten Aceh Timur, Aceh";"Kabupaten Aceh Timur, Aceh";"ACEH";"";"Indonesia";" 081264002998";"4.9436993";"97.7722923";"https://maps.google.com/?cid=0x0:0x66e3d476b5192c8b"
"restaurant";"Kedai Kopi";"Kana Caffe SPBU Kuta Binjei";"Julok Tunong, Kec. Julok, Kabupaten Aceh Timur, Aceh 24458";"Kec. Julok, Kabupaten Aceh Timur";"ACEH";"24458";"Indonesia";"";"5.0434499";"97.6210282";"https://maps.google.com/?cid=0x0:0x9dea43f13cf12af8"
"restaurant";"Bakso";"RUMAH MAKAN SELERA BARU";"2JVF+5R2, Blang Paoh Dua, Kec. Julok, Kabupaten Aceh Timur, Aceh 24458";"Blang Paoh Dua, Kec. Julok, Kabupaten Aceh Timur";"ACEH";"24458";"Indonesia";" 085277155725";"5.0428962";"97.6245281";"https://maps.google.com/?cid=0x0:0x2f84d1851ab70648"
"restaurant";"restaurant";"Kec. Julok";"Kabupaten Aceh Timur, Aceh";"Kabupaten Aceh Timur, Aceh";"ACEH";"";"Indonesia";"";"5.0420084";"97.6270812";"https://maps.google.com/?cid=0x0:0xcfeec36b993a81dd"
"restaurant";"Restoran";"Kuta Binjei";"Jl.medan-banda Aceh.gp Blang pauh dua, Keude Kuta Binjai, Kec. Julok, Kabupaten Aceh Timur, Aceh";"Kabupaten Aceh Timur, Aceh";"ACEH";"";"Indonesia";" 085216280550";"5.0420625";"97.6270625";"https://maps.google.com/?cid=0x0:0x9573fd4feaafe306"
"restaurant";"Bakso";"Julok";"3JJ8+66Q, Lhok Seuntang, Kec. Julok, Kabupaten Aceh Timur, Aceh";"Kabupaten Aceh Timur, Aceh";"ACEH";"";"Indonesia";"";"5.0805788";"97.6156168";"https://maps.google.com/?cid=0x0:0xd5a45a572e9e710a"
"restaurant";"Bakso";"Ulee Ateung";"2JMC+HJ9, Ulee Ateung, Kec. Julok, Kabupaten Aceh Timur, Aceh 24458";"Ulee Ateung, Kec. Julok, Kabupaten Aceh Timur";"ACEH";"24458";"Indonesia";" 082363860920";"5.0339246";"97.6216043";"https://maps.google.com/?cid=0x0:0xfbb61ad49067bdba"
"restaurant";"Kafe";"Kede Bg Pesal";"2JPG+H2W, Jl. Alue Ie Mirah, Ulee Ateung, Kec. Julok, Kabupaten Aceh Timur, Aceh 24458";"Jl. Alue Ie Mirah, Ulee Ateung, Kec. Julok, Kabupaten Aceh Timur";"ACEH";"24458";"Indonesia";" 085260405108";"5.0364761";"97.6250901";"https://maps.google.com/?cid=0x0:0x894fa7958b6fe2e9"
"restaurant";"Kafe";"KEDAI KOPI NEW KLASIK";"Jl. Kuala Geulumpang, Blang Paoh Dua, Kec. Julok, Kabupaten Aceh Timur, Aceh 24458";"Blang Paoh Dua, Kec. Julok, Kabupaten Aceh Timur";"ACEH";"24458";"Indonesia";"";"5.0421003";"97.6270874";"https://maps.google.com/?cid=0x0:0x9bb226fe5af83d0"
"restaurant";"Kedai Kopi";"Waklah coffe official";"Jalan lhoek seuntang, dusun riwat, Naleung, Kec. Julok, Kabupaten Aceh Timur, Aceh 24457";"dusun riwat, Naleung, Kec. Julok, Kabupaten Aceh Timur";"ACEH";"24457";"Indonesia";"";"5.0706213";"97.6403933";"https://maps.google.com/?cid=0x0:0x212e328766e9bd17"
"restaurant";"Dapur Umum";"MIE Kuala Ceurape";"2JV9+J7X, Jl. Medan - Banda Aceh, Julok Tunong, Kec. Julok, Kabupaten Aceh Timur, Aceh 24458";"Jl. Medan - Banda Aceh, Julok Tunong, Kec. Julok, Kabupaten Aceh Timur";"ACEH";"24458";"Indonesia";"";"5.0441232";"97.6182323";"https://maps.google.com/?cid=0x0:0x17b082dbb7671cfd"
"restaurant";"Kafe";"Zona Coffee";"2JRM+G2Q, Ulee Tanoh, Kec. Julok, Kabupaten Aceh Timur, Aceh 24458";"Ulee Tanoh, Kec. Julok, Kabupaten Aceh Timur";"ACEH";"24458";"Indonesia";"";"5.0413431";"97.6326213";"https://maps.google.com/?cid=0x0:0x96fe083a9f48db3f"
"restaurant";"Kedai Kopi";""J" Coffee Shop";"2JRG+8Q4, Blang Paoh Satu, Kec. Julok, Kabupaten Aceh Timur, Aceh 24458";"Blang Paoh Satu, Kec. Julok, Kabupaten Aceh Timur";"ACEH";"24458";"Indonesia";" 081360358477";"5.0407674";"97.6269534";"https://maps.google.com/?cid=0x0:0xdd995ae49889d83f"
"restaurant";"Kafe";"OPERATOR KOPI";"2JVG+25C, Blang Paoh Dua, Kec. Julok, Kabupaten Aceh Timur, Aceh 24458";"Blang Paoh Dua, Kec. Julok, Kabupaten Aceh Timur";"ACEH";"24458";"Indonesia";"";"5.0423474";"97.625545";"https://maps.google.com/?cid=0x0:0x3c1ce177832b8ae3"
"restaurant";"Kafe";"Cafe OGEM Labuhan City";"3J37+8J6, Muda Kari Desa Labuhan Timur, Labohan, Kec. Julok, Kabupaten Aceh Timur, Aceh 24458";"Muda Kari Desa Labuhan Timur, Labohan, Kec. Julok, Kabupaten Aceh Timur";"ACEH";"24458";"Indonesia";" 081360577234";"5.0532918";"97.6140253";"https://maps.google.com/?cid=0x0:0x7cb2ee27b64f3586"
"restaurant";"Restoran";"WULAN RESTO  COFFEE";"RV6W+3F4, Leuge, Kec. Peureulak, Kabupaten Aceh Timur, Aceh";"Kabupaten Aceh Timur, Aceh";"ACEH";"";"Indonesia";"";"4.810128";"97.8962151";"https://maps.google.com/?cid=0x0:0x457f9175d38b7aef"
"restaurant";"restaurant";"Kuliner";"4F5F+283 Idi, Paya Naden, Kec. Madat, Kabupaten Aceh Timur, Aceh 24462";"Paya Naden, Kec. Madat, Kabupaten Aceh Timur";"ACEH";"24462";"Indonesia";"";"5.1075035";"97.4732991";"https://maps.google.com/?cid=0x0:0xfed9ed4a90b895d"
"restaurant";"Restoran";"Bakso Gunting";"4G56+4XQ, Madat, Kec. Madat, Kabupaten Aceh Timur, Aceh 24458";"Madat, Kec. Madat, Kabupaten Aceh Timur";"ACEH";"24458";"Indonesia";" 082290472077";"5.1075732";"97.5125305";"https://maps.google.com/?cid=0x0:0x3eae126ad87b31ab"
"restaurant";"Kafe";"Warkop, Bg Hamid";"4G35+P79, Unnamed Road, Paya Deumam Peut, Kec. Madat, Kabupaten Aceh Timur, Aceh 24458";"Unnamed Road, Paya Deumam Peut, Kec. Madat, Kabupaten Aceh Timur";"ACEH";"24458";"Indonesia";" 085260659885";"5.1042851";"97.5082373";"https://maps.google.com/?cid=0x0:0xce1366c7ddca3342"
"restaurant";"Kafe";"Usaha maju";"4G77+F2Q, Matang Keupula Satu, Kec. Madat, Kabupaten Aceh Timur, Aceh 24458";"Matang Keupula Satu, Kec. Madat, Kabupaten Aceh Timur";"ACEH";"24458";"Indonesia";" 082363340404";"5.1137105";"97.5126199";"https://maps.google.com/?cid=0x0:0xbe28aba853747445"
"restaurant";"Kafe";"Warung Kak Atik";"4G55+3QC, Madat, Kec. Madat, Kabupaten Aceh Timur, Aceh 24458";"Madat, Kec. Madat, Kabupaten Aceh Timur";"ACEH";"24458";"Indonesia";"";"5.1076971";"97.5093853";"https://maps.google.com/?cid=0x0:0x6c2fa5036c8deeb7"
"restaurant";"Restoran";"Keude Matang Keupula Satu";"4G77+H2W, Matang Keupula Satu, Kec. Madat, Kabupaten Aceh Timur, Aceh 24458";"Matang Keupula Satu, Kec. Madat, Kabupaten Aceh Timur";"ACEH";"24458";"Indonesia";"";"5.1139779";"97.5125789";"https://maps.google.com/?cid=0x0:0x31608a982a90d13d"
"restaurant";"Kedai Kopi";"Depan sekolah min";"4G47+WM5, Madat, Kec. Madat, Kabupaten Aceh Timur, Aceh 24458";"Madat, Kec. Madat, Kabupaten Aceh Timur";"ACEH";"24458";"Indonesia";"";"5.1069988";"97.5140372";"https://maps.google.com/?cid=0x0:0x38cfdbbf04d1d6b"
"restaurant";"Kedai Kopi";"Kede Kuphi Apadan";"Pante Bayam, Kec. Madat, Kabupaten Aceh Timur, Aceh 24458";"Kec. Madat, Kabupaten Aceh Timur";"ACEH";"24458";"Indonesia";" 085371762480";"5.1715115";"97.5005479";"https://maps.google.com/?cid=0x0:0xe9cccd76c12427ac"
"restaurant";"Restoran";"ardani";"3GH8+C95, Jl. Medan Banda Aceh, Meunasah Leubok, Kec. Pante Bidari, Kabupaten Aceh Timur, Aceh 24458";"Jl. Medan Banda Aceh, Meunasah Leubok, Kec. Pante Bidari, Kabupaten Aceh Timur";"ACEH";"24458";"Indonesia";"";"5.07851";"97.5159882";"https://maps.google.com/?cid=0x0:0x902e03df53ae08c0"
"restaurant";"Restoran";"Kide bg sairi";"4F9F+96F, Seuneubok Pidie, Kec. Madat, Kabupaten Aceh Timur, Aceh 24458";"Seuneubok Pidie, Kec. Madat, Kabupaten Aceh Timur";"ACEH";"24458";"Indonesia";"";"5.1184464";"97.4730503";"https://maps.google.com/?cid=0x0:0x4572e5c342b2fae4"
"restaurant";"Kafe";"Keude Mulyadi";"5F2R+HP4, Lueng Satu, Kec. Madat, Kabupaten Aceh Timur, Aceh 24458";"Lueng Satu, Kec. Madat, Kabupaten Aceh Timur";"ACEH";"24458";"Indonesia";" 082276663398";"5.1513922";"97.4918399";"https://maps.google.com/?cid=0x0:0xb933d9fe583d30f2"
"restaurant";"Kedai Kopi";"Keude blang ARB";"5G92+RW2, Unnamed Road, Pante Bayam, Kec. Madat, Kabupaten Aceh Timur, Aceh 24458";"Unnamed Road, Pante Bayam, Kec. Madat, Kabupaten Aceh Timur";"ACEH";"24458";"Indonesia";" 082253664591";"5.1695189";"97.5022647";"https://maps.google.com/?cid=0x0:0x103bcc7593af0c30"
"restaurant";"Kedai Kopi";"Café Ayah boss";"4F5C+WCV, Jl. Medan Banda Aceh, Paya Naden, Kec. Madat, Kabupaten Aceh Utara, Aceh 24458";"Jl. Medan Banda Aceh, Paya Naden, Kec. Madat, Kabupaten Aceh Utara";"ACEH";"24458";"Indonesia";"";"5.1098574";"97.4710565";"https://maps.google.com/?cid=0x0:0x60405e9dc042fa80"
"restaurant";"Kafe";"Chans Coffee  Bamboo Kuliner";"Jln Medan - Banda Aceh Desa Meunasah teungoh, Blang bugeng, Kec. Nurussalam, Kabupaten Aceh Timur, Aceh 24456";"Blang bugeng, Kec. Nurussalam, Kabupaten Aceh Timur";"ACEH";"24456";"Indonesia";" 085276845222";"5.0339914";"97.6485074";"https://maps.google.com/?cid=0x0:0xd9cd8e869adf4839"
"restaurant";"restaurant";"Kec. Nurussalam";"Kabupaten Aceh Timur, Aceh";"Kabupaten Aceh Timur, Aceh";"ACEH";"";"Indonesia";"";"5.0288426";"97.6662315";"https://maps.google.com/?cid=0x0:0x8a1127d50c7b392d"
"restaurant";"Bakso";"REUNI BAKSO";"2MJ4+Q57, Keude Bagok, Kec. Nurussalam, Kabupaten Aceh Timur, Aceh 24458";"Keude Bagok, Kec. Nurussalam, Kabupaten Aceh Timur";"ACEH";"24458";"Indonesia";" 082273552024";"5.0319095";"97.6554189";"https://maps.google.com/?cid=0x0:0x41e8841d9f87ef9a"
"restaurant";"Restoran";"Rumah Makan Blang Bugeng";"2MM2+99J, Meunasah Teungoh, Kec. Nurussalam, Kabupaten Aceh Timur, Aceh 24458";"Meunasah Teungoh, Kec. Nurussalam, Kabupaten Aceh Timur";"ACEH";"24458";"Indonesia";" 081375660322";"5.0334548";"97.6508763";"https://maps.google.com/?cid=0x0:0xd3fc303ee5fc3492"
"restaurant";"Rumah Makan";"RUMAH MAKAN BUNGA KEMBAR";"2MJ5+76Q, Jl. Medan Banda Aceh, Kp. Keude Bagok, Kec. Nurussalam, Kabupaten Aceh Timur, Aceh 24458";"Jl. Medan Banda Aceh, Kp. Keude Bagok, Kec. Nurussalam, Kabupaten Aceh Timur";"ACEH";"24458";"Indonesia";"";"5.0307139";"97.6581138";"https://maps.google.com/?cid=0x0:0x6faec1934778e5b3"
"restaurant";"Restoran";"Duta Aulia";"2MH8+FMG, Jl. Medan Banda Aceh, Matang Seuleumak, Kec. Nurussalam, Kabupaten Aceh Timur, Aceh 24458";"Jl. Medan Banda Aceh, Matang Seuleumak, Kec. Nurussalam, Kabupaten Aceh Timur";"ACEH";"24458";"Indonesia";"";"5.028692";"97.6667048";"https://maps.google.com/?cid=0x0:0xa04abd245b72a133"
"restaurant";"Restoran";"Kafe Seumatang aron";"2JHV+46W, Seumatang Aron, Kec. Nurussalam, Kabupaten Aceh Timur, Aceh 24458";"Seumatang Aron, Kec. Nurussalam, Kabupaten Aceh Timur";"ACEH";"24458";"Indonesia";" 082235016350";"5.0278516";"97.6430838";"https://maps.google.com/?cid=0x0:0x6db5cf5cd160147a"
"restaurant";"Bakso";"Ulee Ateung";"2JMC+HJ9, Ulee Ateung, Kec. Julok, Kabupaten Aceh Timur, Aceh 24458";"Ulee Ateung, Kec. Julok, Kabupaten Aceh Timur";"ACEH";"24458";"Indonesia";" 082363860920";"5.0339246";"97.6216043";"https://maps.google.com/?cid=0x0:0xfbb61ad49067bdba"
"restaurant";"Kedai Kopi";"RANGKANG KUPI";"Jl. Medan Banda Aceh, Kp. Keude Bagok, Kec. Nurussalam, Kabupaten Aceh Timur, Aceh 24458";"Kp. Keude Bagok, Kec. Nurussalam, Kabupaten Aceh Timur";"ACEH";"24458";"Indonesia";" 081380817991";"5.032402";"97.653863";"https://maps.google.com/?cid=0x0:0x49be0bc1b534211c"
"restaurant";"Restoran";"Sultan Kupi Aceh";"Gp, Jl. Medan Banda Aceh, Matang Seuleumak, Kec. Nurussalam, Kabupaten Aceh Timur, Aceh 24456";"Jl. Medan Banda Aceh, Matang Seuleumak, Kec. Nurussalam, Kabupaten Aceh Timur";"ACEH";"24456";"Indonesia";" 085162939798";"5.0279701";"97.6685692";"https://maps.google.com/?cid=0x0:0x4dbb384cb7230d9d"
"restaurant";"Bakso";"Rumah Bakso Despul";"Blang Uyok, Kec. Julok, Kabupaten Aceh Timur, Aceh";"Kabupaten Aceh Timur, Aceh";"ACEH";"";"Indonesia";"";"5.0464777";"97.6274129";"https://maps.google.com/?cid=0x0:0xaf3ab46206ae31ce"
"restaurant";"Restoran";"Rumah Makan Syedara";"2MHF+646, Teupin Pukat, Kec. Nurussalam, Kabupaten Aceh Timur, Aceh";"Kabupaten Aceh Timur, Aceh";"ACEH";"";"Indonesia";" 082271538898";"5.0280293";"97.6727611";"https://maps.google.com/?cid=0x0:0x595e0bf7a7a50d46"
"restaurant";"Restoran";"Zahrul ilmi";"XJPR+7F5, Gampung Jl., Kec. Nurussalam, Kabupaten Aceh Timur, Aceh 24458";"Gampung Jl., Kec. Nurussalam, Kabupaten Aceh Timur";"ACEH";"24458";"Indonesia";"";"4.9856384";"97.6412214";"https://maps.google.com/?cid=0x0:0xb898998e788743ee"
"restaurant";"Kedai Kopi";"Kede Kupi Apayok";"2MHG+FFP, Teupin Pukat, Kec. Nurussalam, Kabupaten Aceh Timur, Aceh";"Kabupaten Aceh Timur, Aceh";"ACEH";"";"Indonesia";" 081366104500";"5.0287216";"97.6761912";"https://maps.google.com/?cid=0x0:0x8577276be758ded5"
"restaurant";"Restoran";"ardani";"3GH8+C95, Jl. Medan Banda Aceh, Meunasah Leubok, Kec. Pante Bidari, Kabupaten Aceh Timur, Aceh 24458";"Jl. Medan Banda Aceh, Meunasah Leubok, Kec. Pante Bidari, Kabupaten Aceh Timur";"ACEH";"24458";"Indonesia";"";"5.07851";"97.5159882";"https://maps.google.com/?cid=0x0:0x902e03df53ae08c0"
"restaurant";"Indonesia";"Bidari Land";"Jl. Medan - Banda Aceh, Matang Pudeng, Kec. Pante Bidari, Kabupaten Aceh Timur, Aceh";"Kabupaten Aceh Timur, Aceh";"ACEH";"";"Indonesia";" 081276720713";"5.095233";"97.4967053";"https://maps.google.com/?cid=0x0:0x1d4caaddc3983df9"
"restaurant";"restaurant";"Aceh 24458";"Kabupaten Aceh Timur, Aceh";"Kabupaten Aceh Timur, Aceh";"ACEH";"";"Indonesia";"";"4.9131571";"97.5463885";"https://maps.google.com/?cid=0x0:0x82c363c7b075e66"
"restaurant";"Mi";"Mie Pangsit Aceh";"3G8C+Q7F, Meunasah Tunong, Kec. Pante Bidari, Kabupaten Aceh Timur, Aceh";"Kabupaten Aceh Timur, Aceh";"ACEH";"";"Indonesia";" 082360729196";"5.0661277";"97.520386";"https://maps.google.com/?cid=0x0:0x1212a5474c0a58f9"
"restaurant";"Kafe";"ERNA CAFEE ACEH";"3FWW+575, Jl. Medan Banda Aceh, Matang Pudeng, Kec. Pante Bidari, Kabupaten Aceh Timur, Aceh 24458";"Jl. Medan Banda Aceh, Matang Pudeng, Kec. Pante Bidari, Kabupaten Aceh Timur";"ACEH";"24458";"Indonesia";" 082271522020";"5.0953794";"97.4957462";"https://maps.google.com/?cid=0x0:0x67c19aed9dcd3597"
"restaurant";"Restoran";"Keude Wak Lah";"2G25+MPH, Alue Ie Mirah, Kec. Pante Bidari, Kabupaten Aceh Timur, Aceh 24458";"Alue Ie Mirah, Kec. Pante Bidari, Kabupaten Aceh Timur";"ACEH";"24458";"Indonesia";"";"5.0016929";"97.5093577";"https://maps.google.com/?cid=0x0:0xc712ec232d7486a"
"restaurant";"Bakso";"Bakso Bang Ami cabang 2";"3GC9+HMW, Keude Baro, Kec. Pante Bidari, Kabupaten Aceh Timur, Aceh 24458";"Keude Baro, Kec. Pante Bidari, Kabupaten Aceh Timur";"ACEH";"24458";"Indonesia";"";"5.071436";"97.5193017";"https://maps.google.com/?cid=0x0:0x8e38a6cd000bccec"
"restaurant";"restaurant";"Kec. Pante Bidari";"Kabupaten Aceh Timur, Aceh";"Kabupaten Aceh Timur, Aceh";"ACEH";"";"Indonesia";"";"4.953656";"97.509824";"https://maps.google.com/?cid=0x0:0x16c3cbd7c02b2301"
"restaurant";"Bakso";"RUMAH MAKAN SELERA BARU";"2JVF+5R2, Blang Paoh Dua, Kec. Julok, Kabupaten Aceh Timur, Aceh 24458";"Blang Paoh Dua, Kec. Julok, Kabupaten Aceh Timur";"ACEH";"24458";"Indonesia";" 085277155725";"5.0428962";"97.6245281";"https://maps.google.com/?cid=0x0:0x2f84d1851ab70648"
"restaurant";"Restoran";"Waroeng bang said since2003";"3GMG+PM8, Matang Kruet, Kec. Pante Bidari, Kabupaten Aceh Timur, Aceh 24458";"Matang Kruet, Kec. Pante Bidari, Kabupaten Aceh Timur";"ACEH";"24458";"Indonesia";" 081215398403";"5.0842801";"97.526712";"https://maps.google.com/?cid=0x0:0x62a543f4fe2739c6"
"restaurant";"Kafe";"Lam Kuta Cafe";"3FWV+4XJ, Matang Pudeng, Kec. Pante Bidari, Kabupaten Aceh Timur, Aceh 24458";"Matang Pudeng, Kec. Pante Bidari, Kabupaten Aceh Timur";"ACEH";"24458";"Indonesia";"";"5.0955266";"97.4941143";"https://maps.google.com/?cid=0x0:0xf1bb2c9b2ce66d39"
"restaurant";"Sarapan";"Warung Sigli jaya";"3GCC+55F, Jl. Medan Banda Aceh, Keude Baro, Kec. Pante Bidari, Kabupaten Aceh Timur, Aceh 24458";"Jl. Medan Banda Aceh, Keude Baro, Kec. Pante Bidari, Kabupaten Aceh Timur";"ACEH";"24458";"Indonesia";" 085227589233";"5.0704465";"97.5204127";"https://maps.google.com/?cid=0x0:0xe85a3eaac81d3acc"
"restaurant";"Kedai Kopi";"Rumah rahmat paya demam dua";"3GR4+GFX, Paya Deumam Dua, Kec. Pante Bidari, Kabupaten Aceh Timur, Aceh 24458";"Paya Deumam Dua, Kec. Pante Bidari, Kabupaten Aceh Timur";"ACEH";"24458";"Indonesia";" 082243210713";"5.0913681";"97.50622";"https://maps.google.com/?cid=0x0:0xf435048970ddba06"
"restaurant";"Rumah Makan";"Warung rahmat baru";"3GCC+39P, Keude Baro, Kec. Pante Bidari, Kabupaten Aceh Timur, Aceh 24458";"Keude Baro, Kec. Pante Bidari, Kabupaten Aceh Timur";"ACEH";"24458";"Indonesia";" 085340606376";"5.0702231";"97.5209455";"https://maps.google.com/?cid=0x0:0x1282e1f35c9a264c"
"restaurant";"Padang";"Rumah makan keluarga (RM FAMILY)";"WR46+3JC, Seuneubok Punteut, Kec. Peudawa, Kabupaten Aceh Timur, Aceh 24454";"Seuneubok Punteut, Kec. Peudawa, Kabupaten Aceh Timur";"ACEH";"24454";"Indonesia";" 081370332685";"4.9051781";"97.8115046";"https://maps.google.com/?cid=0x0:0x10458c5ab0f5f346"
"restaurant";"restaurant";"Kec. Peudawa";"Kabupaten Aceh Timur, Aceh";"Kabupaten Aceh Timur, Aceh";"ACEH";"";"Indonesia";"";"4.898169";"97.8214679";"https://maps.google.com/?cid=0x0:0x220905180a6bf00b"
"restaurant";"Brunch";"Rumah Makan Bunda";"Kp. Keude, Kec. Peudawa, Kabupaten Aceh Timur, Aceh";"Kabupaten Aceh Timur, Aceh";"ACEH";"";"Indonesia";" 089536084777";"4.8959524";"97.8256158";"https://maps.google.com/?cid=0x0:0x3a128f0eb2bf039a"
"restaurant";"Kedai Kopi";"Waroeng Wak Lam";"VRXG+23X, Kp. Keude, Kec. Peudawa, Kabupaten Aceh Timur, Aceh";"Kabupaten Aceh Timur, Aceh";"ACEH";"";"Indonesia";"";"4.8976155";"97.8252326";"https://maps.google.com/?cid=0x0:0xf205ebeba30df737"
"restaurant";"Kedai Kopi";"Bina Bersama";"VRWG+P33, Kp. Keude, Kec. Peudawa, Kabupaten Aceh Timur, Aceh";"Kabupaten Aceh Timur, Aceh";"ACEH";"";"Indonesia";"";"4.8967577";"97.8251604";"https://maps.google.com/?cid=0x0:0x63c7fc4762e5f372"
"restaurant";"Bakso";"Waroeng Mie Bang Adi";"WR46+77Q, Seuneubok Punteut, Kec. Peudawa, Kabupaten Aceh Timur, Aceh 24454";"Seuneubok Punteut, Kec. Peudawa, Kabupaten Aceh Timur";"ACEH";"24454";"Indonesia";" 082272323041";"4.9057239";"97.8107237";"https://maps.google.com/?cid=0x0:0xfe3e0adf7dced841"
"restaurant";"Kafe";"Waroeng Sate Nusantara";"VRVH+P29, Jl. Medan Banda Aceh, Meunasah Krueng, Kec. Peudawa, Kabupaten Aceh Timur, Aceh 24454";"Jl. Medan Banda Aceh, Meunasah Krueng, Kec. Peudawa, Kabupaten Aceh Timur";"ACEH";"24454";"Indonesia";"";"4.8942844";"97.8276243";"https://maps.google.com/?cid=0x0:0x202248f0d4f5b36b"
"restaurant";"Kedai Kopi";"Titik kumpul peudawa";"VRVH+7FP, Km Jl. Medan Banda Aceh, Meunasah Krueng, Kec. Peudawa, Kabupaten Aceh Timur, Aceh 24454";"Km Jl. Medan Banda Aceh, Meunasah Krueng, Kec. Peudawa, Kabupaten Aceh Timur";"ACEH";"24454";"Indonesia";"";"4.8931653";"97.8284371";"https://maps.google.com/?cid=0x0:0xdbec6c65cf41cb8e"
"restaurant";"Kedai Kopi";"Coffe 97";"VRMP+W6P, Paya Bili I, Kec. Peudawa, Kabupaten Aceh Timur, Aceh 24454";"Paya Bili I, Kec. Peudawa, Kabupaten Aceh Timur";"ACEH";"24454";"Indonesia";"";"4.8848262";"97.8355711";"https://maps.google.com/?cid=0x0:0xb05830f13741f45f"
"restaurant";"Kedai Kopi";"muhammaad";"VR8C+G55, Blang Kuta, Kec. Peudawa, Kabupaten Aceh Timur, Aceh";"Kabupaten Aceh Timur, Aceh";"ACEH";"";"Indonesia";"";"4.8662661";"97.8204791";"https://maps.google.com/?cid=0x0:0x55735b507428d7ba"
"restaurant";"Toko";"Wak li kupi L2";"VRRH+CMV, Meunasah Krueng, Kec. Peudawa, Kabupaten Aceh Timur, Aceh 24454";"Meunasah Krueng, Kec. Peudawa, Kabupaten Aceh Timur";"ACEH";"24454";"Indonesia";"";"4.8911112";"97.8291759";"https://maps.google.com/?cid=0x0:0x2145239f8052d595"
"restaurant";"Bakso";"Waroeng Herbal Pangsit  Bakso";"Jl. Medan - Banda Aceh, Kuala Pd. Puntong, Kec. Peudawa, Kabupaten Aceh Timur, Aceh 24458";"Kuala Pd. Puntong, Kec. Peudawa, Kabupaten Aceh Timur";"ACEH";"24458";"Indonesia";" 085358618993";"4.9281274";"97.7909215";"https://maps.google.com/?cid=0x0:0x53d48a582ffc4e7c"
"restaurant";"Kedai Kopi";"Gata Kupi";"VRWF+X7J, Kp. Keude, Kec. Peudawa, Kabupaten Aceh Timur, Aceh";"Kabupaten Aceh Timur, Aceh";"ACEH";"";"Indonesia";"";"4.8974573";"97.8231382";"https://maps.google.com/?cid=0x0:0xf16077c873472ac4"
"restaurant";"Restoran";"Intan juice";"VRX8+MXW, Jl. Medan Banda Aceh, Kp. Keude, Kec. Peudawa, Kabupaten Aceh Timur, Aceh 24454";"Jl. Medan Banda Aceh, Kp. Keude, Kec. Peudawa, Kabupaten Aceh Timur";"ACEH";"24454";"Indonesia";" 081260556645";"4.8992313";"97.8174673";"https://maps.google.com/?cid=0x0:0x7a7c6d00e23ae8e9"
"restaurant";"Restoran";"WULAN RESTO  COFFEE";"RV6W+3F4, Leuge, Kec. Peureulak, Kabupaten Aceh Timur, Aceh";"Kabupaten Aceh Timur, Aceh";"ACEH";"";"Indonesia";"";"4.810128";"97.8962151";"https://maps.google.com/?cid=0x0:0x457f9175d38b7aef"
"restaurant";"restaurant";"Aceh 24461";"Kabupaten Aceh Timur, Aceh";"Kabupaten Aceh Timur, Aceh";"ACEH";"";"Indonesia";"";"4.950275";"97.6792293";"https://maps.google.com/?cid=0x0:0x40ce92432b582121"
"restaurant";"Brunch";"Warung Pak Jenggot";"Tanoh Anou, Kec. Idi Rayeuk, Kabupaten Aceh Timur, Aceh 24454";"Kec. Idi Rayeuk, Kabupaten Aceh Timur";"ACEH";"24454";"Indonesia";" 085359633128";"4.9451102";"97.7749429";"https://maps.google.com/?cid=0x0:0xb5acb8b08f160f7b"
"restaurant";"Kedai Kopi";"KANOT BU coffee";"XPPC+337, Jl. Medan Banda Aceh, Keude, Kec. Darul Aman, Kabupaten Aceh Timur, Aceh";"Kabupaten Aceh Timur, Aceh";"ACEH";"";"Indonesia";" 082272375720";"4.9851569";"97.7201631";"https://maps.google.com/?cid=0x0:0x632478d975ae1af9"
"restaurant";"Rumah Makan";"Rumah Makan NAGATA";"Arul Pinang, Kec. Peunaron, Kabupaten Aceh Timur, Aceh 24392";"Kec. Peunaron, Kabupaten Aceh Timur";"ACEH";"24392";"Indonesia";"";"4.6082354";"97.6588286";"https://maps.google.com/?cid=0x0:0xc61636efd8d34f91"
"restaurant";"Kedai Kopi";"Conical Coffee  Dining";"Jl. Medan - Banda Aceh, Gampong Aceh, Kec. Idi Rayeuk, Kabupaten Aceh Timur, Aceh";"Kabupaten Aceh Timur, Aceh";"ACEH";"";"Indonesia";"";"4.951843";"97.765321";"https://maps.google.com/?cid=0x0:0x2c87dfe504154357"
"restaurant";"Dapur Umum";"Rumah Makan Daurah";"XPFJ+GC5 cut, Beunot, Dama Pulo I, Darul Aman, East Aceh Regency, Aceh 24455";"Beunot, Dama Pulo I, Darul Aman, East Aceh Regency";"ACEH";"24455";"Indonesia";" 085275418246";"4.9737698";"97.731122";"https://maps.google.com/?cid=0x0:0x1931c4408bcba771"
"restaurant";"Kedai Kopi";"Kede 01_ar";"Snb teungoh, Kec. Darul Aman, Kabupaten Aceh Timur, Aceh 24455";"Kec. Darul Aman, Kabupaten Aceh Timur";"ACEH";"24455";"Indonesia";"";"4.9683274";"97.7145552";"https://maps.google.com/?cid=0x0:0x5edec51e5ec6b1b"
"restaurant";"Sarapan";"Lr. Bahagia, Gampong Kuta Blang";"WQWC+8FF, Kuta Blang, Kec. Idi Rayeuk, Kabupaten Aceh Timur, Aceh";"Kabupaten Aceh Timur, Aceh";"ACEH";"";"Indonesia";"";"4.9458037";"97.7711741";"https://maps.google.com/?cid=0x0:0x2a1828c99a6e1164"
"restaurant";"Kebab";"Queen Kebab dan Burger";"XPQ7+5W4, Jl. Lintas Sumatra, Kp. Keude, Kec. Darul Aman, Kabupaten Aceh Timur, Aceh 24453";"Jl. Lintas Sumatra, Kp. Keude, Kec. Darul Aman, Kabupaten Aceh Timur";"ACEH";"24453";"Indonesia";" 082272898930";"4.9878806";"97.7148343";"https://maps.google.com/?cid=0x0:0x59bc3607bd971636"
"restaurant";"Kios";"Cekwen Gayo Coffee";"WQMP+455, Jl. Medan Banda Aceh, Titi Baro, Kec. Idi Rayeuk, Kabupaten Aceh Timur, Aceh";"Kabupaten Aceh Timur, Aceh";"ACEH";"";"Indonesia";" 085270216730";"4.9327625";"97.7854876";"https://maps.google.com/?cid=0x0:0xb4a186106c7fcbad"
"restaurant";"Brunch";"Rumah Makan MEUCIRASA";"Seuneubok Bacee, Kec. Idi Rayeuk, Kabupaten Aceh Timur, Aceh";"Kabupaten Aceh Timur, Aceh";"ACEH";"";"Indonesia";" 085260117044";"4.9354038";"97.7822353";"https://maps.google.com/?cid=0x0:0xea9ece5ce4d771d4"
"restaurant";"Kafe";"Gampong Kupi";"Jl. Medan - Banda Aceh, Gampong Aceh, Kec. Idi Rayeuk, Kabupaten Aceh Timur, Aceh 24454";"Gampong Aceh, Kec. Idi Rayeuk, Kabupaten Aceh Timur";"ACEH";"24454";"Indonesia";" 082310377140";"4.9507152";"97.7658328";"https://maps.google.com/?cid=0x0:0x96229f7e66e8dc54"
"restaurant";"Kafe";"KEUDE DIARA";"Jl. Pertamina Dusun Pos XI/Tgk Di Aceh Desa Bukit Pala, Rantau Panjang, Seumaly, Kec. Rantau Peureulak, Kabupaten Aceh Timur, Aceh 24453";"Rantau Panjang, Seumaly, Kec. Rantau Peureulak, Kabupaten Aceh Timur";"ACEH";"24453";"Indonesia";" 082295956500";"4.8043895";"97.7995446";"https://maps.google.com/?cid=0x0:0xcc415207235f6388"
"restaurant";"restaurant";"Aceh 24453";"Kabupaten Aceh Timur, Aceh";"Kabupaten Aceh Timur, Aceh";"ACEH";"";"Indonesia";"";"4.7563162";"97.7742702";"https://maps.google.com/?cid=0x0:0x3f249fb702225b43"
"restaurant";"Kafe";"Rakan waroeng";"Jl. Medan Banda Aceh No.394, Pasir Putih, Kec. Peureulak, Kabupaten Aceh Timur, Aceh 24453";"Pasir Putih, Kec. Peureulak, Kabupaten Aceh Timur";"ACEH";"24453";"Indonesia";" 085270505796";"4.8123279";"97.8965106";"https://maps.google.com/?cid=0x0:0x247107b574add928"
"restaurant";"Kafe";"Mie Apani";"Jl. Medan - Banda Aceh, Leuge, Kec. Peureulak, Kabupaten Aceh Timur, Aceh 24453";"Leuge, Kec. Peureulak, Kabupaten Aceh Timur";"ACEH";"24453";"Indonesia";"";"4.8114206";"97.8965682";"https://maps.google.com/?cid=0x0:0x52516d49186cd208"
"restaurant";"Restoran";"WULAN RESTO  COFFEE";"RV6W+3F4, Leuge, Kec. Peureulak, Kabupaten Aceh Timur, Aceh";"Kabupaten Aceh Timur, Aceh";"ACEH";"";"Indonesia";"";"4.810128";"97.8962151";"https://maps.google.com/?cid=0x0:0x457f9175d38b7aef"
"restaurant";"Hidangan Laut";"Lalapan SARI LAUT NURHADI";"QR33+9W6, Leubuk Pempeng, Kec. Peureulak, Kabupaten Aceh Timur, Aceh 24453";"Leubuk Pempeng, Kec. Peureulak, Kabupaten Aceh Timur";"ACEH";"24453";"Indonesia";"";"4.7534216";"97.8047639";"https://maps.google.com/?cid=0x0:0xe6b9c7b0ffeed92d"
"restaurant";"Padang";"RM Minang Baru";"Lhok Dalam, Kec. Peureulak, Kabupaten Aceh Timur, Aceh 24461";"Kec. Peureulak, Kabupaten Aceh Timur";"ACEH";"24461";"Indonesia";"";"4.8074783";"97.891513";"https://maps.google.com/?cid=0x0:0x3c32048f5a3c3707"
"restaurant";"Indonesia";"Rifa Resto";"RV3R+4PX, Jl. Medan Banda Aceh, Lhok Dalam, Kec. Peureulak, Kabupaten Aceh Timur, Aceh 24458";"Jl. Medan Banda Aceh, Lhok Dalam, Kec. Peureulak, Kabupaten Aceh Timur";"ACEH";"24458";"Indonesia";"";"4.802863";"97.8918703";"https://maps.google.com/?cid=0x0:0x45826cb2d24f9217"
"restaurant";"Restoran";"Kota intan";"Asian Highway No.25, Keude Peureulak, Peureulak, East Aceh Regency, Aceh 24461";"Keude Peureulak, Peureulak, East Aceh Regency";"ACEH";"24461";"Indonesia";"";"4.8079101";"97.8919004";"https://maps.google.com/?cid=0x0:0xe4832ab43c5fd206"
"restaurant";"Rumah Makan";"rumah";"RV94+8V8, Kabu, Kec. Peureulak Bar., Kabupaten Aceh Timur, Aceh 24453";"Kabu, Kec. Peureulak Bar., Kabupaten Aceh Timur";"ACEH";"24453";"Indonesia";"";"4.8182867";"97.8571959";"https://maps.google.com/?cid=0x0:0x4f4cdda402def696"
"restaurant";"Restoran";"Mie Kak Mar";"RV66+98F, Jl. Monisa, Tanah Rata, Kec. Peureulak, Kabupaten Aceh Timur, Aceh 24453";"Jl. Monisa, Tanah Rata, Kec. Peureulak, Kabupaten Aceh Timur";"ACEH";"24453";"Indonesia";"";"4.8109365";"97.8608073";"https://maps.google.com/?cid=0x0:0x1acbb3535ed29f42"
"restaurant";"Kafe";"DAPU MIE AYAH DIEN";"Jl. Medan - Banda Aceh, Keumuneng, Kec. Peureulak, Kabupaten Aceh Timur, Aceh 24458";"Keumuneng, Kec. Peureulak, Kabupaten Aceh Timur";"ACEH";"24458";"Indonesia";" 082282524404";"4.7947799";"97.8915797";"https://maps.google.com/?cid=0x0:0xbed8888c83a5806f"
"restaurant";"Restoran";"Warkop BALYA";"RV5R+8Q2, Jl. Lintas Medan - Jl. Banda Aceh, Keude Peureulak, Kec. Peureulak, Kabupaten Aceh Timur, Aceh 24453";"Jl. Lintas Medan - Jl. Banda Aceh, Keude Peureulak, Kec. Peureulak, Kabupaten Aceh Timur";"ACEH";"24453";"Indonesia";" 082364949494";"4.8082677";"97.8918995";"https://maps.google.com/?cid=0x0:0x1dd0916904d059c2"
"restaurant";"Kafe";"ASDIANA";"RV5R+4JP, Keude Peureulak, Kec. Peureulak, Kabupaten Aceh Timur, Aceh 24461";"Keude Peureulak, Kec. Peureulak, Kabupaten Aceh Timur";"ACEH";"24461";"Indonesia";"";"4.8078335";"97.8915912";"https://maps.google.com/?cid=0x0:0x9edf6f1708464f83"
"restaurant";"Padang";"kota baru";"RV4R+RPC, Jl. Medan Banda Aceh, Lhok Dalam, Kec. Peureulak, Kabupaten Aceh Timur, Aceh 24461";"Jl. Medan Banda Aceh, Lhok Dalam, Kec. Peureulak, Kabupaten Aceh Timur";"ACEH";"24461";"Indonesia";"";"4.8070373";"97.8917794";"https://maps.google.com/?cid=0x0:0x3aac40b988e00ed4"
"restaurant";"restaurant";"Kec. Peureulak Bar.";"Kabupaten Aceh Timur, Aceh";"Kabupaten Aceh Timur, Aceh";"ACEH";"";"Indonesia";"";"4.8352078";"97.8855303";"https://maps.google.com/?cid=0x0:0xf81bdf02e8d21720"
"restaurant";"Kafe";"Mie Apani";"Jl. Medan - Banda Aceh, Leuge, Kec. Peureulak, Kabupaten Aceh Timur, Aceh 24453";"Leuge, Kec. Peureulak, Kabupaten Aceh Timur";"ACEH";"24453";"Indonesia";"";"4.8114206";"97.8965682";"https://maps.google.com/?cid=0x0:0x52516d49186cd208"
"restaurant";"Kafe";"Rakan waroeng";"Jl. Medan Banda Aceh No.394, Pasir Putih, Kec. Peureulak, Kabupaten Aceh Timur, Aceh 24453";"Pasir Putih, Kec. Peureulak, Kabupaten Aceh Timur";"ACEH";"24453";"Indonesia";" 085270505796";"4.8123279";"97.8965106";"https://maps.google.com/?cid=0x0:0x247107b574add928"
"restaurant";"Kafe";"Kopi Paste Peureulak";"RV6W+5F5, Jl. Medan Banda Aceh, Pasir Putih, Kec. Peureulak, Kabupaten Aceh Timur, Aceh 24453";"Jl. Medan Banda Aceh, Pasir Putih, Kec. Peureulak, Kabupaten Aceh Timur";"ACEH";"24453";"Indonesia";"";"4.8103883";"97.8962244";"https://maps.google.com/?cid=0x0:0xbff5a53757e19a77"
"restaurant";"Restoran";"Bakso goyang lidah perlak";"RVJR+59V, Beusa Meuranou, Kec. Peureulak, Kabupaten Aceh Timur, Aceh 24458";"Beusa Meuranou, Kec. Peureulak, Kabupaten Aceh Timur";"ACEH";"24458";"Indonesia";" 085261149655";"4.8294143";"97.8901748";"https://maps.google.com/?cid=0x0:0xd185fdd14e82f7b2"
"restaurant";"Restoran";"Kota intan";"Asian Highway No.25, Keude Peureulak, Peureulak, East Aceh Regency, Aceh 24461";"Keude Peureulak, Peureulak, East Aceh Regency";"ACEH";"24461";"Indonesia";"";"4.8079101";"97.8919004";"https://maps.google.com/?cid=0x0:0xe4832ab43c5fd206"
"restaurant";"Indonesia";"Rifa Resto";"RV3R+4PX, Jl. Medan Banda Aceh, Lhok Dalam, Kec. Peureulak, Kabupaten Aceh Timur, Aceh 24458";"Jl. Medan Banda Aceh, Lhok Dalam, Kec. Peureulak, Kabupaten Aceh Timur";"ACEH";"24458";"Indonesia";"";"4.802863";"97.8918703";"https://maps.google.com/?cid=0x0:0x45826cb2d24f9217"
"restaurant";"Rumah Makan";"rumah";"RV94+8V8, Kabu, Kec. Peureulak Bar., Kabupaten Aceh Timur, Aceh 24453";"Kabu, Kec. Peureulak Bar., Kabupaten Aceh Timur";"ACEH";"24453";"Indonesia";"";"4.8182867";"97.8571959";"https://maps.google.com/?cid=0x0:0x4f4cdda402def696"
"restaurant";"Restoran";"Warkop BALYA";"RV5R+8Q2, Jl. Lintas Medan - Jl. Banda Aceh, Keude Peureulak, Kec. Peureulak, Kabupaten Aceh Timur, Aceh 24453";"Jl. Lintas Medan - Jl. Banda Aceh, Keude Peureulak, Kec. Peureulak, Kabupaten Aceh Timur";"ACEH";"24453";"Indonesia";" 082364949494";"4.8082677";"97.8918995";"https://maps.google.com/?cid=0x0:0x1dd0916904d059c2"
"restaurant";"Sarapan";"Nasgor kampung";"RVPP+62F, AH25, Beusa Seberang, Kec. Peureulak Bar., Kabupaten Aceh Timur, Aceh 24458";"AH25, Beusa Seberang, Kec. Peureulak Bar., Kabupaten Aceh Timur";"ACEH";"24458";"Indonesia";"";"4.8355692";"97.885039";"https://maps.google.com/?cid=0x0:0xd47aaf0d86de4ec8"
"restaurant";"Kafe";"Klinik Kupi";"Jl. Lintas Sumatra, Beusa Seberang, Kec. Peureulak Bar., Kabupaten Aceh Timur, Aceh 24458";"Beusa Seberang, Kec. Peureulak Bar., Kabupaten Aceh Timur";"ACEH";"24458";"Indonesia";" 081219100990";"4.8388523";"97.8817575";"https://maps.google.com/?cid=0x0:0x5fd377874335d49d"
"restaurant";"Restoran";"Rujak Aceh Peureulak";"RV9Q+RQQ, Blang Betra, Kec. Peureulak, Kabupaten Aceh Timur, Aceh 24458";"Blang Betra, Kec. Peureulak, Kabupaten Aceh Timur";"ACEH";"24458";"Indonesia";"";"4.8195855";"97.8894894";"https://maps.google.com/?cid=0x0:0x3e415917ac41cb74"
"restaurant";"Padang";"kota baru";"RV4R+RPC, Jl. Medan Banda Aceh, Lhok Dalam, Kec. Peureulak, Kabupaten Aceh Timur, Aceh 24461";"Jl. Medan Banda Aceh, Lhok Dalam, Kec. Peureulak, Kabupaten Aceh Timur";"ACEH";"24461";"Indonesia";"";"4.8070373";"97.8917794";"https://maps.google.com/?cid=0x0:0x3aac40b988e00ed4"
"restaurant";"Rumah Makan";"Rumah Makan Kembang Tanjong";"RV9R+4XP, Jl. Medan Banda Aceh, Blang Betra, Kec. Peureulak, Kabupaten Aceh Timur, Aceh 24458";"Jl. Medan Banda Aceh, Blang Betra, Kec. Peureulak, Kabupaten Aceh Timur";"ACEH";"24458";"Indonesia";"";"4.8178269";"97.8924492";"https://maps.google.com/?cid=0x0:0xbecc2a75dd7fbd9f"
"restaurant";"restaurant";"Kec. Peureulak Tim.";"Kabupaten Aceh Timur, Aceh";"Kabupaten Aceh Timur, Aceh";"ACEH";"";"Indonesia";"";"4.7052499";"97.9061797";"https://maps.google.com/?cid=0x0:0x4e30e6079924e507"
"restaurant";"Kafe";"Rakan waroeng";"Jl. Medan Banda Aceh No.394, Pasir Putih, Kec. Peureulak, Kabupaten Aceh Timur, Aceh 24453";"Pasir Putih, Kec. Peureulak, Kabupaten Aceh Timur";"ACEH";"24453";"Indonesia";" 085270505796";"4.8123279";"97.8965106";"https://maps.google.com/?cid=0x0:0x247107b574add928"
"restaurant";"Kafe";"Mie Apani";"Jl. Medan - Banda Aceh, Leuge, Kec. Peureulak, Kabupaten Aceh Timur, Aceh 24453";"Leuge, Kec. Peureulak, Kabupaten Aceh Timur";"ACEH";"24453";"Indonesia";"";"4.8114206";"97.8965682";"https://maps.google.com/?cid=0x0:0x52516d49186cd208"
"restaurant";"Kafe";"Lubok Kupi";"Seuneubok Teupin, Kec. Peureulak Tim., Kabupaten Aceh Timur, Aceh 24452";"Kec. Peureulak Tim., Kabupaten Aceh Timur";"ACEH";"24452";"Indonesia";"";"4.7087055";"97.9056696";"https://maps.google.com/?cid=0x0:0x2ab06ce22b06ad02"
"restaurant";"Kedai Kopi";"RM Ramah Tamah (Pos Pantau Solit Korwil Aceh)";"PW24+JMR, Alue Bugeng, Kec. Peureulak Tim., Kabupaten Aceh Timur, Aceh 24452";"Alue Bugeng, Kec. Peureulak Tim., Kabupaten Aceh Timur";"ACEH";"24452";"Indonesia";" 085260620907";"4.7016169";"97.9066359";"https://maps.google.com/?cid=0x0:0xb55f4622ee5fb62e"
"restaurant";"Hidangan Laut";"Lalapan SARI LAUT NURHADI";"QR33+9W6, Leubuk Pempeng, Kec. Peureulak, Kabupaten Aceh Timur, Aceh 24453";"Leubuk Pempeng, Kec. Peureulak, Kabupaten Aceh Timur";"ACEH";"24453";"Indonesia";"";"4.7534216";"97.8047639";"https://maps.google.com/?cid=0x0:0xe6b9c7b0ffeed92d"
"restaurant";"Indonesia";"Rifa Resto";"RV3R+4PX, Jl. Medan Banda Aceh, Lhok Dalam, Kec. Peureulak, Kabupaten Aceh Timur, Aceh 24458";"Jl. Medan Banda Aceh, Lhok Dalam, Kec. Peureulak, Kabupaten Aceh Timur";"ACEH";"24458";"Indonesia";"";"4.802863";"97.8918703";"https://maps.google.com/?cid=0x0:0x45826cb2d24f9217"
"restaurant";"Kafe";"DAPU MIE AYAH DIEN";"Jl. Medan - Banda Aceh, Keumuneng, Kec. Peureulak, Kabupaten Aceh Timur, Aceh 24458";"Keumuneng, Kec. Peureulak, Kabupaten Aceh Timur";"ACEH";"24458";"Indonesia";" 082282524404";"4.7947799";"97.8915797";"https://maps.google.com/?cid=0x0:0xbed8888c83a5806f"
"restaurant";"Rumah Makan";"Nasrullah j";"PR8R+RVH, Blang Simpo, Kec. Peureulak, Kabupaten Aceh Timur, Aceh 24452";"Blang Simpo, Kec. Peureulak, Kabupaten Aceh Timur";"ACEH";"24452";"Indonesia";" 082310058476";"4.7170637";"97.8422349";"https://maps.google.com/?cid=0x0:0x5285d11d7d859d2c"
"restaurant";"Kafe";"Alue Bugeng";"PW35+5W3, Seuneubok Punti, Kec. Peureulak Tim., Kabupaten Aceh Timur, Aceh 24452";"Seuneubok Punti, Kec. Peureulak Tim., Kabupaten Aceh Timur";"ACEH";"24452";"Indonesia";" 082214957476";"4.7028817";"97.9098066";"https://maps.google.com/?cid=0x0:0xd8cb56b5500586c4"
"restaurant";"Restoran";"WULAN RESTO  COFFEE";"RV6W+3F4, Leuge, Kec. Peureulak, Kabupaten Aceh Timur, Aceh";"Kabupaten Aceh Timur, Aceh";"ACEH";"";"Indonesia";"";"4.810128";"97.8962151";"https://maps.google.com/?cid=0x0:0x457f9175d38b7aef"
"restaurant";"Restoran";"Kota intan";"Asian Highway No.25, Keude Peureulak, Peureulak, East Aceh Regency, Aceh 24461";"Keude Peureulak, Peureulak, East Aceh Regency";"ACEH";"24461";"Indonesia";"";"4.8079101";"97.8919004";"https://maps.google.com/?cid=0x0:0xe4832ab43c5fd206"
"restaurant";"Padang";"RM Minang Baru";"Lhok Dalam, Kec. Peureulak, Kabupaten Aceh Timur, Aceh 24461";"Kec. Peureulak, Kabupaten Aceh Timur";"ACEH";"24461";"Indonesia";"";"4.8074783";"97.891513";"https://maps.google.com/?cid=0x0:0x3c32048f5a3c3707"
"restaurant";"Kedai Kopi";"Mudin Cafe";"PWM5+FP9, Unnamed Road, Seuneubok Dalam, Kec. Peureulak Tim., Kabupaten Aceh Timur, Aceh 24452";"Unnamed Road, Seuneubok Dalam, Kec. Peureulak Tim., Kabupaten Aceh Timur";"ACEH";"24452";"Indonesia";" 085360515939";"4.7336746";"97.9093697";"https://maps.google.com/?cid=0x0:0x2f15f4ad527c3538"
"restaurant";"Sarapan";"RM SUKMA";"Jl. Medan Banda Aceh, Gampong Bayeun, Kec. Rantau Selamat, Kabupaten Aceh Timur, Aceh 24452";"Gampong Bayeun, Kec. Rantau Selamat, Kabupaten Aceh Timur";"ACEH";"24452";"Indonesia";" 082277198367";"4.5894622";"97.9088242";"https://maps.google.com/?cid=0x0:0xdbf7a344838251fd"
"restaurant";"Dapur Umum";"RUMAH MAKAN KOTA BASRAH";"JW4C+WG3, Sarah Teubee, Kec. Rantau Selamat, Kabupaten Aceh Timur, Aceh 24452";"Sarah Teubee, Kec. Rantau Selamat, Kabupaten Aceh Timur";"ACEH";"24452";"Indonesia";" 08126568424";"4.6072706";"97.9212929";"https://maps.google.com/?cid=0x0:0xed53ba7e742bbacf"
"restaurant";"restaurant";"Aceh 24452";"Kabupaten Aceh Timur, Aceh";"Kabupaten Aceh Timur, Aceh";"ACEH";"";"Indonesia";"";"4.6428925";"97.8286368";"https://maps.google.com/?cid=0x0:0xab6d8837867af58f"
"restaurant";"Padang";"Rumah Makan Aja 2";"MWF8+F93, Labuhan Keude, Kec. Sungai Raya, Kabupaten Aceh Timur, Aceh 24452";"Labuhan Keude, Kec. Sungai Raya, Kabupaten Aceh Timur";"ACEH";"24452";"Indonesia";" 082292959775";"4.6736258";"97.9159139";"https://maps.google.com/?cid=0x0:0x3b7bd6c0a586ce54"
"restaurant";"Dapur Umum";"@mie_oom";"HWM8+9XJ, Gampong Bayeun, Kec. Rantau Selamat, Kabupaten Aceh Timur, Aceh 24452";"Gampong Bayeun, Kec. Rantau Selamat, Kabupaten Aceh Timur";"ACEH";"24452";"Indonesia";" 082363004251";"4.5834581";"97.9173969";"https://maps.google.com/?cid=0x0:0x556d1c7a6ec64cfe"
"restaurant";"Sarapan";"Warung Berkat Rezeki";"JW7H+7PJ, Rantau Panjang, Kec. Rantau Selamat, Kabupaten Aceh Timur, Aceh 24452";"Rantau Panjang, Kec. Rantau Selamat, Kabupaten Aceh Timur";"ACEH";"24452";"Indonesia";"";"4.6132105";"97.9292673";"https://maps.google.com/?cid=0x0:0x624a21fb4eba1a73"
"restaurant";"Sarapan";"RM Hunian";"Jl. Medan Banda Aceh, Paya Peulawi, Kec. Birem Bayeun, Kabupaten Aceh Timur, Aceh 24452";"Paya Peulawi, Kec. Birem Bayeun, Kabupaten Aceh Timur";"ACEH";"24452";"Indonesia";" 082161114100";"4.5740715";"97.9173951";"https://maps.google.com/?cid=0x0:0x433811bc621991b3"
"restaurant";"Restoran";"Wak misno";"HRJH+PX9, Unnamed Road, Alue Punti, Kec. Rantau Selamat, Kabupaten Aceh Timur, Aceh 24452";"Unnamed Road, Alue Punti, Kec. Rantau Selamat, Kabupaten Aceh Timur";"ACEH";"24452";"Indonesia";"";"4.581789";"97.8299728";"https://maps.google.com/?cid=0x0:0x7d14ac7434280d75"
"restaurant";"Sarapan";"warung makyah (lontongnasiguri)";"HWR5+RRF, Jl. Medan Banda Aceh, Gampong Bayeun, Kec. Rantau Selamat, Kabupaten Aceh Timur, Aceh";"Kabupaten Aceh Timur, Aceh";"ACEH";"";"Indonesia";" 082272966472";"4.5920619";"97.9095448";"https://maps.google.com/?cid=0x0:0x90d9ef1736427a41"
"restaurant";"Kedai Kopi";"warung simpang tiga dusun bari desa Alue kaul";"HRX3+QHP, Alue Kaol, Kec. Rantau Selamat, Kabupaten Aceh Timur, Aceh 24452";"Alue Kaol, Kec. Rantau Selamat, Kabupaten Aceh Timur";"ACEH";"24452";"Indonesia";"";"4.5994665";"97.8039378";"https://maps.google.com/?cid=0x0:0x65b90adfb3b89648"
"restaurant";"Kantor Perusahaan";"Kantin Yusniar Komplek Palm Oil Mill PT KPJ";"HWX2+9X3, Alur Seuleumak, Kec. Rantau Selamat, Kabupaten Aceh Timur, Aceh 24452";"Alur Seuleumak, Kec. Rantau Selamat, Kabupaten Aceh Timur";"ACEH";"24452";"Indonesia";"";"4.5983793";"97.9024117";"https://maps.google.com/?cid=0x0:0x1ebd961d383698af"
"restaurant";"Brunch";"Warung Makan Bang Mirza";"MPJJ+9R7, Seumanah Jaya, Kec. Rantau Peureulak, Kabupaten Aceh Timur, Aceh 24458";"Seumanah Jaya, Kec. Rantau Peureulak, Kabupaten Aceh Timur";"ACEH";"24458";"Indonesia";"";"4.6809249";"97.732046";"https://maps.google.com/?cid=0x0:0x87b2a5534a67dce8"
"restaurant";"Kafe";"Cafe risma";"JR38+PW2, Alue Punti, Kec. Rantau Selamat, Kabupaten Aceh Timur, Aceh 24452";"Alue Punti, Kec. Rantau Selamat, Kabupaten Aceh Timur";"ACEH";"24452";"Indonesia";"";"4.6042574";"97.8172705";"https://maps.google.com/?cid=0x0:0xe1d1afd8193da961"
"restaurant";"Kafe";"Cafe Rindu 86";"Jl. Medan - Banda Aceh, Geulumpang Payong, Kec. Sungai Raya, Kabupaten Aceh Timur, Aceh 24452";"Geulumpang Payong, Kec. Sungai Raya, Kabupaten Aceh Timur";"ACEH";"24452";"Indonesia";" 082269672736";"4.6805205";"97.9167209";"https://maps.google.com/?cid=0x0:0x663e64dbfec1130d"
"restaurant";"Kafe";"Rakan waroeng";"Jl. Medan Banda Aceh No.394, Pasir Putih, Kec. Peureulak, Kabupaten Aceh Timur, Aceh 24453";"Pasir Putih, Kec. Peureulak, Kabupaten Aceh Timur";"ACEH";"24453";"Indonesia";" 085270505796";"4.8123279";"97.8965106";"https://maps.google.com/?cid=0x0:0x247107b574add928"
"restaurant";"Restoran";"WULAN RESTO  COFFEE";"RV6W+3F4, Leuge, Kec. Peureulak, Kabupaten Aceh Timur, Aceh";"Kabupaten Aceh Timur, Aceh";"ACEH";"";"Indonesia";"";"4.810128";"97.8962151";"https://maps.google.com/?cid=0x0:0x457f9175d38b7aef"
"restaurant";"restaurant";"Aceh 24453";"Kabupaten Aceh Timur, Aceh";"Kabupaten Aceh Timur, Aceh";"ACEH";"";"Indonesia";"";"4.7563162";"97.7742702";"https://maps.google.com/?cid=0x0:0x3f249fb702225b43"
"restaurant";"Kafe";"Mie Apani";"Jl. Medan - Banda Aceh, Leuge, Kec. Peureulak, Kabupaten Aceh Timur, Aceh 24453";"Leuge, Kec. Peureulak, Kabupaten Aceh Timur";"ACEH";"24453";"Indonesia";"";"4.8114206";"97.8965682";"https://maps.google.com/?cid=0x0:0x52516d49186cd208"
"restaurant";"Padang";"RM Minang Baru";"Lhok Dalam, Kec. Peureulak, Kabupaten Aceh Timur, Aceh 24461";"Kec. Peureulak, Kabupaten Aceh Timur";"ACEH";"24461";"Indonesia";"";"4.8074783";"97.891513";"https://maps.google.com/?cid=0x0:0x3c32048f5a3c3707"
"restaurant";"Indonesia";"Rifa Resto";"RV3R+4PX, Jl. Medan Banda Aceh, Lhok Dalam, Kec. Peureulak, Kabupaten Aceh Timur, Aceh 24458";"Jl. Medan Banda Aceh, Lhok Dalam, Kec. Peureulak, Kabupaten Aceh Timur";"ACEH";"24458";"Indonesia";"";"4.802863";"97.8918703";"https://maps.google.com/?cid=0x0:0x45826cb2d24f9217"
"restaurant";"Hidangan Laut";"Lalapan SARI LAUT NURHADI";"QR33+9W6, Leubuk Pempeng, Kec. Peureulak, Kabupaten Aceh Timur, Aceh 24453";"Leubuk Pempeng, Kec. Peureulak, Kabupaten Aceh Timur";"ACEH";"24453";"Indonesia";"";"4.7534216";"97.8047639";"https://maps.google.com/?cid=0x0:0xe6b9c7b0ffeed92d"
"restaurant";"Rumah Makan";"rumah";"RV94+8V8, Kabu, Kec. Peureulak Bar., Kabupaten Aceh Timur, Aceh 24453";"Kabu, Kec. Peureulak Bar., Kabupaten Aceh Timur";"ACEH";"24453";"Indonesia";"";"4.8182867";"97.8571959";"https://maps.google.com/?cid=0x0:0x4f4cdda402def696"
"restaurant";"Restoran";"Kota intan";"Asian Highway No.25, Keude Peureulak, Peureulak, East Aceh Regency, Aceh 24461";"Keude Peureulak, Peureulak, East Aceh Regency";"ACEH";"24461";"Indonesia";"";"4.8079101";"97.8919004";"https://maps.google.com/?cid=0x0:0xe4832ab43c5fd206"
"restaurant";"Padang";"kota baru";"RV4R+RPC, Jl. Medan Banda Aceh, Lhok Dalam, Kec. Peureulak, Kabupaten Aceh Timur, Aceh 24461";"Jl. Medan Banda Aceh, Lhok Dalam, Kec. Peureulak, Kabupaten Aceh Timur";"ACEH";"24461";"Indonesia";"";"4.8070373";"97.8917794";"https://maps.google.com/?cid=0x0:0x3aac40b988e00ed4"
"restaurant";"Restoran";"RM BINTANG TERANG";"RV5R+5J4, Keude Peureulak, Kec. Peureulak, Kabupaten Aceh Timur, Aceh 24461";"Keude Peureulak, Kec. Peureulak, Kabupaten Aceh Timur";"ACEH";"24461";"Indonesia";" 081263458432";"4.8078863";"97.8915927";"https://maps.google.com/?cid=0x0:0xbe3facd05dbf1ab"
"restaurant";"Kedai Kopi";"Ranto Peureulak";"GJC6+XH7, Upt I Kuala Pango, Serba Jadi, Kabupaten Aceh Timur, Aceh";"Kabupaten Aceh Timur, Aceh";"ACEH";"";"Indonesia";" 085337220576";"4.5224111";"97.6114217";"https://maps.google.com/?cid=0x0:0x2da1928dbad56f26"
"restaurant";"Sekolah";"MAN RANTO PEUREULAK";"QRW6+R2X, Alue Dua, Kec. Rantau Peureulak, Kabupaten Aceh Timur, Aceh 24453";"Alue Dua, Kec. Rantau Peureulak, Kabupaten Aceh Timur";"ACEH";"24453";"Indonesia";"";"4.7971068";"97.8100948";"https://maps.google.com/?cid=0x0:0x1bc5d427ad291848"
"restaurant";"Restoran";"Warkop BALYA";"RV5R+8Q2, Jl. Lintas Medan - Jl. Banda Aceh, Keude Peureulak, Kec. Peureulak, Kabupaten Aceh Timur, Aceh 24453";"Jl. Lintas Medan - Jl. Banda Aceh, Keude Peureulak, Kec. Peureulak, Kabupaten Aceh Timur";"ACEH";"24453";"Indonesia";" 082364949494";"4.8082677";"97.8918995";"https://maps.google.com/?cid=0x0:0x1dd0916904d059c2"
"restaurant";"restaurant";"Sumatera Utara 20991";"Kabupaten Serdang Bedagai, Sumatera Utara";"Kabupaten Serdang Bedagai, Sumatera Utara";"ACEH";"";"Indonesia";"";"3.3178663";"98.9907938";"https://maps.google.com/?cid=0x0:0xeb239dc4750960a6"
"restaurant";"Sarapan";"Reje Silo";"6HM5+J9, Leles, Serba Jadi, Kabupaten Aceh Timur, Aceh";"Kabupaten Aceh Timur, Aceh";"ACEH";"";"Indonesia";"";"4.2340869";"97.558411";"https://maps.google.com/?cid=0x0:0x7425b9b35ac09d8b"
"restaurant";"Kedai Kopi";"Warung Wek Wilda";"CG5F+8CW, Lokop, Serba Jadi, Kabupaten Aceh Timur, Aceh 24392";"Lokop, Serba Jadi, Kabupaten Aceh Timur";"ACEH";"24392";"Indonesia";" 085358875108";"4.4083534";"97.5235825";"https://maps.google.com/?cid=0x0:0xe82902cf29e6e1bb"
"restaurant";"Restoran";"Lontong Jadul 1985th Bik Sum";"Bukit Tiga, Kec. Peunaron, Kabupaten Aceh Timur, Aceh";"Kabupaten Aceh Timur, Aceh";"ACEH";"";"Indonesia";" 085275490031";"4.6147278";"97.6567555";"https://maps.google.com/?cid=0x0:0xa824a98355e166c"
"restaurant";"Kedai Kopi";"Warung SI MBOK";"JM62+4PC, Unnamed Road, Arul Pinang, Kec. Peunaron, Kabupaten Aceh Timur, Aceh 24392";"Unnamed Road, Arul Pinang, Kec. Peunaron, Kabupaten Aceh Timur";"ACEH";"24392";"Indonesia";"";"4.610318";"97.651772";"https://maps.google.com/?cid=0x0:0xb73d5632a0ee3269"
"restaurant";"Nasi";"WARUNG MAKAN CELIKE";"6HV4+J7, Leles, Serba Jadi, Kabupaten Aceh Timur, Aceh";"Kabupaten Aceh Timur, Aceh";"ACEH";"";"Indonesia";"";"4.2440301";"97.5556775";"https://maps.google.com/?cid=0x0:0x36792a84fe10810b"
"restaurant";"restaurant";"Celike";"7H42+VM, Leles, Serba Jadi, Kabupaten Aceh Timur, Aceh";"Kabupaten Aceh Timur, Aceh";"ACEH";"";"Indonesia";"";"4.2570669";"97.5516103";"https://maps.google.com/?cid=0x0:0xa919d398bc87b08c"
"restaurant";"restaurant";"Serba Jadi";"Kabupaten Aceh Timur, Aceh";"Kabupaten Aceh Timur, Aceh";"ACEH";"";"Indonesia";"";"4.4415515";"97.5247243";"https://maps.google.com/?cid=0x0:0x4039d80b220e9f0"
"restaurant";"restaurant";"Serba Jadi";"Kec. Serbajadi, Kabupaten Serdang Bedagai, Sumatera Utara";"Kabupaten Serdang Bedagai, Sumatera Utara";"ACEH";"";"Indonesia";"";"3.3731131";"98.941094";"https://maps.google.com/?cid=0x0:0x73e4aa9a82915b99"
"restaurant";"Rumah Makan";"RUMAH MAKAN AJO TANJUNG";"9W5R+M3W, Jalan Raya Dolok Masihul Karang Tengah Serba Jadi, Tj. Harap, Kec. Serbajadi, Kabupaten Serdang Bedagai, Sumatera Utara 20991";"Jalan Raya Dolok Masihul Karang Tengah Serba Jadi, Tj. Harap, Kec. Serbajadi, Kabupaten Serdang Bedagai";"ACEH";"20991";"Indonesia";" 085270029187";"3.3592486";"98.9402131";"https://maps.google.com/?cid=0x0:0x589965cf0b3fb461"
"restaurant";"restaurant";"Kec. Serbajadi";"Kabupaten Serdang Bedagai, Sumatera Utara";"Kabupaten Serdang Bedagai, Sumatera Utara";"ACEH";"";"Indonesia";"";"3.3554261";"98.9407395";"https://maps.google.com/?cid=0x0:0xae6ac6dafbd511ab"
"restaurant";"Sarapan";"RaqaRaisya";"8XQ3+34M, Karang Tengah, Kec. Serbajadi, Kabupaten Serdang Bedagai, Sumatera Utara 20991";"Karang Tengah, Kec. Serbajadi, Kabupaten Serdang Bedagai";"ACEH";"20991";"Indonesia";" 085358393311";"3.3377023";"98.9527827";"https://maps.google.com/?cid=0x0:0x6322973dd63e0b72"
"restaurant";"Sarapan";"Gorengan Idar";"Karang Tengah, Kec. Serbajadi, Kabupaten Serdang Bedagai, Sumatera Utara 20991";"Kec. Serbajadi, Kabupaten Serdang Bedagai";"ACEH";"20991";"Indonesia";" 082272780518";"3.3516079";"98.9516646";"https://maps.google.com/?cid=0x0:0xe678ab4882d40372"
"restaurant";"Ayam Penyet";"Warung ayam penyet mak ijah";"Dusun 1 Desa Kuala Bali Kec, Kuala Bali, Kec. Serbajadi, Kabupaten Serdang Bedagai, Sumatera Utara 20991";"Kuala Bali, Kec. Serbajadi, Kabupaten Serdang Bedagai";"ACEH";"20991";"Indonesia";" 082361773005";"3.3532787";"98.9412179";"https://maps.google.com/?cid=0x0:0x32f4d65a5fa5cb43"
"restaurant";"Restoran";"WULAN RESTO  COFFEE";"RV6W+3F4, Leuge, Kec. Peureulak, Kabupaten Aceh Timur, Aceh";"Kabupaten Aceh Timur, Aceh";"ACEH";"";"Indonesia";"";"4.810128";"97.8962151";"https://maps.google.com/?cid=0x0:0x457f9175d38b7aef"
"restaurant";"restaurant";"Aceh 24461";"Kabupaten Aceh Timur, Aceh";"Kabupaten Aceh Timur, Aceh";"ACEH";"";"Indonesia";"";"4.950275";"97.6792293";"https://maps.google.com/?cid=0x0:0x40ce92432b582121"
"restaurant";"Kedai Kopi";"Kede 01_ar";"Snb teungoh, Kec. Darul Aman, Kabupaten Aceh Timur, Aceh 24455";"Kec. Darul Aman, Kabupaten Aceh Timur";"ACEH";"24455";"Indonesia";"";"4.9683274";"97.7145552";"https://maps.google.com/?cid=0x0:0x5edec51e5ec6b1b"
"restaurant";"Kafe";"DAPOER HAL,WAY COFFE";"XQ47+9WF, Gampong Jl., Kec. Idi Rayeuk, Kabupaten Aceh Timur, Aceh";"Kabupaten Aceh Timur, Aceh";"ACEH";"";"Indonesia";" 085361328334";"4.9559304";"97.7647835";"https://maps.google.com/?cid=0x0:0x76fb01951fb7c7b"
"restaurant";"Brunch";"Rumah Makan MEUCIRASA";"Seuneubok Bacee, Kec. Idi Rayeuk, Kabupaten Aceh Timur, Aceh";"Kabupaten Aceh Timur, Aceh";"ACEH";"";"Indonesia";" 085260117044";"4.9354038";"97.7822353";"https://maps.google.com/?cid=0x0:0xea9ece5ce4d771d4"
"restaurant";"Brunch";"Warung Pak Jenggot";"Tanoh Anou, Kec. Idi Rayeuk, Kabupaten Aceh Timur, Aceh 24454";"Kec. Idi Rayeuk, Kabupaten Aceh Timur";"ACEH";"24454";"Indonesia";" 085359633128";"4.9451102";"97.7749429";"https://maps.google.com/?cid=0x0:0xb5acb8b08f160f7b"
"restaurant";"Kafe";"KEUDE DIARA";"Jl. Pertamina Dusun Pos XI/Tgk Di Aceh Desa Bukit Pala, Rantau Panjang, Seumaly, Kec. Rantau Peureulak, Kabupaten Aceh Timur, Aceh 24453";"Rantau Panjang, Seumaly, Kec. Rantau Peureulak, Kabupaten Aceh Timur";"ACEH";"24453";"Indonesia";" 082295956500";"4.8043895";"97.7995446";"https://maps.google.com/?cid=0x0:0xcc415207235f6388"
"restaurant";"Kedai Kopi";"KANOT BU coffee";"XPPC+337, Jl. Medan Banda Aceh, Keude, Kec. Darul Aman, Kabupaten Aceh Timur, Aceh";"Kabupaten Aceh Timur, Aceh";"ACEH";"";"Indonesia";" 082272375720";"4.9851569";"97.7201631";"https://maps.google.com/?cid=0x0:0x632478d975ae1af9"
"restaurant";"Kedai Kopi";"Conical Coffee  Dining";"Jl. Medan - Banda Aceh, Gampong Aceh, Kec. Idi Rayeuk, Kabupaten Aceh Timur, Aceh";"Kabupaten Aceh Timur, Aceh";"ACEH";"";"Indonesia";"";"4.951843";"97.765321";"https://maps.google.com/?cid=0x0:0x2c87dfe504154357"
"restaurant";"Sarapan";"Lr. Bahagia, Gampong Kuta Blang";"WQWC+8FF, Kuta Blang, Kec. Idi Rayeuk, Kabupaten Aceh Timur, Aceh";"Kabupaten Aceh Timur, Aceh";"ACEH";"";"Indonesia";"";"4.9458037";"97.7711741";"https://maps.google.com/?cid=0x0:0x2a1828c99a6e1164"
"restaurant";"Bakso";"Super Bakso";"XPGF+MRV, Kp. Baro, Kec. Darul Aman, Kabupaten Aceh Timur, Aceh 24455";"Kp. Baro, Kec. Darul Aman, Kabupaten Aceh Timur";"ACEH";"24455";"Indonesia";"";"4.9767481";"97.7245333";"https://maps.google.com/?cid=0x0:0xc358888303f23262"
"restaurant";"Rumah Makan";"dr dimsum cafe idi Aceh timur";"Seuneubok Bacee, Kec. Idi Rayeuk, Kabupaten Aceh Timur, Aceh";"Kabupaten Aceh Timur, Aceh";"ACEH";"";"Indonesia";" 082211166244";"4.9373294";"97.7810645";"https://maps.google.com/?cid=0x0:0xb0cf9ae5d957e364"
"restaurant";"Makanan Siap Saji";"KUTARADJA FRIED CHICKEN IDI ACEH TIMUR";"Jl. Medan Banda Aceh, Seuneubok Bacee, Kec. Idi Rayeuk, Kota Banda Aceh, Aceh 24455";"Seuneubok Bacee, Kec. Idi Rayeuk, Kota Banda Aceh";"ACEH";"24455";"Indonesia";" 082299762505";"4.9413832";"97.7785703";"https://maps.google.com/?cid=0x0:0xe31ebaa01188b003"
"restaurant";"Restoran";"Warung Mie Barcelona";"XQ2C+GJ2, Kp. Jawa, Kec. Idi Rayeuk, Kabupaten Aceh Timur, Aceh";"Kabupaten Aceh Timur, Aceh";"ACEH";"";"Indonesia";"";"4.9512564";"97.7715243";"https://maps.google.com/?cid=0x0:0x9faf210a4445a8a3"
"restaurant";"Indonesia";"RUMAH MAKAN KARONA";"Jl. Medan - Banda Aceh, Meunasah Leubok, Kec. Pante Bidari, Kabupaten Aceh Timur, Aceh 24458";"Meunasah Leubok, Kec. Pante Bidari, Kabupaten Aceh Timur";"ACEH";"24458";"Indonesia";"";"5.0733286";"97.5179585";"https://maps.google.com/?cid=0x0:0xf2d693571750ef06"
"restaurant";"Bakso";"RUMAH MAKAN SELERA BARU";"2JVF+5R2, Blang Paoh Dua, Kec. Julok, Kabupaten Aceh Timur, Aceh 24458";"Blang Paoh Dua, Kec. Julok, Kabupaten Aceh Timur";"ACEH";"24458";"Indonesia";" 085277155725";"5.0428962";"97.6245281";"https://maps.google.com/?cid=0x0:0x2f84d1851ab70648"
"restaurant";"restaurant";"Aceh 24458";"Kabupaten Aceh Timur, Aceh";"Kabupaten Aceh Timur, Aceh";"ACEH";"";"Indonesia";"";"4.9131571";"97.5463885";"https://maps.google.com/?cid=0x0:0x82c363c7b075e66"
"restaurant";"Restoran";"PONDOK SULTAN";"3GMG+9JJ, Jl. Medan Banda Aceh, Matang Kruet, Kec. Pante Bidari, Kabupaten Aceh Timur, Aceh 24458";"Jl. Medan Banda Aceh, Matang Kruet, Kec. Pante Bidari, Kabupaten Aceh Timur";"ACEH";"24458";"Indonesia";" 082361883939";"5.0834576";"97.5265139";"https://maps.google.com/?cid=0x0:0xd3fc1f6e425daad4"
"restaurant";"Restoran";"Rumah Makan Blang Bugeng";"2MM2+99J, Meunasah Teungoh, Kec. Nurussalam, Kabupaten Aceh Timur, Aceh 24458";"Meunasah Teungoh, Kec. Nurussalam, Kabupaten Aceh Timur";"ACEH";"24458";"Indonesia";" 081375660322";"5.0334548";"97.6508763";"https://maps.google.com/?cid=0x0:0xd3fc303ee5fc3492"
"restaurant";"Sarapan";"Warung Sigli jaya";"3GCC+55F, Jl. Medan Banda Aceh, Keude Baro, Kec. Pante Bidari, Kabupaten Aceh Timur, Aceh 24458";"Jl. Medan Banda Aceh, Keude Baro, Kec. Pante Bidari, Kabupaten Aceh Timur";"ACEH";"24458";"Indonesia";" 085227589233";"5.0704465";"97.5204127";"https://maps.google.com/?cid=0x0:0xe85a3eaac81d3acc"
"restaurant";"Restoran";"ardani";"3GH8+C95, Jl. Medan Banda Aceh, Meunasah Leubok, Kec. Pante Bidari, Kabupaten Aceh Timur, Aceh 24458";"Jl. Medan Banda Aceh, Meunasah Leubok, Kec. Pante Bidari, Kabupaten Aceh Timur";"ACEH";"24458";"Indonesia";"";"5.07851";"97.5159882";"https://maps.google.com/?cid=0x0:0x902e03df53ae08c0"
"restaurant";"Pembangunan Perumahan";"Nyakdan";"Jambo Balee, Kec. Indra Makmur, Kabupaten Aceh Timur, Aceh 24458";"Kec. Indra Makmur, Kabupaten Aceh Timur";"ACEH";"24458";"Indonesia";" 081362450810";"4.9046507";"97.5442318";"https://maps.google.com/?cid=0x0:0xfb1e1ad65d2b818e"
"restaurant";"Bakso";"Ulee Ateung";"2JMC+HJ9, Ulee Ateung, Kec. Julok, Kabupaten Aceh Timur, Aceh 24458";"Ulee Ateung, Kec. Julok, Kabupaten Aceh Timur";"ACEH";"24458";"Indonesia";" 082363860920";"5.0339246";"97.6216043";"https://maps.google.com/?cid=0x0:0xfbb61ad49067bdba"
"restaurant";"Restoran";"Kuta Binjei";"Jl.medan-banda Aceh.gp Blang pauh dua, Keude Kuta Binjai, Kec. Julok, Kabupaten Aceh Timur, Aceh";"Kabupaten Aceh Timur, Aceh";"ACEH";"";"Indonesia";" 085216280550";"5.0420625";"97.6270625";"https://maps.google.com/?cid=0x0:0x9573fd4feaafe306"
"restaurant";"Restoran";"Duta Aulia";"2MH8+FMG, Jl. Medan Banda Aceh, Matang Seuleumak, Kec. Nurussalam, Kabupaten Aceh Timur, Aceh 24458";"Jl. Medan Banda Aceh, Matang Seuleumak, Kec. Nurussalam, Kabupaten Aceh Timur";"ACEH";"24458";"Indonesia";"";"5.028692";"97.6667048";"https://maps.google.com/?cid=0x0:0xa04abd245b72a133"
"restaurant";"Kedai Kopi";"Bakso Nicah Awe";"3HG2+VVF, desa, Nicah Awe, Kec. Simpang Ulim, Kabupaten Aceh Timur, Aceh 24458";"desa, Nicah Awe, Kec. Simpang Ulim, Kabupaten Aceh Timur";"ACEH";"24458";"Indonesia";"";"5.0771992";"97.5521702";"https://maps.google.com/?cid=0x0:0xd7330c4ac9ee5eae"
"restaurant";"Brunch";"Warung Sinar Pagi";"3GMG+7MX, Jl. Medan Banda Aceh, Matang Kruet, Kec. Pante Bidari, Kabupaten Aceh Timur, Aceh 24458";"Jl. Medan Banda Aceh, Matang Kruet, Kec. Pante Bidari, Kabupaten Aceh Timur";"ACEH";"24458";"Indonesia";"";"5.0832478";"97.5267469";"https://maps.google.com/?cid=0x0:0x3e65c8fb1a16a699"
"restaurant";"Restoran";"Keude Wak Lah";"2G25+MPH, Alue Ie Mirah, Kec. Pante Bidari, Kabupaten Aceh Timur, Aceh 24458";"Alue Ie Mirah, Kec. Pante Bidari, Kabupaten Aceh Timur";"ACEH";"24458";"Indonesia";"";"5.0016929";"97.5093577";"https://maps.google.com/?cid=0x0:0xc712ec232d7486a"
"restaurant";"Mi";"Mie Keulayu";"3GPH+C3Q, Jl. Medan Banda Aceh, Pucok Alue Bar., Kec. Simpang Ulim, Kabupaten Aceh Timur, Aceh 24458";"Jl. Medan Banda Aceh, Pucok Alue Bar., Kec. Simpang Ulim, Kabupaten Aceh Timur";"ACEH";"24458";"Indonesia";"";"5.0860955";"97.527743";"https://maps.google.com/?cid=0x0:0x9195bf64ad281e80"
"restaurant";"restaurant";"Kec. Simpang Ulim";"Kabupaten Aceh Timur, Aceh";"Kabupaten Aceh Timur, Aceh";"ACEH";"";"Indonesia";"";"5.0970632";"97.5398746";"https://maps.google.com/?cid=0x0:0x449fe38554505818"
"restaurant";"Kedai Kopi";"Kantin Pondok Irigasi";"Kampong Baro, Kec. Simpang Ulim, Kabupaten Aceh Timur, Aceh 24458";"Kec. Simpang Ulim, Kabupaten Aceh Timur";"ACEH";"24458";"Indonesia";" 081287045162";"5.0973293";"97.5362707";"https://maps.google.com/?cid=0x0:0x71c496847ccb1bb5"
"restaurant";"Restoran";"ardani";"3GH8+C95, Jl. Medan Banda Aceh, Meunasah Leubok, Kec. Pante Bidari, Kabupaten Aceh Timur, Aceh 24458";"Jl. Medan Banda Aceh, Meunasah Leubok, Kec. Pante Bidari, Kabupaten Aceh Timur";"ACEH";"24458";"Indonesia";"";"5.07851";"97.5159882";"https://maps.google.com/?cid=0x0:0x902e03df53ae08c0"
"restaurant";"Mi";"Mie Bang Man Keude Tuha";"4G3R+HRH, Keude Tuha, Jalan arah ke, Teupin Mamplam, Kec. Simpang Ulim, Kabupaten Aceh Timur, Aceh 24458";"Keude Tuha, Jalan arah ke, Teupin Mamplam, Kec. Simpang Ulim, Kabupaten Aceh Timur";"ACEH";"24458";"Indonesia";"";"5.1039405";"97.5421236";"https://maps.google.com/?cid=0x0:0xd8f709aa12034c3f"
"restaurant";"Kafe";"Warkop Bg Paisal";"ujong blang, pucok alue sa, 24458, Pucok Alue Satu, Kec. Simpang Ulim, Kabupaten Aceh Timur, Aceh 24458";"pucok alue sa,";"ACEH";"24458";"Indonesia";"";"5.0857285";"97.533679";"https://maps.google.com/?cid=0x0:0x404547af04b2b29e"
"restaurant";"Kafe";"Warong Kupi Kakti";"4G3R+4RM, Keude Tuha, Kec. Simpang Ulim, Kabupaten Aceh Timur, Aceh 24458";"Keude Tuha, Kec. Simpang Ulim, Kabupaten Aceh Timur";"ACEH";"24458";"Indonesia";" 081265194912";"5.1028331";"97.5420433";"https://maps.google.com/?cid=0x0:0x229941dfebf69d49"
"restaurant";"Kebab";"KEBAB D'HABSYI";"Masjid Ba'alawi, Jl. Medan Banda Aceh, Pucok Alue Dua, Kec. Simpang Ulim, Kabupaten Aceh Timur, Aceh 24465";"Jl. Medan Banda Aceh, Pucok Alue Dua, Kec. Simpang Ulim, Kabupaten Aceh Timur";"ACEH";"24465";"Indonesia";" 082267975353";"5.0921293";"97.527182";"https://maps.google.com/?cid=0x0:0xf1acb2053d0a87e4"
"restaurant";"Kafe";"Central Kupi";"Kampong Baro, Kec. Simpang Ulim, Kabupaten Aceh Timur, Aceh 24458";"Kec. Simpang Ulim, Kabupaten Aceh Timur";"ACEH";"24458";"Indonesia";"";"5.0972174";"97.5399581";"https://maps.google.com/?cid=0x0:0x9f3ccecdc214d309"
"restaurant";"Kedai Kopi";"#1 DI TRENDING";"3H99+469, Jl. Alue Ie Puteh - Blang Geulumpang, Blang Me, Kec. Simpang Ulim, Kabupaten Aceh Timur, Aceh 24458";"Jl. Alue Ie Puteh - Blang Geulumpang, Blang Me, Kec. Simpang Ulim, Kabupaten Aceh Timur";"ACEH";"24458";"Indonesia";" 081240594701";"5.0677861";"97.5681155";"https://maps.google.com/?cid=0x0:0x6f069c404a880f52"
"restaurant";"Kafe";"WARKOP BG SYAHRUL";"Unnamed Road, 24458, Peulalu, Simpang Ulim, East Aceh Regency, Aceh 24458";"24458, Peulalu, Simpang Ulim, East Aceh Regency";"ACEH";"24458";"Indonesia";"";"5.0920482";"97.5372675";"https://maps.google.com/?cid=0x0:0xdeb5f6a1b8364a2b"
"restaurant";"Kedai Kopi";"Jambo Bunda";"3GWP+WGC, Kampong Baro, Kec. Simpang Ulim, Kabupaten Aceh Timur, Aceh 24458";"Kampong Baro, Kec. Simpang Ulim, Kabupaten Aceh Timur";"ACEH";"24458";"Indonesia";" 082366748772";"5.0973215";"97.5362626";"https://maps.google.com/?cid=0x0:0x332e68b2376d40a2"
"restaurant";"Kafe";"Warkop Tunas Muda";"3GVV+3CJ, Jl. Medan - Banda Aceh, Peulalu, Kec. Simpang Ulim, Kabupaten Aceh Timur, Aceh 24458";"Jl. Medan - Banda Aceh, Peulalu, Kec. Simpang Ulim, Kabupaten Aceh Timur";"ACEH";"24458";"Indonesia";" 082262119862";"5.0927018";"97.5435016";"https://maps.google.com/?cid=0x0:0x9b64174c8bfb9ea9"
"restaurant";"Kedai Kopi";"Warung bakso";"Pucok Alue Bar., Kec. Simpang Ulim, 24458Aceh Timur, Aceh";"24458Aceh Timur, Aceh";"ACEH";"";"Indonesia";" 082165227034";"5.0855662";"97.527462";"https://maps.google.com/?cid=0x0:0x698d8686e43cdda5"
"restaurant";"restaurant";"Aceh 24458";"Kabupaten Aceh Timur, Aceh";"Kabupaten Aceh Timur, Aceh";"ACEH";"";"Indonesia";"";"4.9131571";"97.5463885";"https://maps.google.com/?cid=0x0:0x82c363c7b075e66"
"restaurant";"Padang";"Rumah Makan Aja 2";"MWF8+F93, Labuhan Keude, Kec. Sungai Raya, Kabupaten Aceh Timur, Aceh 24452";"Labuhan Keude, Kec. Sungai Raya, Kabupaten Aceh Timur";"ACEH";"24452";"Indonesia";" 082292959775";"4.6736258";"97.9159139";"https://maps.google.com/?cid=0x0:0x3b7bd6c0a586ce54"
"restaurant";"Kafe";"Jambo Kelapa Sungai Raya";"MW6C+3R6, Bukit Selamat, Kec. Sungai Raya, Kabupaten Aceh Timur, Aceh 24452";"Bukit Selamat, Kec. Sungai Raya, Kabupaten Aceh Timur";"ACEH";"24452";"Indonesia";"";"4.660155";"97.922015";"https://maps.google.com/?cid=0x0:0xd418702c2d02b659"
"restaurant";"Restoran";"Rujak Sungai Raya";"MWC8+5VW, Labuhan Keude, Kec. Sungai Raya, Kabupaten Aceh Timur, Aceh 24452";"Labuhan Keude, Kec. Sungai Raya, Kabupaten Aceh Timur";"ACEH";"24452";"Indonesia";"";"4.6704867";"97.917196";"https://maps.google.com/?cid=0x0:0xf9ef0ec18528a4c5"
"restaurant";"Kafe";"Cafe Rindu 86";"Jl. Medan - Banda Aceh, Geulumpang Payong, Kec. Sungai Raya, Kabupaten Aceh Timur, Aceh 24452";"Geulumpang Payong, Kec. Sungai Raya, Kabupaten Aceh Timur";"ACEH";"24452";"Indonesia";" 082269672736";"4.6805205";"97.9167209";"https://maps.google.com/?cid=0x0:0x663e64dbfec1130d"
"restaurant";"Kafe";"A aam cafe";"MWF8+Q9G, Jl. Pajak Ikan, Labuhan Keude, Kec. Sungai Raya, Kabupaten Aceh Timur, Aceh 24452";"Jl. Pajak Ikan, Labuhan Keude, Kec. Sungai Raya, Kabupaten Aceh Timur";"ACEH";"24452";"Indonesia";"";"4.6744414";"97.9159452";"https://maps.google.com/?cid=0x0:0xb003a5adc6ae3814"
"restaurant";"Kedai Kopi";"WARKOP BAiM";"MWF8+G65, Labuhan Keude, Kec. Sungai Raya, Kabupaten Aceh Timur, Aceh 24452";"Labuhan Keude, Kec. Sungai Raya, Kabupaten Aceh Timur";"ACEH";"24452";"Indonesia";" 082368797195";"4.6737503";"97.9156244";"https://maps.google.com/?cid=0x0:0xd09afaa28f35995e"
"restaurant";"Kedai Kopi";"Musa";"MWF7+G9X, Krueng Lingka, Kec. Sungai Raya, Kabupaten Aceh Timur, Aceh 24452";"Krueng Lingka, Kec. Sungai Raya, Kabupaten Aceh Timur";"ACEH";"24452";"Indonesia";" 085260259131";"4.6738717";"97.9134966";"https://maps.google.com/?cid=0x0:0x5230dc00c375668e"
"restaurant";"Kafe";"Maha Coffe";"MWF8+C9M, Jl. Medan Banda Aceh, Labuhan Keude, Kec. Sungai Raya, Kabupaten Aceh Timur, Aceh 24452";"Jl. Medan Banda Aceh, Labuhan Keude, Kec. Sungai Raya, Kabupaten Aceh Timur";"ACEH";"24452";"Indonesia";" 085320002016";"4.6735904";"97.9159329";"https://maps.google.com/?cid=0x0:0x4c3032f5bb8612d6"
"restaurant";"Kedai Kopi";"Conical Coffee  Dining";"Jl. Medan - Banda Aceh, Gampong Aceh, Kec. Idi Rayeuk, Kabupaten Aceh Timur, Aceh";"Kabupaten Aceh Timur, Aceh";"ACEH";"";"Indonesia";"";"4.951843";"97.765321";"https://maps.google.com/?cid=0x0:0x2c87dfe504154357"
"restaurant";"Kedai Kopi";"Dani_cafe";"MWF7+826, Krueng Lingka, Kec. Sungai Raya, Kabupaten Aceh Timur, Aceh 24452";"Krueng Lingka, Kec. Sungai Raya, Kabupaten Aceh Timur";"ACEH";"24452";"Indonesia";"";"4.6732943";"97.9125142";"https://maps.google.com/?cid=0x0:0x97f0fd7ec8fba258"
"restaurant";"Kedai Kopi";"jeep kupi aceh";"MWF8+P5X, Jl. Medan Banda Aceh, Labuhan Keude, Kec. Sungai Raya, Kabupaten Aceh Timur, Aceh 24452";"Jl. Medan Banda Aceh, Labuhan Keude, Kec. Sungai Raya, Kabupaten Aceh Timur";"ACEH";"24452";"Indonesia";" 085207070590";"4.6743616";"97.9154767";"https://maps.google.com/?cid=0x0:0x5e122627c4b5248"
"restaurant";"Kedai Kopi";"MITHA KUPI";"MWF7+G77, Jl. Gajah Mentah, Krueng Lingka, Kec. Sungai Raya, Kabupaten Aceh Timur, Aceh 24452";"Jl. Gajah Mentah, Krueng Lingka, Kec. Sungai Raya, Kabupaten Aceh Timur";"ACEH";"24452";"Indonesia";"";"4.6737942";"97.9131643";"https://maps.google.com/?cid=0x0:0x39992a3bddcdcbd6"
"restaurant";"Padang";"Rosli Ahmad";"MWC6+H4R, Bukit Drien, Kec. Sungai Raya, Kabupaten Aceh Timur, Aceh 24452";"Bukit Drien, Kec. Sungai Raya, Kabupaten Aceh Timur";"ACEH";"24452";"Indonesia";" 085223663956";"4.6714881";"97.910273";"https://maps.google.com/?cid=0x0:0x2b0e93e212f8851e"
"restaurant";"Restoran";"Rujak Sungai Raya";"MWC8+5VW, Labuhan Keude, Kec. Sungai Raya, Kabupaten Aceh Timur, Aceh 24452";"Labuhan Keude, Kec. Sungai Raya, Kabupaten Aceh Timur";"ACEH";"24452";"Indonesia";"";"4.6704867";"97.917196";"https://maps.google.com/?cid=0x0:0xf9ef0ec18528a4c5"
"restaurant";"restaurant";"Kec. Sungai Raya";"Kabupaten Aceh Timur, Aceh";"Kabupaten Aceh Timur, Aceh";"ACEH";"";"Indonesia";"";"4.6744294";"97.9155206";"https://maps.google.com/?cid=0x0:0xed64a98a923c441c"
"restaurant";"Padang";"Rumah Makan Aja 2";"MWF8+F93, Labuhan Keude, Kec. Sungai Raya, Kabupaten Aceh Timur, Aceh 24452";"Labuhan Keude, Kec. Sungai Raya, Kabupaten Aceh Timur";"ACEH";"24452";"Indonesia";" 082292959775";"4.6736258";"97.9159139";"https://maps.google.com/?cid=0x0:0x3b7bd6c0a586ce54"
"restaurant";"Padang";"Rosli Ahmad";"MWC6+H4R, Bukit Drien, Kec. Sungai Raya, Kabupaten Aceh Timur, Aceh 24452";"Bukit Drien, Kec. Sungai Raya, Kabupaten Aceh Timur";"ACEH";"24452";"Indonesia";" 085223663956";"4.6714881";"97.910273";"https://maps.google.com/?cid=0x0:0x2b0e93e212f8851e"
"restaurant";"Kedai Kopi";"US Coffe  Resto";"MW7C+95W, Labuhan Keude, Kec. Sungai Raya, Kabupaten Aceh Timur, Aceh 24452";"Labuhan Keude, Kec. Sungai Raya, Kabupaten Aceh Timur";"ACEH";"24452";"Indonesia";" 082259491280";"4.6634775";"97.9204392";"https://maps.google.com/?cid=0x0:0x316d453fb27fa136"
"restaurant";"Kafe";"Jambo Kelapa Sungai Raya";"MW6C+3R6, Bukit Selamat, Kec. Sungai Raya, Kabupaten Aceh Timur, Aceh 24452";"Bukit Selamat, Kec. Sungai Raya, Kabupaten Aceh Timur";"ACEH";"24452";"Indonesia";"";"4.660155";"97.922015";"https://maps.google.com/?cid=0x0:0xd418702c2d02b659"
"restaurant";"Kedai Kopi";"jeep kupi aceh";"MWF8+P5X, Jl. Medan Banda Aceh, Labuhan Keude, Kec. Sungai Raya, Kabupaten Aceh Timur, Aceh 24452";"Jl. Medan Banda Aceh, Labuhan Keude, Kec. Sungai Raya, Kabupaten Aceh Timur";"ACEH";"24452";"Indonesia";" 085207070590";"4.6743616";"97.9154767";"https://maps.google.com/?cid=0x0:0x5e122627c4b5248"
"restaurant";"Kafe";"Mie bg wan";"MWG8+F47, Krueng Lingka, Kec. Sungai Raya, Kabupaten Aceh Timur, Aceh 24452";"Krueng Lingka, Kec. Sungai Raya, Kabupaten Aceh Timur";"ACEH";"24452";"Indonesia";"";"4.6761651";"97.9153058";"https://maps.google.com/?cid=0x0:0x507be6cfca8a5a7f"
"restaurant";"Kedai Kopi";"Dani_cafe";"MWF7+826, Krueng Lingka, Kec. Sungai Raya, Kabupaten Aceh Timur, Aceh 24452";"Krueng Lingka, Kec. Sungai Raya, Kabupaten Aceh Timur";"ACEH";"24452";"Indonesia";"";"4.6732943";"97.9125142";"https://maps.google.com/?cid=0x0:0x97f0fd7ec8fba258"
"restaurant";"Kedai Kopi";"RM Ramah Tamah (Pos Pantau Solit Korwil Aceh)";"PW24+JMR, Alue Bugeng, Kec. Peureulak Tim., Kabupaten Aceh Timur, Aceh 24452";"Alue Bugeng, Kec. Peureulak Tim., Kabupaten Aceh Timur";"ACEH";"24452";"Indonesia";" 085260620907";"4.7016169";"97.9066359";"https://maps.google.com/?cid=0x0:0xb55f4622ee5fb62e"
"restaurant";"Toko bahan makanan";"Bakso Cirasa";"MWF8+C7F, Labuhan Keude, Kec. Sungai Raya, Kabupaten Aceh Timur, Aceh 24452";"Labuhan Keude, Kec. Sungai Raya, Kabupaten Aceh Timur";"ACEH";"24452";"Indonesia";"";"4.6735556";"97.9156766";"https://maps.google.com/?cid=0x0:0x5cb175148e96ff47"
"restaurant";"Kedai Kopi";"MITHA KUPI";"MWF7+G77, Jl. Gajah Mentah, Krueng Lingka, Kec. Sungai Raya, Kabupaten Aceh Timur, Aceh 24452";"Jl. Gajah Mentah, Krueng Lingka, Kec. Sungai Raya, Kabupaten Aceh Timur";"ACEH";"24452";"Indonesia";"";"4.6737942";"97.9131643";"https://maps.google.com/?cid=0x0:0x39992a3bddcdcbd6"
"restaurant";"Kafe";"Warkop TUBRAS";"MWG8+33W, Labuhan Keude, Kec. Sungai Raya, Kabupaten Aceh Timur, Aceh 24452";"Labuhan Keude, Kec. Sungai Raya, Kabupaten Aceh Timur";"ACEH";"24452";"Indonesia";"";"4.6752451";"97.9152099";"https://maps.google.com/?cid=0x0:0xc459d87877a8dda9"
