Category;Real Category;Business Name;Address;City;State;Postal Code;Country;Phone;Email;Website;Latitude;Longitude;Map Link;Details Link
"perumahan";"perumahan";"Rumah kuciah gunbat";"HW8J+CQ6, gunung batu, Banjarwangi, Kec. Banjarwangi, Kabupaten Garut, Jawa Barat 44172";"gunung batu, Banjarwangi, Kec. Banjarwangi, Kabupaten Garut";"JAWA BARAT";"44172";"Indonesia";"";"";"";"-7.4333763";"107.9321012";"https://maps.google.com/?cid=0x0:0xa393dd4a89806390";""
"perumahan";"Komplek perumahan";"Rumah Migan Rajisman";"Kp. Rancabeuruem, RT./001/RW./002, Banjarwangi, Kec. Banjarwangi, Kabupaten Garut, Jawa Barat 44172";"RT./001/RW./002, Banjarwangi, Kec. Banjarwangi, Kabupaten Garut";"JAWA BARAT";"44172";"Indonesia";" 085320213292";"";"";"-7.440887";"107.8943137";"https://maps.google.com/?cid=0x0:0xd1f94e35320bb48d";""
"perumahan";"Perhimpunan Pengembang Perumahan";"Rumah Bayu";"HW53+8R9, Jln. Caringin Des, Banjarwangi, Kec. Banjarwangi, Kabupaten Garut, Jawa Barat 44172";"Jln. Caringin Des, Banjarwangi, Kec. Banjarwangi, Kabupaten Garut";"JAWA BARAT";"44172";"Indonesia";"";"";"";"-7.4417159";"107.904615";"https://maps.google.com/?cid=0x0:0xe8d06786bb3c7217";""
"perumahan";"perumahan";"Rumah tinggal";"HVRW+4FX, Kadongdong, Kec. Banjarwangi, Kabupaten Garut, Jawa Barat 44172";"Kadongdong, Kec. Banjarwangi, Kabupaten Garut";"JAWA BARAT";"44172";"Indonesia";"";"";"";"-7.4097533";"107.896207";"https://maps.google.com/?cid=0x0:0x295b4d4cf67e15af";""
"perumahan";"Pembangunan Perumahan";"Kp.asyifa,DS.wangunjaya,kec.banjarwangi-garut";"JV7Q+46C Kp.asyifa, Wangunjaya, Kec. Banjarwangi, Kabupaten Garut, Jawa Barat 44172";"Wangunjaya, Kec. Banjarwangi, Kabupaten Garut";"JAWA BARAT";"44172";"Indonesia";"";"";"";"-7.3871838";"107.8880075";"https://maps.google.com/?cid=0x0:0xe0ad81b7c8cbc128";""
"perumahan";"Komplek perumahan";"Najahan";"HWR3+948, Kadongdong, Kec. Banjarwangi, Kabupaten Garut, Jawa Barat 44172";"Kadongdong, Kec. Banjarwangi, Kabupaten Garut";"JAWA BARAT";"44172";"Indonesia";"";"";"";"-7.409488";"107.902233";"https://maps.google.com/?cid=0x0:0xfb9fbc2dc95138d6";""
"perumahan";"Komplek perumahan";"Rumah Sheryll";"Jalan Cibengang RT04 RW04, Padahurip, Kec. Banjarwangi, Kabupaten Garut, Jawa Barat 44172";"Padahurip, Kec. Banjarwangi, Kabupaten Garut";"JAWA BARAT";"44172";"Indonesia";"";"";"";"-7.4255413";"107.9114875";"https://maps.google.com/?cid=0x0:0x2008627b469515ad";""
"perumahan";"Pembangunan Perumahan";"RUMAH NENG";"HVJJ+44Q, Talagajaya, Kec. Banjarwangi, Kabupaten Garut, Jawa Barat 44172";"Talagajaya, Kec. Banjarwangi, Kabupaten Garut";"JAWA BARAT";"44172";"Indonesia";"";"";"";"-7.4196672";"107.8803491";"https://maps.google.com/?cid=0x0:0x590db203712b0f4f";""
"perumahan";"Komplek perumahan";"Rumah Ikhsan";"HWFF+F5W, Talagasari, Kec. Banjarwangi, Kabupaten Garut, Jawa Barat 44172";"Talagasari, Kec. Banjarwangi, Kabupaten Garut";"JAWA BARAT";"44172";"Indonesia";"";"";"";"-7.4262598";"107.9229415";"https://maps.google.com/?cid=0x0:0x6b28b4eb2f8537c5";""
"perumahan";"Pembangunan Perumahan";"Kp Cisitu";"HW75+7Q, Banjarwangi, Kec. Banjarwangi, Kabupaten Garut, Jawa Barat";"Kabupaten Garut, Jawa Barat";"JAWA BARAT";"";"Indonesia";"";"";"";"-7.4367548";"107.9094331";"https://maps.google.com/?cid=0x0:0x16acc48cb3d41476";""
"perumahan";"Toko";"Rumah Heni Sumarni";"HWG7+4XG, Kp. Bakom, Padahurip, Kec. Banjarwangi, Kabupaten Garut, Jawa Barat 44172";"Kp. Bakom, Padahurip, Kec. Banjarwangi, Kabupaten Garut";"JAWA BARAT";"44172";"Indonesia";"";"";"";"-7.424694";"107.914944";"https://maps.google.com/?cid=0x0:0x137c889aa8ad44ac";""
"perumahan";"Komplek perumahan";"Bumi gelar";"HWC5+JPW, Talagasari, Kec. Banjarwangi, Kabupaten Garut, Jawa Barat 44172";"Talagasari, Kec. Banjarwangi, Kabupaten Garut";"JAWA BARAT";"44172";"Indonesia";"";"";"";"-7.4294121";"107.9099008";"https://maps.google.com/?cid=0x0:0xfc7f41df7574bd08";""
"perumahan";"Taman Kanak-kanak";"Kp Bebedahan";"JV7Q+96F, Talagasari, Kec. Banjarwangi, Kabupaten Garut, Jawa Barat";"Kabupaten Garut, Jawa Barat";"JAWA BARAT";"";"Indonesia";"";"";"";"-7.386559";"107.8880482";"https://maps.google.com/?cid=0x0:0x8c185fc222e27df7";""
"perumahan";"Komplek perumahan";"Cidatar";"HV77+XJX, Bojong, Kec. Banjarwangi, Kabupaten Garut, Jawa Barat 44172";"Bojong, Kec. Banjarwangi, Kabupaten Garut";"JAWA BARAT";"44172";"Indonesia";"";"";"";"-7.4344787";"107.8639372";"https://maps.google.com/?cid=0x0:0x3ca6312e4feb7523";""
"perumahan";"Komplek perumahan";"Mariuk";"HW97+8QP, Banjarwangi, Kec. Banjarwangi, Kabupaten Garut, Jawa Barat 44172";"Banjarwangi, Kec. Banjarwangi, Kabupaten Garut";"JAWA BARAT";"44172";"Indonesia";"";"";"";"-7.4316652";"107.9144526";"https://maps.google.com/?cid=0x0:0x9a55905b4fc206cd";""
"perumahan";"Komplek perumahan";"Leugok Kadu Regency";"JV2G+HWH, Mulyajaya, Kec. Banjarwangi, Kabupaten Garut, Jawa Barat 44172";"Mulyajaya, Kec. Banjarwangi, Kabupaten Garut";"JAWA BARAT";"44172";"Indonesia";" 085211619750";"";"";"-7.3985538";"107.877365";"https://maps.google.com/?cid=0x0:0xd5084d4755c26215";""
"perumahan";"Komplek perumahan";"Kampung gaplek";"HVMX+Q5, Wangunjaya, Kec. Banjarwangi, Kabupaten Garut, Jawa Barat 44172";"Wangunjaya, Kec. Banjarwangi, Kabupaten Garut";"JAWA BARAT";"44172";"Indonesia";"";"";"";"-7.4155237";"107.8979675";"https://maps.google.com/?cid=0x0:0x9681893d17f14f86";""
"perumahan";"perumahan";"Cidrayana";"HVMM+GJP, Wangunjaya, Kec. Banjarwangi, Kabupaten Garut, Jawa Barat";"Kabupaten Garut, Jawa Barat";"JAWA BARAT";"";"Indonesia";"";"";"";"-7.4161553";"107.8840849";"https://maps.google.com/?cid=0x0:0xd3271f180cb102b8";""
"perumahan";"Komplek perumahan";"Ai Nadila Home";"HWF6+RX6, kp. Sukahaji No.kel, Padahurip, Kec. Banjarwangi, Kabupaten Garut, Jawa Barat 44172";"kp. Sukahaji No.kel, Padahurip, Kec. Banjarwangi, Kabupaten Garut";"JAWA BARAT";"44172";"Indonesia";"";"";"";"-7.4250984";"107.912916";"https://maps.google.com/?cid=0x0:0x529483eb58d9de47";""
"perumahan";"perumahan";"Jawa Barat 44172";"Kec. Banjarwangi, Kabupaten Garut, Jawa Barat";"Kabupaten Garut, Jawa Barat";"JAWA BARAT";"";"Indonesia";"";"";"";"-7.3926075";"107.8820831";"https://maps.google.com/?cid=0x0:0x1c00c5eb568ed740";""
"perumahan";"Perhimpunan Pengembang Perumahan";"RUMAH ANIDA";"JV4R+52, Wangunjaya, Kec. Banjarwangi, Kabupaten Garut, Jawa Barat";"Kabupaten Garut, Jawa Barat";"JAWA BARAT";"";"Indonesia";"";"";"";"-7.3945994";"107.8900565";"https://maps.google.com/?cid=0x0:0xc382dfb52e09860f";""
"perumahan";"Kantor Perusahaan";"Kp. Cietog Desa Kadongdong Kec Banjarwangi kab.garut";"HWH2+PVJ, Kadongdong, Kec. Banjarwangi, Kabupaten Garut, Jawa Barat 44172";"Kadongdong, Kec. Banjarwangi, Kabupaten Garut";"JAWA BARAT";"44172";"Indonesia";"";"";"";"-7.4219785";"107.9023928";"https://maps.google.com/?cid=0x0:0x4cd3aae59c44fcba";""
"perumahan";"Pembangunan Perumahan";"Cigoong";"HWQ4+8VH, Kadongdong, Kec. Banjarwangi, Kabupaten Garut, Jawa Barat 44172";"Kadongdong, Kec. Banjarwangi, Kabupaten Garut";"JAWA BARAT";"44172";"Indonesia";"";"";"";"-7.4118879";"107.9069525";"https://maps.google.com/?cid=0x0:0x8970fdfe46b3f625";""
"perumahan";"Komplek perumahan";"Rumah pak ajud sajudin";"HW98+57Q, Mariuk, Talagasari, Kec. Banjarwangi, Kabupaten Garut, Jawa Barat 44172";"Mariuk, Talagasari, Kec. Banjarwangi, Kabupaten Garut";"JAWA BARAT";"44172";"Indonesia";"";"";"";"-7.4320368";"107.9157165";"https://maps.google.com/?cid=0x0:0x106db13e8d21e8d4";""
"perumahan";"Komplek perumahan";"Rumah nenek";"HV3V+8CJ, Bojong, Kec. Banjarwangi, Kabupaten Garut, Jawa Barat 44172";"Bojong, Kec. Banjarwangi, Kabupaten Garut";"JAWA BARAT";"44172";"Indonesia";"";"";"";"-7.4466566";"107.8935231";"https://maps.google.com/?cid=0x0:0x22794e48afaf358";""
"perumahan";"Perumahan";"Perum Banyuherang Regency";"RXJ2+VJ5, Jl. H. Hasan Arif, Cipicung, Kec. Banyuresmi, Kabupaten Garut, Jawa Barat 44191";"Jl. H. Hasan Arif, Cipicung, Kec. Banyuresmi, Kabupaten Garut";"JAWA BARAT";"44191";"Indonesia";" 081324060601";"";"";"-7.1678532";"107.9516136";"https://maps.google.com/?cid=0x0:0xe0f79bea4111f34b";""
"perumahan";"Komplek perumahan";"Rumah eep";"VW66+232, Sukakarya, Kec. Banyuresmi, Kabupaten Garut, Jawa Barat 44191";"Sukakarya, Kec. Banyuresmi, Kabupaten Garut";"JAWA BARAT";"44191";"Indonesia";"";"";"";"-7.1399063";"107.9102361";"https://maps.google.com/?cid=0x0:0x163c5ce707d2b298";""
"perumahan";"Pembangunan Perumahan";"Karisma Residence Banyuresmi";"Unnamed Road, Sukaratu, Kec. Banyuresmi, Kabupaten Garut, Jawa Barat 44191";"Sukaratu, Kec. Banyuresmi, Kabupaten Garut";"JAWA BARAT";"44191";"Indonesia";" 085223342822";"";"";"-7.169134";"107.947273";"https://maps.google.com/?cid=0x0:0xe343d1716dbe80bb";""
"perumahan";"Komplek perumahan";"Rumah degloypulang_udahmalem";"RWRQ+R5P, Jl. Gapura Kiaralawang, Sukamukti, Kec. Banyuresmi, Kabupaten Garut, Jawa Barat 44191";"Jl. Gapura Kiaralawang, Sukamukti, Kec. Banyuresmi, Kabupaten Garut";"JAWA BARAT";"44191";"Indonesia";"";"";"";"-7.157533";"107.93753";"https://maps.google.com/?cid=0x0:0x9e87f67e72b1bc0c";""
"perumahan";"Komplek perumahan";"Perumahan Sukasenang";"RWC9+2J5, Jl. H. Hasan Arif, Sukasenang, Kec. Banyuresmi, Kabupaten Garut, Jawa Barat 44191";"Jl. H. Hasan Arif, Sukasenang, Kec. Banyuresmi, Kabupaten Garut";"JAWA BARAT";"44191";"Indonesia";"";"";"";"-7.179997";"107.9191165";"https://maps.google.com/?cid=0x0:0x595f2da6823602b1";""
"perumahan";"Agen Properti";"Buana Brajasetra Residence";"Jl. Brajasetra No.Des, Banyuresmi, Kec. Banyuresmi, Kabupaten Garut, Jawa Barat 44191";"Banyuresmi, Kec. Banyuresmi, Kabupaten Garut";"JAWA BARAT";"44191";"Indonesia";"";"";"";"-7.1478947";"107.9486544";"https://maps.google.com/?cid=0x0:0x503bb6ddb947da03";""
"perumahan";"Pembangunan Perumahan";"Rumah";"Perum Bagendit Citra Land Blok D5, Cipicung, Kec. Banyuresmi, Kabupaten Garut, Jawa Barat 44191";"Cipicung, Kec. Banyuresmi, Kabupaten Garut";"JAWA BARAT";"44191";"Indonesia";"";"";"";"-7.1642057";"107.9531903";"https://maps.google.com/?cid=0x0:0x934c98604dc2fd34";""
"perumahan";"Pembangunan Perumahan";"Perumahan Griya Puspita Asri";"RWVR+8XF, Sukamukti, Kec. Banyuresmi, Kabupaten Garut, Jawa Barat 44191";"Sukamukti, Kec. Banyuresmi, Kabupaten Garut";"JAWA BARAT";"44191";"Indonesia";"";"";"";"-7.1566954";"107.9424176";"https://maps.google.com/?cid=0x0:0x49c433ac10f4b2bd";""
"perumahan";"Komplek perumahan";"Rumah pribadi";"VX63+QQP, Jl. Majasari, Kp.Munjul, Kec. Banyuresmi, Kabupaten Garut, Jawa Barat 44191";"Jl. Majasari, Kp.Munjul, Kec. Banyuresmi, Kabupaten Garut";"JAWA BARAT";"44191";"Indonesia";" 082218873281";"";"";"-7.1378174";"107.9545476";"https://maps.google.com/?cid=0x0:0xaebb7dd2b3bb3f5";""
"perumahan";"Komplek perumahan";"Perumahan Seniman Rambut ASGAR pprg";"Banyuresmi, Kec. Banyuresmi, Kabupaten Garut, Jawa Barat 44191";"Kec. Banyuresmi, Kabupaten Garut";"JAWA BARAT";"44191";"Indonesia";"";"";"";"-7.1516103";"107.9474605";"https://maps.google.com/?cid=0x0:0xfde531f72eff1917";""
"perumahan";"Komplek perumahan";"Halaman Rumah";"RWV5+XW7, Kp.duwet, RT./01/RW./04, Sukakarya, Kec. Banyuresmi, Kabupaten Garut, Jawa Barat 44191";"Kp.duwet, RT./01/RW./04, Sukakarya, Kec. Banyuresmi, Kabupaten Garut";"JAWA BARAT";"44191";"Indonesia";"";"";"";"-7.155076";"107.9098054";"https://maps.google.com/?cid=0x0:0x9da0843cd2c5e975";""
"perumahan";"Pembangunan Perumahan";"Karisma residence banyuresmi Blok B50";"RWJW+7J4, Sukaratu, Kec. Banyuresmi, Kabupaten Garut, Jawa Barat 44191";"Sukaratu, Kec. Banyuresmi, Kabupaten Garut";"JAWA BARAT";"44191";"Indonesia";"";"";"";"-7.169361";"107.946567";"https://maps.google.com/?cid=0x0:0x53bf657c52f1343d";""
"perumahan";"Komplek perumahan";"Rumah Ubut";"VX36+6G6, Binakarya, Kec. Banyuresmi, Kabupaten Garut, Jawa Barat 44191";"Binakarya, Kec. Banyuresmi, Kabupaten Garut";"JAWA BARAT";"44191";"Indonesia";"";"";"";"-7.1469563";"107.9612675";"https://maps.google.com/?cid=0x0:0xb7acdbe15228760c";""
"perumahan";"perumahan";"ROSE HOME";"RWHC+G6, Pamekarsari, Kec. Banyuresmi, Kabupaten Garut, Jawa Barat 44191";"Pamekarsari, Kec. Banyuresmi, Kabupaten Garut";"JAWA BARAT";"44191";"Indonesia";"";"";"";"-7.1713414";"107.9202387";"https://maps.google.com/?cid=0x0:0xed819e48d927c02b";""
"perumahan";"Komplek perumahan";"Rumah";"blok g30, Hijra2, Sukamukti, Kec. Banyuresmi, Kabupaten Garut, Jawa Barat";"Kabupaten Garut, Jawa Barat";"JAWA BARAT";"";"Indonesia";"";"";"";"-7.154089";"107.9446127";"https://maps.google.com/?cid=0x0:0x4b7b36fd5b61e336";""
"perumahan";"Komplek perumahan";"Rumah neng dilaaaa";"RWC9+M2H, Serut, Pamekarsari, Kec. Banyuresmi, Kabupaten Garut, Jawa Barat 44191";"Serut, Pamekarsari, Kec. Banyuresmi, Kabupaten Garut";"JAWA BARAT";"44191";"Indonesia";"";"";"";"-7.178095";"107.917429";"https://maps.google.com/?cid=0x0:0x171be8a7217980a";""
"perumahan";"perumahan";"Kp.Bebedahan";"RW9C+RCM, Jl. H. Hasan Arif, Sukasenang, Kec. Banyuresmi, Kabupaten Garut, Jawa Barat 44191";"Jl. H. Hasan Arif, Sukasenang, Kec. Banyuresmi, Kabupaten Garut";"JAWA BARAT";"44191";"Indonesia";"";"";"";"-7.1804254";"107.9210698";"https://maps.google.com/?cid=0x0:0x7fc48717a63f8aa8";""
"perumahan";"Otoritas Perumahan";"Perumahan Subsidi Bina Karya Residence";"Jl. Adiwinata No.1, RT./03/RW./12, Binakarya, Kec. Banyuresmi, Kabupaten Garut, Jawa Barat 44191";"RT./03/RW./12, Binakarya, Kec. Banyuresmi, Kabupaten Garut";"JAWA BARAT";"44191";"Indonesia";"";"";"";"-7.1502494";"107.9596424";"https://maps.google.com/?cid=0x0:0x558bf0fb4d3d9687";""
"perumahan";"Komplek perumahan";"Roemah Putih";"RW9C+QCR, Jl. H. Hasan Arif Jalan Bebedahan, RT.03/RW.15, Sukasenang, Kec. Banyuresmi, Kabupaten Garut, Jawa Barat 44191";"Jl. H. Hasan Arif Jalan Bebedahan, RT.03/RW.15, Sukasenang, Kec. Banyuresmi, Kabupaten Garut";"JAWA BARAT";"44191";"Indonesia";"";"";"";"-7.1805272";"107.9209978";"https://maps.google.com/?cid=0x0:0xa9365e17df5e92c5";""
"perumahan";"perumahan";"Jawa Barat 44191";"Kec. Banyuresmi, Kabupaten Garut, Jawa Barat";"Kabupaten Garut, Jawa Barat";"JAWA BARAT";"";"Indonesia";"";"";"";"-7.1582623";"107.9235563";"https://maps.google.com/?cid=0x0:0x1c00c5eb568ed830";""
"perumahan";"Perumahan";"Perumahan Rabbany Cipicung Regency";"RXF2+QF4, Rabbany Cipicung Regency, Cipicung, Kec. Banyuresmi, Kabupaten Garut, Jawa Barat 44191";"Rabbany Cipicung Regency, Cipicung, Kec. Banyuresmi, Kabupaten Garut";"JAWA BARAT";"44191";"Indonesia";"";"";"";"-7.1753295";"107.9486278";"https://maps.google.com/?cid=0x0:0x115d5349128d1c6c";""
"perumahan";"Komplek perumahan";"Banyuresmi";"VX8F+QHM, Kp sarpendey, RT.01/RW.04, Dangdeur, Kec. Banyuresmi, Kabupaten Garut, Jawa Barat 44191";"Kp sarpendey, RT.01/RW.04, Dangdeur, Kec. Banyuresmi, Kabupaten Garut";"JAWA BARAT";"44191";"Indonesia";"";"";"";"-7.1330343";"107.9739244";"https://maps.google.com/?cid=0x0:0x94ca3b640aba1d5f";""
"perumahan";"Otoritas Perumahan";"Sukamukti Regency";"Sukamukti, Kec. Banyuresmi, Kabupaten Garut, Jawa Barat 44191";"Kec. Banyuresmi, Kabupaten Garut";"JAWA BARAT";"44191";"Indonesia";" 082385969961";"";"";"-7.1542586";"107.9468252";"https://maps.google.com/?cid=0x0:0xc404dc286f49c592";""
"perumahan";"Komplek perumahan";"Kampung Parung Desa Bagendit Kec.Banyuresmi Garut";"RXQ7+4QF, Bagendit, Kec. Banyuresmi, Kabupaten Garut, Jawa Barat 44191";"Bagendit, Kec. Banyuresmi, Kabupaten Garut";"JAWA BARAT";"44191";"Indonesia";"";"";"";"-7.1621851";"107.9644278";"https://maps.google.com/?cid=0x0:0x40d8f9b9091aeea8";""
"perumahan";"Komplek perumahan";"Banyuresmi Indah Permai";"VW2W+HV3, Margahayu, Kec. Banyuresmi, Kabupaten Garut, Jawa Barat 44192";"Margahayu, Kec. Banyuresmi, Kabupaten Garut";"JAWA BARAT";"44192";"Indonesia";"";"";"";"-7.1486181";"107.9471746";"https://maps.google.com/?cid=0x0:0xaadbd85c7dc450f0";""
"perumahan";"Komplek perumahan";"Perumahan Taman Hijau Cipicung blok C no 26";"RWCX+PJ6, Cipicung, Kec. Banyuresmi, Kabupaten Garut, Jawa Barat 44191";"Cipicung, Kec. Banyuresmi, Kabupaten Garut";"JAWA BARAT";"44191";"Indonesia";"";"";"";"-7.1789864";"107.9492063";"https://maps.google.com/?cid=0x0:0x325253f32a6c6812";""
"perumahan";"Pembangunan Perumahan";"Perum";"Kp Jl. Haurseah, Cipicung, Kec. Banyuresmi, Kabupaten Garut, Jawa Barat 44191";"Cipicung, Kec. Banyuresmi, Kabupaten Garut";"JAWA BARAT";"44191";"Indonesia";"";"";"";"-7.1698577";"107.9561464";"https://maps.google.com/?cid=0x0:0xb1fb7c71755bac49";""
"perumahan";"Pembangunan Perumahan";"Perumahan Bayongbong Asri";"Perum Bayongbong Asri. Blok G No 13, Bayongbong, Garut Regency, West Java 44162";"Bayongbong, Garut Regency";"JAWA BARAT";"44162";"Indonesia";"";"";"";"-7.2675333";"107.8286219";"https://maps.google.com/?cid=0x0:0x8274acd2b0500e4c";""
"perumahan";"Perhimpunan Pengembang Perumahan";"Perum Bayongbong Asri.Desa Cinisti Kecamatan Bayongbong Garut";"PRJF+JX4, Bayongbong, Kec. Bayongbong, Kabupaten Garut, Jawa Barat 44162";"Bayongbong, Kec. Bayongbong, Kabupaten Garut";"JAWA BARAT";"44162";"Indonesia";"";"";"";"-7.2684851";"107.824961";"https://maps.google.com/?cid=0x0:0xc843d3dfe0a1fa05";""
"perumahan";"Perumahan rakyat";"PERUM SIMPANG ASRI";"PRM8+3VP, Unnamed Road, Mulyasari, Kec. Bayongbong, Kabupaten Garut, Jawa Barat 44162";"Unnamed Road, Mulyasari, Kec. Bayongbong, Kabupaten Garut";"JAWA BARAT";"44162";"Indonesia";"";"";"";"-7.2672792";"107.8172121";"https://maps.google.com/?cid=0x0:0x8550893c3b5fb384";""
"perumahan";"Perusahaan Manajemen Properti";"CAHAYA INDAH";"Jl. Raya Bayongbong No.698, Sirnagalih, Kec. Bayongbong, Kabupaten Garut, Jawa Barat 44162";"Sirnagalih, Kec. Bayongbong, Kabupaten Garut";"JAWA BARAT";"44162";"Indonesia";"";"";"";"-7.2547392";"107.8704328";"https://maps.google.com/?cid=0x0:0x7d470675f5cf699";""
"perumahan";"Komplek perumahan";"Rumah";"PR9X+PQF, Panembong, Kec. Bayongbong, Kabupaten Garut, Jawa Barat 44162";"Panembong, Kec. Bayongbong, Kabupaten Garut";"JAWA BARAT";"44162";"Indonesia";"";"";"";"-7.280688";"107.8494183";"https://maps.google.com/?cid=0x0:0x78b85b66b96831b0";""
"perumahan";"Komplek perumahan";"Rumah Bu Alit";"PR88+5C2, Ciburuy, Kec. Bayongbong, Kabupaten Garut, Jawa Barat 44162";"Ciburuy, Kec. Bayongbong, Kabupaten Garut";"JAWA BARAT";"44162";"Indonesia";"";"";"";"-7.2846174";"107.8160185";"https://maps.google.com/?cid=0x0:0x513d201ee1f45384";""
"perumahan";"Perhimpunan Pengembang Perumahan";"Rumah yustini";"QV63+2QP, Mekarjaya, Kec. Bayongbong, Kabupaten Garut, Jawa Barat 44162";"Mekarjaya, Kec. Bayongbong, Kabupaten Garut";"JAWA BARAT";"44162";"Indonesia";"";"";"";"-7.2399146";"107.8544595";"https://maps.google.com/?cid=0x0:0x86e5b8f67f5475cb";""
"perumahan";"Komplek perumahan";"Rumah Candra";"PRMP+MH3, Nangerang, Ciela, Kec. Bayongbong, Kabupaten Garut, Jawa Barat 44162";"Nangerang, Ciela, Kec. Bayongbong, Kabupaten Garut";"JAWA BARAT";"44162";"Indonesia";"";"";"";"-7.266565";"107.836153";"https://maps.google.com/?cid=0x0:0xf89df48eb9813c61";""
"perumahan";"Rumah wisata";"Rumah pribadi";"PRJ8+7CH, Mulyasari, Kec. Bayongbong, Kabupaten Garut, Jawa Barat 44162";"Mulyasari, Kec. Bayongbong, Kabupaten Garut";"JAWA BARAT";"44162";"Indonesia";"";"";"";"-7.269595";"107.816105";"https://maps.google.com/?cid=0x0:0x7969acc8166ed396";""
"perumahan";"Komplek perumahan";"SukronRani";"PRMP+6MC, Nangerang, Ciela, Kec. Bayongbong, Kabupaten Garut, Jawa Barat 44162";"Nangerang, Ciela, Kec. Bayongbong, Kabupaten Garut";"JAWA BARAT";"44162";"Indonesia";"";"";"";"-7.2669273";"107.8366524";"https://maps.google.com/?cid=0x0:0xfade57c72f1ba0ec";""
"perumahan";"Komplek perumahan";"Gang sempit";"PRJP+RHF, Ciela, Kec. Bayongbong, Kabupaten Garut, Jawa Barat 44162";"Ciela, Kec. Bayongbong, Kabupaten Garut";"JAWA BARAT";"44162";"Indonesia";"";"";"";"-7.2675935";"107.8364241";"https://maps.google.com/?cid=0x0:0x2fc1538c4609193c";""
"perumahan";"Rumah wisata";"Kost/kontrakan Bayongbong GARUT";"PRQR+RGW, Karyajaya, Kec. Bayongbong, Kabupaten Garut, Jawa Barat 44162";"Karyajaya, Kec. Bayongbong, Kabupaten Garut";"JAWA BARAT";"44162";"Indonesia";" 082214310647";"";"";"-7.260395";"107.8413292";"https://maps.google.com/?cid=0x0:0x6a944d545b8f96c5";""
"perumahan";"Perhimpunan Pengembang Perumahan";"Bumi Hanan :v";"MRXH+3G3, Pamalayan, Kec. Bayongbong, Kabupaten Garut, Jawa Barat 44162";"Pamalayan, Kec. Bayongbong, Kabupaten Garut";"JAWA BARAT";"44162";"Indonesia";"";"";"";"-7.3025572";"107.828758";"https://maps.google.com/?cid=0x0:0x8ad516a31e235fda";""
"perumahan";"Pembangunan Perumahan";"Kontrakan Pak Dedi";"Jl. Raya Bayongbong No.210, Panembong, Kec. Bayongbong, Kabupaten Garut, Jawa Barat 44162";"Panembong, Kec. Bayongbong, Kabupaten Garut";"JAWA BARAT";"44162";"Indonesia";" 083130512526";"";"";"-7.2608047";"107.8523329";"https://maps.google.com/?cid=0x0:0xfb0227219f9c389c";""
"perumahan";"Komplek perumahan";"Gosali";"QV24+VC8, Sukasenang, Kec. Bayongbong, Kabupaten Garut, Jawa Barat 44162";"Sukasenang, Kec. Bayongbong, Kabupaten Garut";"JAWA BARAT";"44162";"Indonesia";"";"";"";"-7.2478446";"107.8560713";"https://maps.google.com/?cid=0x0:0x150f25457e31f157";""
"perumahan";"Komplek perumahan";"Keluarga Bp. Iri Suhanda";"PRM8+VXM, Sukaresmi, Kec. Bayongbong, Kabupaten Garut, Jawa Barat 44162";"Sukaresmi, Kec. Bayongbong, Kabupaten Garut";"JAWA BARAT";"44162";"Indonesia";"";"";"";"-7.2655797";"107.8175688";"https://maps.google.com/?cid=0x0:0xce5de158b5b86fca";""
"perumahan";"";"Rumah Ibu Ros";"PVP5+Q75, Kp.Cimacan, RT.02/RW.04, Hegarmanah, Kec. Bayongbong, Kabupaten Garut, Jawa Barat 44162";"Kp.Cimacan, RT.02/RW.04, Hegarmanah, Kec. Bayongbong, Kabupaten Garut";"JAWA BARAT";"44162";"Indonesia";"";"";"";"-7.2631162";"107.858219";"https://maps.google.com/?cid=0x0:0xb33ed3799594ccdb";""
"perumahan";"Komplek perumahan";"Rumah Calon Orang Sukses";"PR6F+FXV, Ciburuy, Kec. Bayongbong, Kabupaten Garut, Jawa Barat 44162";"Ciburuy, Kec. Bayongbong, Kabupaten Garut";"JAWA BARAT";"44162";"Indonesia";"";"";"";"-7.2887598";"107.8249137";"https://maps.google.com/?cid=0x0:0x16e7c624a53bc59f";""
"perumahan";"Komplek perumahan";"Rumah Pintar Bu Lien";"PVR5+3JG, Salakuray, Kec. Bayongbong, Kabupaten Garut, Jawa Barat 44162";"Salakuray, Kec. Bayongbong, Kabupaten Garut";"JAWA BARAT";"44162";"Indonesia";"";"";"";"-7.259601";"107.859065";"https://maps.google.com/?cid=0x0:0xaf3739bbef597ceb";""
"perumahan";"perumahan";"rumah bintang";"kp panembong 01 No.06, manggungjaya, Kec. Bayongbong, Kabupaten Garut, Jawa Barat 41384";"manggungjaya, Kec. Bayongbong, Kabupaten Garut";"JAWA BARAT";"41384";"Indonesia";"";"";"";"-7.284003";"107.8480203";"https://maps.google.com/?cid=0x0:0x9b1f41c1486479f3";""
"perumahan";"perumahan";"Jawa Barat 44162";"Bayongbong, Kec. Bayongbong, Kabupaten Garut, Jawa Barat";"Kabupaten Garut, Jawa Barat";"JAWA BARAT";"";"Indonesia";"";"";"";"-7.2801838";"107.8465394";"https://maps.google.com/?cid=0x0:0x1c00c5eb568ed6c0";""
"perumahan";"Perhimpunan Pengembang Perumahan";"Komplek Sumber Bahagia";"Kiaralawang Road, Sukasenang, Kec. Bayongbong, Kabupaten Garut, Jawa Barat 44162";"Sukasenang, Kec. Bayongbong, Kabupaten Garut";"JAWA BARAT";"44162";"Indonesia";"";"";"";"-7.2500517";"107.8428683";"https://maps.google.com/?cid=0x0:0x767d75ebc65e86f2";""
"perumahan";"Perhimpunan Pengembang Perumahan";"Komplek Perumahan Bapak Komar";"GJH5+5VX, Unnamed Road, Bungbulang, Kec. Bungbulang, Kabupaten Garut, Jawa Barat 44165";"Unnamed Road, Bungbulang, Kec. Bungbulang, Kabupaten Garut";"JAWA BARAT";"44165";"Indonesia";"";"";"";"-7.4720179";"107.6097472";"https://maps.google.com/?cid=0x0:0x92e9629192b1825b";""
"perumahan";"Juru Ukur Tanah";"Komplek Ciloa Village";"Kp.Ciloa Jl.Keraton Dalem, Margalaksana, Kec. Bungbulang, Kabupaten Garut, Jawa Barat 44165";"Margalaksana, Kec. Bungbulang, Kabupaten Garut";"JAWA BARAT";"44165";"Indonesia";"";"";"";"-7.481647";"107.5995729";"https://maps.google.com/?cid=0x0:0xe94607799692b5e2";""
"perumahan";"Perhimpunan Pengembang Perumahan";"Bumi Sukapura Indah";"HH2Q+3JC, kp sukapura desa/kecamatan bungbulang, Bungbulang, Kec. Bungbulang, Kabupaten Garut, Jawa Barat 44165";"kp sukapura desa/kecamatan bungbulang, Bungbulang, Kec. Bungbulang, Kabupaten Garut";"JAWA BARAT";"44165";"Indonesia";"";"";"";"-7.4498071";"107.5890242";"https://maps.google.com/?cid=0x0:0x73917e3c67aea0ff";""
"perumahan";"Komplek perumahan";"Opick";"HH4M+XC8, Unnamed Road, Mekarjaya, Kec. Bungbulang, Kabupaten Garut, Jawa Barat 44165";"Unnamed Road, Mekarjaya, Kec. Bungbulang, Kabupaten Garut";"JAWA BARAT";"44165";"Indonesia";"";"";"";"-7.4425843";"107.583583";"https://maps.google.com/?cid=0x0:0xfc3500a2e8ac0f2b";""
"perumahan";"Bantuan Rumah";"Rumah Bpk Kana Ma Engkan";"GJV2+J2Q, Kp sabilisalam, Bungbulang, Kec. Bungbulang, Kabupaten Garut, Jawa Barat 44165";"Kp sabilisalam, Bungbulang, Kec. Bungbulang, Kabupaten Garut";"JAWA BARAT";"44165";"Indonesia";"";"";"";"-7.4559104";"107.6001131";"https://maps.google.com/?cid=0x0:0x65fd8c81c672810b";""
"perumahan";"Komplek perumahan";"Rumah bi ijah";"GJ87+8W7, Gunamekar, Kec. Bungbulang, Kabupaten Garut, Jawa Barat 44165";"Gunamekar, Kec. Bungbulang, Kabupaten Garut";"JAWA BARAT";"44165";"Indonesia";"";"";"";"-7.4841901";"107.6148014";"https://maps.google.com/?cid=0x0:0x768f5cf5031837fe";""
"perumahan";"perumahan";"Bumi Eza";"GHVX+MFG, Bungbulang, Kec. Bungbulang, Kabupaten Garut, Jawa Barat 44165";"Bungbulang, Kec. Bungbulang, Kabupaten Garut";"JAWA BARAT";"44165";"Indonesia";"";"";"";"-7.4558152";"107.5987139";"https://maps.google.com/?cid=0x0:0x3a3fab82e4d52937";""
"perumahan";"Pembangunan Perumahan";"Ciputat";"GJX6+XR5, Bojong, Kec. Bungbulang, Kabupaten Garut, Jawa Barat 44165";"Bojong, Kec. Bungbulang, Kabupaten Garut";"JAWA BARAT";"44165";"Indonesia";"";"";"";"-7.4501001";"107.6120967";"https://maps.google.com/?cid=0x0:0x9c420b59f16e8c1e";""
"perumahan";"Komplek perumahan";"Kp. Cibulakan";"GHHR+49V, Hanjuang, Kec. Bungbulang, Kabupaten Garut, Jawa Barat 44165";"Hanjuang, Kec. Bungbulang, Kabupaten Garut";"JAWA BARAT";"44165";"Indonesia";"";"";"";"-7.4721429";"107.5909275";"https://maps.google.com/?cid=0x0:0x74f2392470e07fb5";""
"perumahan";"Kompleks Kondominium";"Caringin";"GHVX+MFP, Bungbulang, Kec. Bungbulang, Kabupaten Garut, Jawa Barat";"Kabupaten Garut, Jawa Barat";"JAWA BARAT";"";"Indonesia";"";"";"";"-7.4557992";"107.5987096";"https://maps.google.com/?cid=0x0:0x65417a09dfebd72a";""
"perumahan";"Pembangunan Perumahan";"Rumah Dadi kurir";"GJX2+CC9, Kp.kiray, RT.05/rw06, Cihikeu, Kec. Bungbulang, Kabupaten Garut, Jawa Barat 44165";"Kp.kiray, RT.05/rw06, Cihikeu, Kec. Bungbulang, Kabupaten Garut";"JAWA BARAT";"44165";"Indonesia";"";"";"";"-7.4514653";"107.6011031";"https://maps.google.com/?cid=0x0:0x39aebeed39f3c750";""
"perumahan";"Komplek perumahan";"Rumah Bahrudin Soleh";"HH4M+C5J, Mekarjaya, Kec. Bungbulang, Kabupaten Garut, Jawa Barat 44165";"Mekarjaya, Kec. Bungbulang, Kabupaten Garut";"JAWA BARAT";"44165";"Indonesia";"";"";"";"-7.443505";"107.581733";"https://maps.google.com/?cid=0x0:0x1681c73bc5962b9c";""
"perumahan";"perumahan";"Rumah sitti";"GJF2+4P, Hanjuang, Kec. Bungbulang, Kabupaten Garut, Jawa Barat";"Kabupaten Garut, Jawa Barat";"JAWA BARAT";"";"Indonesia";"";"";"";"-7.4775146";"107.6025197";"https://maps.google.com/?cid=0x0:0x45cd6e9399b51545";""
"perumahan";"Kantor Perusahaan";"Rumah Azhar Liunggunung";"GHQV+4GF, Hanjuang, Kec. Bungbulang, Kabupaten Garut, Jawa Barat 44165";"Hanjuang, Kec. Bungbulang, Kabupaten Garut";"JAWA BARAT";"44165";"Indonesia";"";"";"";"-7.4622617";"107.5938052";"https://maps.google.com/?cid=0x0:0xb77d251b5d01e6ae";""
"perumahan";"perumahan";"Bumi Eza";"HJ4G+54P, Bojong, Kec. Bungbulang, Kabupaten Garut, Jawa Barat 44165";"Bojong, Kec. Bungbulang, Kabupaten Garut";"JAWA BARAT";"44165";"Indonesia";"";"";"";"-7.4445467";"107.6253297";"https://maps.google.com/?cid=0x0:0x1568d2e057374ba9";""
"perumahan";"perumahan";"LIUNG GUNUNG";"GHVX+MFG, Bungbulang, Kec. Bungbulang, Kabupaten Garut, Jawa Barat 44165";"Bungbulang, Kec. Bungbulang, Kabupaten Garut";"JAWA BARAT";"44165";"Indonesia";"";"";"";"-7.4558152";"107.5987139";"https://maps.google.com/?cid=0x0:0xe00a33fb4878354c";""
"perumahan";"Komplek perumahan";"Rumah firman";"HJFJ+FQ, Bojong, Kec. Bungbulang, Kabupaten Garut, Jawa Barat";"Kabupaten Garut, Jawa Barat";"JAWA BARAT";"";"Indonesia";"";"";"";"-7.426302";"107.631946";"https://maps.google.com/?cid=0x0:0x16bac3687388f0b3";""
"perumahan";"Komplek perumahan";"Kp Sawah Petir";"GHGR+2GC, Hanjuang, Kec. Bungbulang, Kabupaten Garut, Jawa Barat 44165";"Hanjuang, Kec. Bungbulang, Kabupaten Garut";"JAWA BARAT";"44165";"Indonesia";"";"";"";"-7.4744137";"107.5916266";"https://maps.google.com/?cid=0x0:0x80eb9e1908c94896";""
"perumahan";"Kantor Pemerintahan Wilayah";"Desa bojong";"HJ6G+7X8, Bojong, Kec. Bungbulang, Kabupaten Garut, Jawa Barat 44165";"Bojong, Kec. Bungbulang, Kabupaten Garut";"JAWA BARAT";"44165";"Indonesia";"";"";"";"-7.4393389";"107.627451";"https://maps.google.com/?cid=0x0:0x8d226cf01ddf635c";""
"perumahan";"perumahan";"Kec. Bungbulang";"Kabupaten Garut, Jawa Barat";"Kabupaten Garut, Jawa Barat";"JAWA BARAT";"";"Indonesia";"";"";"";"-7.4558615";"107.5987287";"https://maps.google.com/?cid=0x0:0x401e8f1fc28c7c0";""
"perumahan";"Perhimpunan Pengembang Perumahan";"Rumah Abah";"HH3W+P8F, Nagrak, Cihikeu, Kec. Bungbulang, Kabupaten Garut, Jawa Barat 44165";"Nagrak, Cihikeu, Kec. Bungbulang, Kabupaten Garut";"JAWA BARAT";"44165";"Indonesia";"";"";"";"-7.4456921";"107.5957971";"https://maps.google.com/?cid=0x0:0x7b69b43e46c1ddde";""
"perumahan";"perumahan";"Cibeureum";"HH77+83W, Wangunjaya, Kec. Bungbulang, Kabupaten Garut, Jawa Barat 44165";"Wangunjaya, Kec. Bungbulang, Kabupaten Garut";"JAWA BARAT";"44165";"Indonesia";"";"";"";"-7.4366416";"107.5626541";"https://maps.google.com/?cid=0x0:0x8f25697d8c19c16";""
"perumahan";"perumahan";"Rumah yuda";"GHRM+V2V, Mekarjaya, Kec. Bungbulang, Kabupaten Garut, Jawa Barat 44165";"Mekarjaya, Kec. Bungbulang, Kabupaten Garut";"JAWA BARAT";"44165";"Indonesia";"";"";"";"-7.4577595";"107.5825533";"https://maps.google.com/?cid=0x0:0xe9a6aa478127bdce";""
"perumahan";"perumahan";"rumah pribadi";"GHMV+549, Hanjuang, Kec. Bungbulang, Kabupaten Garut, Jawa Barat 44165";"Hanjuang, Kec. Bungbulang, Kabupaten Garut";"JAWA BARAT";"44165";"Indonesia";"";"";"";"-7.4670886";"107.5928651";"https://maps.google.com/?cid=0x0:0x3ebc0916a535f52c";""
"perumahan";"Perhimpunan Pengembang Perumahan";"Rumah Yola";"GHQG+HHH, Mekarjaya, Kec. Bungbulang, Kabupaten Garut, Jawa Barat 44165";"Mekarjaya, Kec. Bungbulang, Kabupaten Garut";"JAWA BARAT";"44165";"Indonesia";"";"";"";"-7.4610519";"107.5764724";"https://maps.google.com/?cid=0x0:0xfd050695f08bd022";""
"perumahan";"Perumahan";"Vermak serbaserbi kang ubay";"GJW4+557, Cihikeu, Kec. Bungbulang, Kabupaten Garut, Jawa Barat 44165";"Cihikeu, Kec. Bungbulang, Kabupaten Garut";"JAWA BARAT";"44165";"Indonesia";"";"";"";"-7.4545983";"107.6051623";"https://maps.google.com/?cid=0x0:0x4cd5089e36e4d6a6";""
"perumahan";"Pembangunan Perumahan";"Kampung";"HJ6G+7X8, Bojong, Kec. Bungbulang, Kabupaten Garut, Jawa Barat 44165";"Bojong, Kec. Bungbulang, Kabupaten Garut";"JAWA BARAT";"44165";"Indonesia";"";"";"";"-7.439339";"107.627451";"https://maps.google.com/?cid=0x0:0xe32d378de09e76b4";""
"perumahan";"Pusat Kegiatan Warga";"KAMPUNG GADOG";"GHV6+WPF, Mekarjaya, Kec. Bungbulang, Kabupaten Garut, Jawa Barat 44165";"Mekarjaya, Kec. Bungbulang, Kabupaten Garut";"JAWA BARAT";"44165";"Indonesia";"";"";"";"-7.4551766";"107.5618025";"https://maps.google.com/?cid=0x0:0xc691e44b391e2ceb";""
"perumahan";"Perhimpunan Pengembang Perumahan";"Rorompok Ranto Sukmana";"HJ7F+4MH, Bojong, Kec. Bungbulang, Kabupaten Garut, Jawa Barat 44165";"Bojong, Kec. Bungbulang, Kabupaten Garut";"JAWA BARAT";"44165";"Indonesia";"";"";"";"-7.4371879";"107.6242295";"https://maps.google.com/?cid=0x0:0x7f8779d9b6336fe8";""
"perumahan";"Penginapan";"Perumahan Caringin Riverside";"Jl. Kolonel Bustomi No.38, RT.01/RW02/RW.02, Caringin, Kec. Caringin, Kabupaten Bogor, Jawa Barat 16730";"RT.01/RW02/RW.02, Caringin, Kec. Caringin, Kabupaten Bogor";"JAWA BARAT";"16730";"Indonesia";"";"";"";"-6.7046367";"106.8196424";"https://maps.google.com/?cid=0x0:0xb25f28b95c7199e8";""
"perumahan";"Komplek perumahan";"Perumahan Berkah Caringin Garden";"7RMH+WJ2, Caringin, Kec. Caringin, Kabupaten Bogor, Jawa Barat 16730";"Caringin, Kec. Caringin, Kabupaten Bogor";"JAWA BARAT";"16730";"Indonesia";"";"";"";"-6.7152425";"106.8290112";"https://maps.google.com/?cid=0x0:0xa7141a367b70dd61";""
"perumahan";"Perhimpunan Pengembang Perumahan";"Perumahan caringin town house";"7RRF+PW4, Caringin, Kec. Caringin, Kabupaten Bogor, Jawa Barat 16730";"Caringin, Kec. Caringin, Kabupaten Bogor";"JAWA BARAT";"16730";"Indonesia";"";"";"";"-6.708227";"106.8248373";"https://maps.google.com/?cid=0x0:0x3c986ad3408a648a";""
"perumahan";"Komplek perumahan";"Rumah YantiA";"Jalan Alternatif Tengsaw, RT.02/RW.06, Ciderum, Kec. Caringin, Kabupaten Bogor, Jawa Barat 16730";"RT.02/RW.06, Ciderum, Kec. Caringin, Kabupaten Bogor";"JAWA BARAT";"16730";"Indonesia";"";"";"";"-6.6970844";"106.8580634";"https://maps.google.com/?cid=0x0:0x79ac55f2fe0e62f9";""
"perumahan";"Komplek perumahan";"Tiny House Pancawati";"Jl.Caringin-Cilengsi Kav1-6 Kp. Cipare, Pancawati,Caringin, Ciawi, Bogor Regency, West Java 16730";"Pancawati,Caringin, Ciawi, Bogor Regency";"JAWA BARAT";"16730";"Indonesia";"";"";"";"-6.7261304";"106.8761497";"https://maps.google.com/?cid=0x0:0xdfb6652f5c288753";""
"perumahan";"perumahan";"RUMAH JAEHYUK TREASURE🦁💎";"7RHG+MG5, Gg. Telkom, Pasir Muncang, Kec. Caringin, Kabupaten Bogor, Jawa Barat 16730";"Gg. Telkom, Pasir Muncang, Kec. Caringin, Kabupaten Bogor";"JAWA BARAT";"16730";"Indonesia";"";"";"";"-6.7206987";"106.826994";"https://maps.google.com/?cid=0x0:0x1418ae304b0b8008";""
"perumahan";"Perhimpunan Pengembang Perumahan";"GRIYA LESTARI CARINGIN";"Perumahan Jl. Griya Lestari No.4 Blok F, Ciderum, Kec. Caringin, Kabupaten Bogor, Jawa Barat 16730";"Ciderum, Kec. Caringin, Kabupaten Bogor";"JAWA BARAT";"16730";"Indonesia";" 081288007049";"";"";"-6.6987693";"106.8398751";"https://maps.google.com/?cid=0x0:0x9d9a4b64ecf7288";""
"perumahan";"Pembangunan Perumahan";"Pasir Muncang Residence";"7RGP+M9W, Pasir Muncang, Kec. Caringin, Kabupaten Bogor, Jawa Barat 16730";"Pasir Muncang, Kec. Caringin, Kabupaten Bogor";"JAWA BARAT";"16730";"Indonesia";"";"";"";"-6.7232602";"106.8359427";"https://maps.google.com/?cid=0x0:0x32524a6986cfd08b";""
"perumahan";"Komplek perumahan";"Rumah Ceppyshajja";"7VG4+5VP, Jl. Kp. Cimande, Lemah Duhur, Kec. Caringin, Kabupaten Bogor, Jawa Barat 16730";"Jl. Kp. Cimande, Lemah Duhur, Kec. Caringin, Kabupaten Bogor";"JAWA BARAT";"16730";"Indonesia";"";"";"";"-6.7245442";"106.8572084";"https://maps.google.com/?cid=0x0:0xa3bd826b8c3ef1a";""
"perumahan";"perumahan";"Homestay Salam";"7RFV+FVP, Pasir Muncang, Kec. Caringin, Kabupaten Bogor, Jawa Barat 16730";"Pasir Muncang, Kec. Caringin, Kabupaten Bogor";"JAWA BARAT";"16730";"Indonesia";" 085814963582";"";"";"-6.7264177";"106.8445787";"https://maps.google.com/?cid=0x0:0x6c4b34ef5896fd2d";""
"perumahan";"Penginapan";"Griya Caringin Permai";"Caringin, Kec. Caringin, Kabupaten Bogor, Jawa Barat 16730";"Kec. Caringin, Kabupaten Bogor";"JAWA BARAT";"16730";"Indonesia";" 085624814134";"";"";"-6.7092235";"106.822867";"https://maps.google.com/?cid=0x0:0x4ed2f3746c1c782c";""
"perumahan";"Komplek perumahan";"Rumah Riris";"7R2V+CXR, Pasir Buncir, Kec. Caringin, Kabupaten Bogor, Jawa Barat 16730";"Pasir Buncir, Kec. Caringin, Kabupaten Bogor";"JAWA BARAT";"16730";"Indonesia";"";"";"";"-6.7488939";"106.8448764";"https://maps.google.com/?cid=0x0:0xb0327351090e41b2";""
"perumahan";"perumahan";"Sidik Village House";"7V35+569, Cinagara, Kec. Caringin, Kabupaten Bogor, Jawa Barat 16730";"Cinagara, Kec. Caringin, Kabupaten Bogor";"JAWA BARAT";"16730";"Indonesia";"";"";"";"-6.7471712";"106.8590948";"https://maps.google.com/?cid=0x0:0x2840f956bd7a149f";""
"perumahan";"Pembangunan Perumahan";"Rumah kekey";"7VV3+GW5, Jl. Caringin-Cilengsi, Pancawati, Kec. Caringin, Kabupaten Bogor, Jawa Barat 16730";"Jl. Caringin-Cilengsi, Pancawati, Kec. Caringin, Kabupaten Bogor";"JAWA BARAT";"16730";"Indonesia";"";"";"";"-6.7061182";"106.8550588";"https://maps.google.com/?cid=0x0:0x3a9c829b3db79c65";""
"perumahan";"Komplek perumahan";"Bukit Cikereteg Indah";"Jl. Ps. Cikereteg, Ciderum, Kec. Caringin, Kabupaten Bogor, Jawa Barat 16730";"Ciderum, Kec. Caringin, Kabupaten Bogor";"JAWA BARAT";"16730";"Indonesia";" 02518292009";"";"";"-6.6952432";"106.850036";"https://maps.google.com/?cid=0x0:0xacf5b91fc156826d";""
"perumahan";"Komplek perumahan";"Rumah Rickyharyadi";"Jl. Tapos Lbc No.184, Ciderum, Kec. Caringin, Kabupaten Bogor, Jawa Barat 16730";"Ciderum, Kec. Caringin, Kabupaten Bogor";"JAWA BARAT";"16730";"Indonesia";"";"";"";"-6.698951";"106.856332";"https://maps.google.com/?cid=0x0:0x1bd507b4940300af";""
"perumahan";"Komplek perumahan";"tuti home";"7VQ8+JP6, Pancawati, Kec. Caringin, Kabupaten Bogor, Jawa Barat 16730";"Pancawati, Kec. Caringin, Kabupaten Bogor";"JAWA BARAT";"16730";"Indonesia";"";"";"";"-6.7109591";"106.8667777";"https://maps.google.com/?cid=0x0:0x262e67a346155b07";""
"perumahan";"Kompleks Apartemen";"Rumah Dika  Dinah";"Bukit Cikereteg Indah Blok A1 No 12, Ciderum, Kec. Caringin, Kabupaten Bogor, Jawa Barat 16730";"Ciderum, Kec. Caringin, Kabupaten Bogor";"JAWA BARAT";"16730";"Indonesia";"";"";"";"-6.6949629";"106.8491896";"https://maps.google.com/?cid=0x0:0xd9c22174d3e81fa9";""
"perumahan";"perumahan";"Jawa Barat 16730";"Kec. Caringin, Kabupaten Bogor, Jawa Barat";"Kabupaten Bogor, Jawa Barat";"JAWA BARAT";"";"Indonesia";"";"";"";"-6.7387737";"106.8768415";"https://maps.google.com/?cid=0x0:0x1c00c5eb51c82820";""
"perumahan";"perumahan";"Lokasi yg di tuju";"7RGW+G6C, Lemah Duhur, Kec. Caringin, Kabupaten Bogor, Jawa Barat 16730";"Lemah Duhur, Kec. Caringin, Kabupaten Bogor";"JAWA BARAT";"16730";"Indonesia";"";"";"";"-6.7237299";"106.8455514";"https://maps.google.com/?cid=0x0:0x120826408ad98c94";""
"perumahan";"Komplek perumahan";"rumah adrian";"7RRF+PX2, Caringin, Kec. Caringin, Kabupaten Bogor, Jawa Barat 16730";"Caringin, Kec. Caringin, Kabupaten Bogor";"JAWA BARAT";"16730";"Indonesia";"";"";"";"-6.7082601";"106.8250063";"https://maps.google.com/?cid=0x0:0x216b1fefeb11797c";""
"perumahan";"Komplek perumahan";"Rumah";"7R8C+2WP, Jl. Desa Pasir Buncir, Cinagara, Kec. Caringin, Kabupaten Bogor, Jawa Barat 16730";"Jl. Desa Pasir Buncir, Cinagara, Kec. Caringin, Kabupaten Bogor";"JAWA BARAT";"16730";"Indonesia";"";"";"";"-6.7348967";"106.8223725";"https://maps.google.com/?cid=0x0:0x632b1e75d24d88df";""
"perumahan";"Otoritas Perumahan";"Pesona Caringin Residence";"7RRC+V5V, Gg. Bunder, Caringin, Kec. Caringin, Kabupaten Bogor, Jawa Barat 16730";"Gg. Bunder, Caringin, Kec. Caringin, Kabupaten Bogor";"JAWA BARAT";"16730";"Indonesia";"";"";"";"-6.7077594";"106.8204248";"https://maps.google.com/?cid=0x0:0x72b5d6db4831d455";""
"perumahan";"Komplek perumahan";"Kontrakan Pondok Berkah Cikereteg";"Cikereteg, Gg.Pondok Berkah, Kp. Cibolang, Ds, Ciderum, Kec. Caringin, Kabupaten Bogor, Jawa Barat 16730";"Gg.Pondok Berkah, Kp. Cibolang, Ds, Ciderum, Kec. Caringin, Kabupaten Bogor";"JAWA BARAT";"16730";"Indonesia";" 081292312065";"";"";"-6.691672";"106.8514159";"https://maps.google.com/?cid=0x0:0xf65ff5f405009b18";""
"perumahan";"perumahan";"Rumah";"7RRF+J5Q, Caringin, Kec. Caringin, Kabupaten Bogor, Jawa Barat 16730";"Caringin, Kec. Caringin, Kabupaten Bogor";"JAWA BARAT";"16730";"Indonesia";"";"";"";"-6.7084105";"106.8229779";"https://maps.google.com/?cid=0x0:0x1aad40973a9b2a41";""
"perumahan";"Perumahan";"Villa Ciherang Indah";"Jl. Mayjen H.R. Edi Sukma Desa No.KM 15, Ciherang Pd., Kec. Caringin, Kabupaten Bogor, Jawa Barat 16730";"Ciherang Pd., Kec. Caringin, Kabupaten Bogor";"JAWA BARAT";"16730";"Indonesia";" 087764976624";"";"";"-6.6895761";"106.8321554";"https://maps.google.com/?cid=0x0:0x26575561b68fc7b4";""
"perumahan";"Komplek perumahan";"Rumah Priyan";"Jl. Raya Sukaraja - Sukabumi No.24, Cinagara, Kec. Caringin, Kabupaten Bogor, Jawa Barat 16730";"Cinagara, Kec. Caringin, Kabupaten Bogor";"JAWA BARAT";"16730";"Indonesia";"";"";"";"-6.7327288";"106.822019";"https://maps.google.com/?cid=0x0:0x78cd36bd51e04678";""
"perumahan";"Komplek perumahan";"Rumah Ngopi mang Uki";"Jl. Tapos Lbc No.8, Pancawati, Kec. Caringin, Kabupaten Bogor, Jawa Barat 16730";"Pancawati, Kec. Caringin, Kabupaten Bogor";"JAWA BARAT";"16730";"Indonesia";" 085893547264";"";"";"-6.7155453";"106.8759206";"https://maps.google.com/?cid=0x0:0x154cd966c6a88ae4";""
"perumahan";"Komplek perumahan";"rumah PaK RT(yamin)";"7V35+569, Cinagara, Kec. Caringin, Kabupaten Bogor, Jawa Barat 16730";"Cinagara, Kec. Caringin, Kabupaten Bogor";"JAWA BARAT";"16730";"Indonesia";"";"";"";"-6.7469485";"106.8589684";"https://maps.google.com/?cid=0x0:0xd5c14c10f556b970";""
"perumahan";"Komplek perumahan";"H.4";"Perumahan bumi indah caringin blok H.4, Caringin Kulon, Kec. Caringin, kabupatrn sukabumi, Jawa Barat 43154";"Caringin Kulon, Kec. Caringin, kabupatrn sukabumi";"JAWA BARAT";"43154";"Indonesia";"";"";"";"-6.8781983";"106.8681121";"https://maps.google.com/?cid=0x0:0xea60113da81734c1";""
"perumahan";"perumahan";"Blok B Bumi Indah Caringin Sukabumi";"4VC9+W5R, Caringin Kulon, Kec. Caringin, Kabupaten Sukabumi, Jawa Barat 43154";"Caringin Kulon, Kec. Caringin, Kabupaten Sukabumi";"JAWA BARAT";"43154";"Indonesia";"";"";"";"-6.8776409";"106.8678917";"https://maps.google.com/?cid=0x0:0x3887f87379b5598d";""
"perumahan";"Komplek perumahan";"Perumahan Mekar Jaya Asri";"Jl. Selaawi Kp. Lb. Pari, Mekarjaya, Kec. Caringin, Kabupaten Sukabumi, Jawa Barat 43154";"Mekarjaya, Kec. Caringin, Kabupaten Sukabumi";"JAWA BARAT";"43154";"Indonesia";" 085721880988";"";"";"-6.8827208";"106.8541104";"https://maps.google.com/?cid=0x0:0x5beeef4800b0b2e9";""
"perumahan";"perumahan";"Blok C Bumi Indah Caringin Sukabumi";"4VC9+X77, Caringin Kulon, Kec. Caringin, Kabupaten Sukabumi, Jawa Barat 43154";"Caringin Kulon, Kec. Caringin, Kabupaten Sukabumi";"JAWA BARAT";"43154";"Indonesia";"";"";"";"-6.8775936";"106.8681684";"https://maps.google.com/?cid=0x0:0x8ad226df5a217ad5";""
"perumahan";"perumahan";"Blok I Bumi Indah Caringin Sukabumi";"4VC9+V73, Jl. Raya Cikukulu, Caringin Kulon, Kec. Caringin, Kabupaten Sukabumi, Jawa Barat 43154";"Jl. Raya Cikukulu, Caringin Kulon, Kec. Caringin, Kabupaten Sukabumi";"JAWA BARAT";"43154";"Indonesia";"";"";"";"-6.8789003";"106.8668214";"https://maps.google.com/?cid=0x0:0x6676a61791156f1a";""
"perumahan";"Pembangunan Perumahan";"Cikembang";"5V2F+4H2, Cikembang, Kec. Caringin, Kabupaten Sukabumi, Jawa Barat 43154";"Cikembang, Kec. Caringin, Kabupaten Sukabumi";"JAWA BARAT";"43154";"Indonesia";"";"";"";"-6.8497345";"106.8738909";"https://maps.google.com/?cid=0x0:0xe5020a78cb608bb1";""
"perumahan";"Komplek perumahan";"Perumahan Talaga Ubud";"4V37+XWR, Jl. Raya Cikukulu, Talaga, Kec. Caringin, Kabupaten Sukabumi, Jawa Barat 43154";"Jl. Raya Cikukulu, Talaga, Kec. Caringin, Kabupaten Sukabumi";"JAWA BARAT";"43154";"Indonesia";" 081386256699";"";"";"-6.8951563";"106.8646904";"https://maps.google.com/?cid=0x0:0x38e8d3c1a218f78b";""
"perumahan";"Perhimpunan Pengembang Perumahan";"Yulianty Caringin";"4RCW+935, Jalan Caringin Kulon, Seuseupan, Caringin, Sukabumi Regency, West Java 43154";"Jalan Caringin Kulon, Seuseupan, Caringin, Sukabumi Regency";"JAWA BARAT";"43154";"Indonesia";" 085283869434";"";"";"-6.8791012";"106.8452368";"https://maps.google.com/?cid=0x0:0x9ab9b3cc60dd511e";""
"perumahan";"Komplek perumahan";"Berkah";"4VWM+J92, Jl. Caringin - Pasir Datar, Pasir Datar Indah, Kec. Caringin, Kabupaten Sukabumi, Jawa Barat 43154";"Jl. Caringin - Pasir Datar, Pasir Datar Indah, Kec. Caringin, Kabupaten Sukabumi";"JAWA BARAT";"43154";"Indonesia";" 081319143826";"";"";"-6.8559375";"106.8819844";"https://maps.google.com/?cid=0x0:0xc8a3c4a6eccfb1e4";""
"perumahan";"Pembangunan Perumahan";"Ti_Day";"4VPG+5W3, Jl. Kp. Sungapan, Sukamulya, Kec. Caringin, Kabupaten Sukabumi, Jawa Barat 43154";"Jl. Kp. Sungapan, Sukamulya, Kec. Caringin, Kabupaten Sukabumi";"JAWA BARAT";"43154";"Indonesia";"";"";"";"-6.8646138";"106.8772873";"https://maps.google.com/?cid=0x0:0x96fb145c01346de3";""
"perumahan";"Pembangunan Perumahan";"Nice and comfortable house Ti-Tan #75";"4V65+67C, Jl. Pasir Angin, Mekarjaya, Kec. Caringin, Kabupaten Sukabumi, Jawa Barat 43154";"Jl. Pasir Angin, Mekarjaya, Kec. Caringin, Kabupaten Sukabumi";"JAWA BARAT";"43154";"Indonesia";" 085959554325";"";"";"-6.8894376";"106.8581529";"https://maps.google.com/?cid=0x0:0xdc5f63275c04381d";""
"perumahan";"perumahan";"Rumah Sisca Fuziawati";"4V56+H8H, Jl. Pasir Angin, RT.15/RW.04, Mekarjaya, Kec. Caringin, Kabupaten Sukabumi, Jawa Barat 43154";"Jl. Pasir Angin, RT.15/RW.04, Mekarjaya, Kec. Caringin, Kabupaten Sukabumi";"JAWA BARAT";"43154";"Indonesia";"";"";"";"-6.8910578";"106.860875";"https://maps.google.com/?cid=0x0:0xddd21c657349f638";""
"perumahan";"Perhimpunan Pengembang Perumahan";"Kp lebakbpari";"4V86+P94, Jl. Selaawi Kp. Lb. Pari, Caringin Kulon, Kec. Caringin, Kabupaten Sukabumi, Jawa Barat 43154";"Jl. Selaawi Kp. Lb. Pari, Caringin Kulon, Kec. Caringin, Kabupaten Sukabumi";"JAWA BARAT";"43154";"Indonesia";"";"";"";"-6.8832345";"106.8609433";"https://maps.google.com/?cid=0x0:0x72a740c411645499";""
"perumahan";"Komplek perumahan";"Perum Griya Permata Talaga";"Perum Griya Permata Talaga, Jl. Raya Cikukulu No.3 Blok G, RT.06/RW.01, Talaga, Kec. Caringin, Kabupaten Sukabumi, Jawa Barat 43154";"Jl. Raya Cikukulu No.3 Blok G, RT.06/RW.01, Talaga, Kec. Caringin, Kabupaten Sukabumi";"JAWA BARAT";"43154";"Indonesia";"";"";"";"-6.8867819";"106.8653028";"https://maps.google.com/?cid=0x0:0xcf5466f6131678f";""
"perumahan";"Perhimpunan Pengembang Perumahan";"Rumah Ibu Euis Wahyuni";"4VPF+FPR, Jl. Cicurug Dua, Cikembang, Kec. Caringin, Kabupaten Sukabumi, Jawa Barat 43154";"Jl. Cicurug Dua, Cikembang, Kec. Caringin, Kabupaten Sukabumi";"JAWA BARAT";"43154";"Indonesia";"";"";"";"-6.8635389";"106.8738829";"https://maps.google.com/?cid=0x0:0x6056060389644f32";""
"perumahan";"Perhimpunan Pengembang Perumahan";"Rumah";"5V3M+759, Kp. Ciheulang girang RT 08 Rw 03 Desa Sukamulya, Pasir Datar Indah, Kec. Caringin, Kabupaten Sukabumi, Jawa Barat 43154";"Kp. Ciheulang girang RT 08 Rw 03 Desa Sukamulya, Pasir Datar Indah, Kec. Caringin, Kabupaten Sukabumi";"JAWA BARAT";"43154";"Indonesia";"";"";"";"-6.8480503";"106.8840992";"https://maps.google.com/?cid=0x0:0x1d7679422ad070e0";""
"perumahan";"Inspektur Tempat Tinggal";"rumah nana";"Jl. Cipuntang, Caringin Wetan, Kec. Caringin, Kabupaten Sukabumi, Jawa Barat 43154";"Caringin Wetan, Kec. Caringin, Kabupaten Sukabumi";"JAWA BARAT";"43154";"Indonesia";" 085872782876";"";"";"-6.8774767";"106.8693206";"https://maps.google.com/?cid=0x0:0x607674ca54387682";""
"perumahan";"Pembangunan Perumahan";"Rumah Suwarna";"4VHC+2PP, Caringin Wetan, Kec. Caringin, Kabupaten Sukabumi, Jawa Barat 43154";"Caringin Wetan, Kec. Caringin, Kabupaten Sukabumi";"JAWA BARAT";"43154";"Indonesia";"";"";"";"-6.8724065";"106.8718248";"https://maps.google.com/?cid=0x0:0xde45899475ced9c";""
"perumahan";"perumahan";"KKG FARM";"4VM4+5P7, Jl. Ciseupan Hilir, Seuseupan, Kec. Caringin, Kabupaten Sukabumi, Jawa Barat 43154";"Jl. Ciseupan Hilir, Seuseupan, Kec. Caringin, Kabupaten Sukabumi";"JAWA BARAT";"43154";"Indonesia";"";"";"";"-6.867091";"106.8567895";"https://maps.google.com/?cid=0x0:0x95adf7f988fcdae6";""
"perumahan";"perumahan";"Jawa Barat 43154";"Kec. Caringin, Kabupaten Sukabumi, Jawa Barat";"Kabupaten Sukabumi, Jawa Barat";"JAWA BARAT";"";"Indonesia";"";"";"";"-6.8468363";"106.8827427";"https://maps.google.com/?cid=0x0:0xf65dda5ea2c3aea3";""
"perumahan";"Komplek perumahan";"Rumah";"4V56+P9F, Jl. Pasir Angin, Mekarjaya, Kec. Caringin, Kabupaten Sukabumi, Jawa Barat 43154";"Jl. Pasir Angin, Mekarjaya, Kec. Caringin, Kabupaten Sukabumi";"JAWA BARAT";"43154";"Indonesia";"";"";"";"-6.8906906";"106.8610016";"https://maps.google.com/?cid=0x0:0xaf154a91781fbee4";""
"perumahan";"Pembangunan Perumahan";"Sawah";"4V57+HMJ, Mekarjaya, Kec. Caringin, Kabupaten Sukabumi, Jawa Barat 43154";"Mekarjaya, Kec. Caringin, Kabupaten Sukabumi";"JAWA BARAT";"43154";"Indonesia";"";"";"";"-6.8910288";"106.8641367";"https://maps.google.com/?cid=0x0:0xeccd3264b12fe06a";""
"perumahan";"Komplek perumahan";"Andrie khadoeth";"4V77+5WX, Perum griya permata, Talaga, Kec. Caringin, Kabupaten Sukabumi, Jawa Barat 43154";"Perum griya permata, Talaga, Kec. Caringin, Kabupaten Sukabumi";"JAWA BARAT";"43154";"Indonesia";" 08572339251";"";"";"-6.8870109";"106.8648566";"https://maps.google.com/?cid=0x0:0xc801dc027fd7419a";""
"perumahan";"Komplek perumahan";"Rumah A Dadang";"4VCF+2PP, Jl. Cipuntang, Caringin Wetan, Kec. Caringin, Kabupaten Sukabumi, Jawa Barat 43154";"Jl. Cipuntang, Caringin Wetan, Kec. Caringin, Kabupaten Sukabumi";"JAWA BARAT";"43154";"Indonesia";"";"";"";"-6.8799829";"106.874375";"https://maps.google.com/?cid=0x0:0xa965bf9461a3ed7f";""
"perumahan";"Komplek perumahan";"nahkahome";"4V9C+394, Caringin Wetan, Kec. Caringin, Kabupaten Sukabumi, Jawa Barat 43154";"Caringin Wetan, Kec. Caringin, Kabupaten Sukabumi";"JAWA BARAT";"43154";"Indonesia";"";"";"";"-6.8823599";"106.8709519";"https://maps.google.com/?cid=0x0:0x9f38d0d84f9dafb6";""
"perumahan";"Komplek perumahan";"Nad House";"4V77+8WM, Talaga, Kec. Caringin, Kabupaten Sukabumi, Jawa Barat 43154";"Talaga, Kec. Caringin, Kabupaten Sukabumi";"JAWA BARAT";"43154";"Indonesia";"";"";"";"-6.8867752";"106.8648136";"https://maps.google.com/?cid=0x0:0x1735ccf3432005a7";""
"perumahan";"Pembangunan Perumahan";"Sebastian consultan";"Jl. Caringin - Pasir Datar, Pasir Datar Indah, Kec. Caringin, Kabupaten Sukabumi, Jawa Barat 43154";"Pasir Datar Indah, Kec. Caringin, Kabupaten Sukabumi";"JAWA BARAT";"43154";"Indonesia";" 081322029614";"";"";"-6.8630328";"106.8803826";"https://maps.google.com/?cid=0x0:0x4cdf7dbd74949de0";""
"perumahan";"";"Saung haji dadang SE";"Kp. Sindanglengo Rt 03/02, Cijengkol, Kec. Caringin, Kabupaten Sukabumi, Jawa Barat 43154";"Cijengkol, Kec. Caringin, Kabupaten Sukabumi";"JAWA BARAT";"43154";"Indonesia";" 085759561054";"";"";"-6.881092";"106.840689";"https://maps.google.com/?cid=0x0:0xc8b51eda0b4b01ae";""
"perumahan";"Komplek perumahan";"Taman resik Blok G 10 Caringin Kulon";"4V87+3G8, Jl. Caringin Kulon, Caringin Kulon, Kec. Caringin, Kabupaten Sukabumi, Jawa Barat 43154";"Jl. Caringin Kulon, Caringin Kulon, Kec. Caringin, Kabupaten Sukabumi";"JAWA BARAT";"43154";"Indonesia";"";"";"";"-6.8848409";"106.8638332";"https://maps.google.com/?cid=0x0:0x841b3dfe1c0fb048";""
"perumahan";"Perhimpunan Pengembang Perumahan";"Sukarame, caringin, garut";"HGCP+PPM, Sukarame, Kec. Caringin, Kabupaten Garut, Jawa Barat 44166";"Sukarame, Kec. Caringin, Kabupaten Garut";"JAWA BARAT";"44166";"Indonesia";"";"";"/url?q>>u003dhttps://sukarame.kecamatancaringin.id/>>u0026opi>>u003d79508299>>u0026sa>>u003dU>>u0026ved>>u003d0ahUKEwiasarJutGLAxUuyDgGHew_AXMQ61gIESgN>>u0026usg>>u003dAOvVaw0r2bvOAPBgW4TPAnqg4I-g";"-7.4281389";"107.5366521";"https://maps.google.com/?cid=0x0:0x44cb90e0de666ffd";""
"perumahan";"Pembangunan Perumahan";"BUMI ROPI";"GGX4+2RC, Caringin, Kec. Caringin, Kabupaten Garut, Jawa Barat 44166";"Caringin, Kec. Caringin, Kabupaten Garut";"JAWA BARAT";"44166";"Indonesia";" 082321377483";"";"";"-7.4524414";"107.5070005";"https://maps.google.com/?cid=0x0:0x9a8d04d98c201493";""
"perumahan";"Perhimpunan Pengembang Perumahan";"SUKAMULYA IS BACK";"Jalan Desa Caringin, RT.002/RW.006, Sukamulya, Kec. Caringin, Kabupaten Garut, Jawa Barat 44166";"RT.002/RW.006, Sukamulya, Kec. Caringin, Kabupaten Garut";"JAWA BARAT";"44166";"Indonesia";" 082321024223";"";"/url?q>>u003dhttps://www.facebook.com/riki.purnama.522>>u0026opi>>u003d79508299>>u0026sa>>u003dU>>u0026ved>>u003d0ahUKEwiY0PnJutGLAxX0oa8BHY0LHXgQ61gIFigS>>u0026usg>>u003dAOvVaw3LdSN-rB1CIQP1b4TfrsLI";"-7.4500521";"107.506859";"https://maps.google.com/?cid=0x0:0x44a2c10a4be84c86";""
"perumahan";"Komplek perumahan";"TS";"FFVV+P47, Purbayani, Kec. Caringin, Kabupaten Garut, Jawa Barat 44166";"Purbayani, Kec. Caringin, Kabupaten Garut";"JAWA BARAT";"44166";"Indonesia";"";"";"";"-7.5057218";"107.4927888";"https://maps.google.com/?cid=0x0:0x1070864c2f5f2e1d";""
"perumahan";"perumahan";"desa purbayani kecamatan caringin kabupten garut";"GG35+HJ5, Purbayani, Kec. Caringin, Kabupaten Garut, Jawa Barat 44166";"Purbayani, Kec. Caringin, Kabupaten Garut";"JAWA BARAT";"44166";"Indonesia";"";"";"";"-7.4961063";"107.5090974";"https://maps.google.com/?cid=0x0:0x347c6ab4226ed4be";""
"perumahan";"Pembangunan Perumahan";"PURBAYANI, CARINGIN RANCABUAYA";"FG82+MJ7, Sinarjaya, Kec. Bungbulang, Kabupaten Garut, Jawa Barat 44165";"Sinarjaya, Kec. Bungbulang, Kabupaten Garut";"JAWA BARAT";"44165";"Indonesia";"";"";"";"-7.5333385";"107.501538";"https://maps.google.com/?cid=0x0:0xd8065284431ef0e5";""
"perumahan";"perumahan";"AHMAD SUGANDI";"HC4X+QP5, Cikarang, Kec. Cisewu, Kabupaten Garut, Jawa Barat 44166";"Cikarang, Kec. Cisewu, Kabupaten Garut";"JAWA BARAT";"44166";"Indonesia";"";"";"";"-7.4431112";"107.4493568";"https://maps.google.com/?cid=0x0:0x59b3306e978d3607";""
"perumahan";"Perhimpunan Pengembang Perumahan";"Rumah Ima";"GF3J+3VF, Indralayang, Kec. Caringin, Kabupaten Garut, Jawa Barat 44166";"Indralayang, Kec. Caringin, Kabupaten Garut";"JAWA BARAT";"44166";"Indonesia";"";"";"";"-7.4973508";"107.482119";"https://maps.google.com/?cid=0x0:0x61af561da2b8d832";""
"perumahan";"Pembangunan Perumahan";"Tempat rumah agraha";"Sukarame, Kec. Caringin, Kabupaten Garut, Jawa Barat 44166";"Kec. Caringin, Kabupaten Garut";"JAWA BARAT";"44166";"Indonesia";"";"";"";"-7.444763";"107.5230852";"https://maps.google.com/?cid=0x0:0xf8dc847db32cd60";""
"perumahan";"Komplek perumahan";"Kp. Ci kabunan";"GFHV+7QG, Jalan, Caringin, Kec. Caringin, Kabupaten Garut, Jawa Barat 44166";"Jalan, Caringin, Kec. Caringin, Kabupaten Garut";"JAWA BARAT";"44166";"Indonesia";"";"";"";"-7.4718211";"107.4944458";"https://maps.google.com/?cid=0x0:0x713ee1f197c3be50";""
"perumahan";"Pembangunan Perumahan";"Mah Iyam";"FFGR+8GF, Purbayani, Kec. Caringin, Kabupaten Garut, Jawa Barat 44166";"Purbayani, Kec. Caringin, Kabupaten Garut";"JAWA BARAT";"44166";"Indonesia";" 081348597883";"";"";"-7.5244303";"107.4917768";"https://maps.google.com/?cid=0x0:0xd0754711c8ca11a8";""
"perumahan";"perumahan";"BPK. SUPRIATNA, S.Pd";"FCRX+VHM, Cimahi, Kec. Caringin, Kabupaten Garut, Jawa Barat 44166";"Cimahi, Kec. Caringin, Kabupaten Garut";"JAWA BARAT";"44166";"Indonesia";"";"";"";"-7.50787";"107.449212";"https://maps.google.com/?cid=0x0:0x4103f1379530c445";""
"perumahan";"Perumahan";"Rhaisa";"Unnamed Road, Caringin, Kec. Caringin, Kabupaten Garut, Jawa Barat 44166";"Caringin, Kec. Caringin, Kabupaten Garut";"JAWA BARAT";"44166";"Indonesia";"";"";"";"-7.459793";"107.503128";"https://maps.google.com/?cid=0x0:0xcb650b9d458cd2a2";""
"perumahan";"Pembangunan Perumahan";"Caringin,garut jawa barat";"GGP5+2JH, Caringin, Kec. Caringin, Kabupaten Garut, Jawa Barat 44166";"Caringin, Kec. Caringin, Kabupaten Garut";"JAWA BARAT";"44166";"Indonesia";"";"";"";"-7.4649284";"107.5090974";"https://maps.google.com/?cid=0x0:0x24de9a36211ad10";""
"perumahan";"perumahan";"kp cijambe";"GGP5+2JH, Caringin, Kec. Caringin, Kabupaten Garut, Jawa Barat 44166";"Caringin, Kec. Caringin, Kabupaten Garut";"JAWA BARAT";"44166";"Indonesia";"";"";"";"-7.4649284";"107.5090974";"https://maps.google.com/?cid=0x0:0x940fb5e5530c9036";""
"perumahan";"Pembangunan Perumahan";"Rumah Handayani";"HGHR+XRW, Jl. Cisewu - Sukarame, Sukarame, Kec. Caringin, Kabupaten Garut, Jawa Barat 44166";"Jl. Cisewu - Sukarame, Sukarame, Kec. Caringin, Kabupaten Garut";"JAWA BARAT";"44166";"Indonesia";"";"";"";"-7.420011";"107.5420853";"https://maps.google.com/?cid=0x0:0xa15e8fa00f1cc339";""
"perumahan";"Pembangunan Perumahan";"RUMAH GANDI R";"Sukarame, Kec. Caringin, Kabupaten Garut, Jawa Barat 44166";"Kec. Caringin, Kabupaten Garut";"JAWA BARAT";"44166";"Indonesia";" 081221352823";"";"";"-7.4417735";"107.5110081";"https://maps.google.com/?cid=0x0:0x4689ab2cd49e19fe";""
"perumahan";"Komplek perumahan";"Rumah Anggi";"GGXF+F38, Sukarame, Kec. Caringin, Kabupaten Garut, Jawa Barat 44166";"Sukarame, Kec. Caringin, Kabupaten Garut";"JAWA BARAT";"44166";"Indonesia";"";"";"";"-7.4513276";"107.5227037";"https://maps.google.com/?cid=0x0:0x2b091f0df7fa20af";""
"perumahan";"Pembangunan Perumahan";"Rumah Tmpe dan Sanuy";"HGHX+H22, Sukarame, Kec. Caringin, Kabupaten Garut, Jawa Barat 44166";"Sukarame, Kec. Caringin, Kabupaten Garut";"JAWA BARAT";"44166";"Indonesia";"";"";"";"-7.4211214";"107.5475076";"https://maps.google.com/?cid=0x0:0x133f6f531c3a707e";""
"perumahan";"perumahan";"Kec. Caringin";"Kabupaten Garut, Jawa Barat";"Kabupaten Garut, Jawa Barat";"JAWA BARAT";"";"Indonesia";"";"";"";"-7.5228818";"107.4894174";"https://maps.google.com/?cid=0x0:0xdbabe0fb9ecbf7ee";""
"perumahan";"Komplek perumahan";"Dcky";"GF3J+3VF, Indralayang, Kec. Caringin, Kabupaten Garut, Jawa Barat 44166";"Indralayang, Kec. Caringin, Kabupaten Garut";"JAWA BARAT";"44166";"Indonesia";"";"";"";"-7.4973247";"107.4821592";"https://maps.google.com/?cid=0x0:0x7d7023005ddcfe46";""
"perumahan";"Pembangunan Perumahan";"BATUMASEUK";"FFMM+FM9, Purbayani, Kec. Caringin, Kabupaten Garut, Jawa Barat 44166";"Purbayani, Kec. Caringin, Kabupaten Garut";"JAWA BARAT";"44166";"Indonesia";"";"";"";"-7.5171872";"107.4834658";"https://maps.google.com/?cid=0x0:0x43a1d1c5a1f8a83b";""
"perumahan";"Pembangunan Perumahan";"Kp Ciharashas";"Kp.Ciharashas No.011, RT.01Rw, Caringin, Kec. Caringin, Kabupaten Garut, Jawa Barat 44166";"RT.01Rw, Caringin, Kec. Caringin, Kabupaten Garut";"JAWA BARAT";"44166";"Indonesia";"";"";"";"-7.4649284";"107.5090974";"https://maps.google.com/?cid=0x0:0xc2ed6002451e3609";""
"perumahan";"Perhimpunan Pengembang Perumahan";"Pernikahan Wulan imam";"FFRF+3XM, Kp.Datar Asem, Indralayang, Caringin, Garut Regency, West Java 44166";"Kp.Datar Asem, Indralayang, Caringin, Garut Regency";"JAWA BARAT";"44166";"Indonesia";"";"";"";"-7.5097914";"107.4749172";"https://maps.google.com/?cid=0x0:0x540bcd2ab2b27f1d";""
"perumahan";"Kantor Perusahaan";"Proyek Perumahan Sawung Garden";"Mekarsari, Kec. Cibalong, Kabupaten Garut, Jawa Barat 44176";"Kec. Cibalong, Kabupaten Garut";"JAWA BARAT";"44176";"Indonesia";" 087802020101";"";"";"-7.6507234";"107.7526984";"https://maps.google.com/?cid=0x0:0x226f738075a2d1bb";""
"perumahan";"perumahan";"Cibalong Garut Selatan";"8Q9X+VH5, Karyamukti, Kec. Cibalong, Kabupaten Garut, Jawa Barat 44176";"Karyamukti, Kec. Cibalong, Kabupaten Garut";"JAWA BARAT";"44176";"Indonesia";"";"";"";"-7.6803664";"107.7989894";"https://maps.google.com/?cid=0x0:0x353212eeb82433ef";""
"perumahan";"perumahan";"Saung EKHA HARDIANSYAH";"8VVQ+56C, Jl.Cinaringgul, Mekarwangi, Kec. Cibalong, Kabupaten Garut, Jawa Barat 44176";"Jl.Cinaringgul, Mekarwangi, Kec. Cibalong, Kabupaten Garut";"JAWA BARAT";"44176";"Indonesia";"";"";"";"-7.6570746";"107.8880075";"https://maps.google.com/?cid=0x0:0xa78b02e6a896a34c";""
"perumahan";"Pembangunan Perumahan";"Saung Benhui";"Karyamukti, Kec. Cibalong, Kabupaten Garut, Jawa Barat 44176";"Kec. Cibalong, Kabupaten Garut";"JAWA BARAT";"44176";"Indonesia";"";"";"";"-7.6755013";"107.8095384";"https://maps.google.com/?cid=0x0:0x3335b3a1255ab3e7";""
"perumahan";"Pembangunan Perumahan";"Devtia";"9WP8+QP6, Simpang, Kec. Cibalong, Kabupaten Garut, Jawa Barat 44176";"Simpang, Kec. Cibalong, Kabupaten Garut";"JAWA BARAT";"44176";"Indonesia";"";"";"";"-7.6125755";"107.9179146";"https://maps.google.com/?cid=0x0:0x8d8b87d635469770";""
"perumahan";"Komplek perumahan";"Home Ai";"7VXQ+4VV, Sancang, Kec. Cibalong, Kabupaten Garut, Jawa Barat 44176";"Sancang, Kec. Cibalong, Kabupaten Garut";"JAWA BARAT";"44176";"Indonesia";"";"";"";"-7.701711";"107.889412";"https://maps.google.com/?cid=0x0:0x213615fce1986a9f";""
"perumahan";"Pembangunan Perumahan";"A Didin";"8QM8+C7C, Mekarsari, Kec. Cibalong, Kabupaten Garut, Jawa Barat 44176";"Mekarsari, Kec. Cibalong, Kabupaten Garut";"JAWA BARAT";"44176";"Indonesia";"";"";"";"-7.6664298";"107.7656377";"https://maps.google.com/?cid=0x0:0xd0beb3332a706481";""
"perumahan";"Gedung Apartemen";"Ditha home sweet home";"7VVR+XFP, Sancang, Kec. Cibalong, Kabupaten Garut, Jawa Barat 44176";"Sancang, Kec. Cibalong, Kabupaten Garut";"JAWA BARAT";"44176";"Indonesia";"";"";"";"-7.7050351";"107.8912162";"https://maps.google.com/?cid=0x0:0xaaf7977ab725bcf9";""
"perumahan";"Pembangunan Perumahan";"Kp. Sorog";"8RGV+Q5G, Sagara, Kec. Cibalong, Kabupaten Garut, Jawa Barat 44176";"Sagara, Kec. Cibalong, Kabupaten Garut";"JAWA BARAT";"44176";"Indonesia";"";"";"";"-7.6730583";"107.8429677";"https://maps.google.com/?cid=0x0:0xd05cc32b57619ac9";""
"perumahan";"Pembangunan Perumahan";"Rumah salsa windari";"9W84+JJ5, Simpang, Kec. Cibalong, Kabupaten Garut, Jawa Barat 44176";"Simpang, Kec. Cibalong, Kabupaten Garut";"JAWA BARAT";"44176";"Indonesia";"";"";"";"-7.6334962";"107.9066091";"https://maps.google.com/?cid=0x0:0xfd172ae09af16bd0";""
"perumahan";"Komplek perumahan";"Sukahideng kabupaten garut";"7VRM+8P, Sancang, Kec. Cibalong, Kabupaten Garut, Jawa Barat";"Kabupaten Garut, Jawa Barat";"JAWA BARAT";"";"Indonesia";"";"";"";"-7.7092181";"107.8843734";"https://maps.google.com/?cid=0x0:0x6869f851533672df";""
"perumahan";"Komplek perumahan";"Tarisi";"9V62+5XG, Mekarmukti, Kec. Cibalong, Kabupaten Garut, Jawa Barat 44176";"Mekarmukti, Kec. Cibalong, Kabupaten Garut";"JAWA BARAT";"44176";"Indonesia";"";"";"";"-7.6395551";"107.8524504";"https://maps.google.com/?cid=0x0:0x54cf5bd57a565c89";""
"perumahan";"Rumah Kaca";"Nyalindung";"9RCP+CFJ, Jl. Nyalindung, Mekarmukti, Kec. Cibalong, Kabupaten Garut, Jawa Barat 44176";"Jl. Nyalindung, Mekarmukti, Kec. Cibalong, Kabupaten Garut";"JAWA BARAT";"44176";"Indonesia";"";"";"";"-7.6289209";"107.8361399";"https://maps.google.com/?cid=0x0:0x62e6152115f02e81";""
"perumahan";"Pembangunan Perumahan";"Abang home";"7WV8+5WC, Unnamed Road, Simpang, Kec. Cibalong, Kabupaten Garut, Jawa Barat 44176";"Unnamed Road, Simpang, Kec. Cibalong, Kabupaten Garut";"JAWA BARAT";"44176";"Indonesia";" 082316802678";"";"";"-7.707055";"107.917277";"https://maps.google.com/?cid=0x0:0xe323e4700db15676";""
"perumahan";"perumahan";"Dis Id";"9V43+R9, Sagara, Kec. Cibalong, Kabupaten Garut, Jawa Barat 44176";"Sagara, Kec. Cibalong, Kabupaten Garut";"JAWA BARAT";"44176";"Indonesia";"";"";"";"-7.6429189";"107.8535859";"https://maps.google.com/?cid=0x0:0xc43de8b7881e0c45";""
"perumahan";"perumahan";"Garut";"8QM8+C7C, Mekarsari, Kec. Cibalong, Kabupaten Garut, Jawa Barat 44176";"Mekarsari, Kec. Cibalong, Kabupaten Garut";"JAWA BARAT";"44176";"Indonesia";"";"";"";"-7.6664298";"107.7656377";"https://maps.google.com/?cid=0x0:0x7e4b4c51285bd52f";""
"perumahan";"Pembangunan Perumahan";"Home deko";"Kp cilalay No.des, Cigaronggong, Kec. Cibalong, Kabupaten Garut, Jawa Barat 44176";"Cigaronggong, Kec. Cibalong, Kabupaten Garut";"JAWA BARAT";"44176";"Indonesia";"";"";"";"-7.6276918";"107.7956791";"https://maps.google.com/?cid=0x0:0xb0e1618c3d33b47";""
"perumahan";"Perumahan";"Kp. Hegarmanah Ds. Sagara Kec. Cibalong";"9VMV+R6, Sagara, Kec. Cibalong, Kabupaten Garut, Jawa Barat";"Kabupaten Garut, Jawa Barat";"JAWA BARAT";"";"Indonesia";"";"";"";"-7.615408";"107.8931031";"https://maps.google.com/?cid=0x0:0x79db4188f1e55e6a";""
"perumahan";"Komplek perumahan";"Kp.cisarua Girang";"8VHG+CMQ, Mekarwangi, Kec. Cibalong, Kabupaten Garut, Jawa Barat 44176";"Mekarwangi, Kec. Cibalong, Kabupaten Garut";"JAWA BARAT";"44176";"Indonesia";"";"";"";"-7.6713787";"107.8767845";"https://maps.google.com/?cid=0x0:0x390d4e093ad2e81e";""
"perumahan";"perumahan";"Jawa Barat 44176";"Kec. Cibalong, Kabupaten Garut, Jawa Barat";"Kabupaten Garut, Jawa Barat";"JAWA BARAT";"";"Indonesia";"";"";"";"-7.6437387";"107.8346924";"https://maps.google.com/?cid=0x0:0x1c00c5eb568ed780";""
"perumahan";"Inspektur Tempat Tinggal";"Wanasari";"8QMC+CGV, Unnamed Road, Mekarsari, Kec. Cibalong, Kabupaten Garut, Jawa Barat 44176";"Unnamed Road, Mekarsari, Kec. Cibalong, Kabupaten Garut";"JAWA BARAT";"44176";"Indonesia";"";"";"";"-7.6663839";"107.7712962";"https://maps.google.com/?cid=0x0:0xc13d9ccb0042389c";""
"perumahan";"perumahan";"GARSELA RESIDENCE";"8QH9+97F, Jl. Miramareu, Mekarsari, Kec. Cibalong, Kabupaten Garut, Jawa Barat 44176";"Jl. Miramareu, Mekarsari, Kec. Cibalong, Kabupaten Garut";"JAWA BARAT";"44176";"Indonesia";" 081312913126";"";"";"-7.6715524";"107.7681629";"https://maps.google.com/?cid=0x0:0xca404048ab66f35f";""
"perumahan";"Perhimpunan Pengembang Perumahan";"Kampung Sawargi";"9RMW+76F, Mekarmukti, Kec. Cibalong, Kabupaten Garut, Jawa Barat 44176";"Mekarmukti, Kec. Cibalong, Kabupaten Garut";"JAWA BARAT";"44176";"Indonesia";"";"";"";"-7.6168065";"107.8455533";"https://maps.google.com/?cid=0x0:0xe4bc8c810d8aacea";""
"perumahan";"Pembangunan Perumahan";"Rumah Irawantii";"9R8J+FX5, Mekarmukti, Kec. Cibalong, Kabupaten Garut, Jawa Barat 44176";"Mekarmukti, Kec. Cibalong, Kabupaten Garut";"JAWA BARAT";"44176";"Indonesia";"";"";"";"-7.6338631";"107.832499";"https://maps.google.com/?cid=0x0:0xe1b330b880c5495f";""
"perumahan";"perumahan";"Uday";"Jl. Raya Karangnunggal No.13, Cibalong, Kec. Cibalong, Kabupaten Tasikmalaya, Jawa Barat 46185";"Cibalong, Kec. Cibalong, Kabupaten Tasikmalaya";"JAWA BARAT";"46185";"Indonesia";"";"";"";"-7.51545";"108.1796754";"https://maps.google.com/?cid=0x0:0xb7d628b551290cb0";""
"perumahan";"Pembangunan Perumahan";"Karang Nunggal";"F5PJ+CC6, Cibalong, Kec. Cibalong, Kabupaten Tasikmalaya, Jawa Barat 46185";"Cibalong, Kec. Cibalong, Kabupaten Tasikmalaya";"JAWA BARAT";"46185";"Indonesia";"";"";"";"-7.5139661";"108.181027";"https://maps.google.com/?cid=0x0:0xbe9911ab30f10f2c";""
"perumahan";"Komplek perumahan";"rumah nenek";"F56G+8PQ, Parung, Kec. Cibalong, Kabupaten Tasikmalaya, Jawa Barat 46185";"Parung, Kec. Cibalong, Kabupaten Tasikmalaya";"JAWA BARAT";"46185";"Indonesia";"";"";"";"-7.538198";"108.176121";"https://maps.google.com/?cid=0x0:0x6aeb1abcf4a32fee";""
"perumahan";"Komplek perumahan";"Rumah Bpk ara / ibu ening";"F5MJ+Q38, Cibalong, Kec. Cibalong, Kabupaten Tasikmalaya, Jawa Barat 46185";"Cibalong, Kec. Cibalong, Kabupaten Tasikmalaya";"JAWA BARAT";"46185";"Indonesia";"";"";"";"-7.5154506";"108.1805719";"https://maps.google.com/?cid=0x0:0x317c45ed658cf326";""
"perumahan";"Komplek perumahan";"Rumah nenek";"F5G9+FQ, Cibalong, Kec. Cibalong, Kabupaten Tasikmalaya, Jawa Barat";"Kabupaten Tasikmalaya, Jawa Barat";"JAWA BARAT";"";"Indonesia";"";"";"";"-7.5238123";"108.1694736";"https://maps.google.com/?cid=0x0:0xf07c31314d4ba79d";""
"perumahan";"Pembangunan Perumahan";"Kp. pencut manggu";"G56M+P5R, Singajaya, Kec. Cibalong, Kabupaten Tasikmalaya, Jawa Barat 46185";"Singajaya, Kec. Cibalong, Kabupaten Tasikmalaya";"JAWA BARAT";"46185";"Indonesia";"";"";"";"-7.4881454";"108.1828814";"https://maps.google.com/?cid=0x0:0x3d48951514dca1b0";""
"perumahan";"Komplek perumahan";"nayla";"F5PJ+CC6, Cibalong, Kec. Cibalong, Kabupaten Tasikmalaya, Jawa Barat";"Kabupaten Tasikmalaya, Jawa Barat";"JAWA BARAT";"";"Indonesia";"";"";"";"-7.5139661";"108.181027";"https://maps.google.com/?cid=0x0:0xe087acef2c87f45e";""
"perumahan";"Komplek perumahan";"Pos kapunduan bapak rt agus";"F5FP+6H3, Cibalong, Kec. Cibalong, Kabupaten Tasikmalaya, Jawa Barat 46185";"Cibalong, Kec. Cibalong, Kabupaten Tasikmalaya";"JAWA BARAT";"46185";"Indonesia";"";"";"";"-7.5269809";"108.1864363";"https://maps.google.com/?cid=0x0:0x53da01c5c0a81bb9";""
"perumahan";"Perhimpunan Pengembang Perumahan";"Rumah Alm. Bapak Sarpan, S.Pd., M.Pd";"F5MJ+FPG, Cibalong, Kec. Cibalong, Kabupaten Tasikmalaya, Jawa Barat 46185";"Cibalong, Kec. Cibalong, Kabupaten Tasikmalaya";"JAWA BARAT";"46185";"Indonesia";"";"";"";"-7.5161022";"108.1819263";"https://maps.google.com/?cid=0x0:0x448ad547e62b5507";""
"perumahan";"Komplek perumahan";"Kariska Home";"F5MF+JP, Cibalong, Kec. Cibalong, Kabupaten Tasikmalaya, Jawa Barat";"Kabupaten Tasikmalaya, Jawa Barat";"JAWA BARAT";"";"Indonesia";" 082319914578";"";"";"-7.515905";"108.174325";"https://maps.google.com/?cid=0x0:0x2e5459ff8c387d41";""
"perumahan";"perumahan";"PBK-birdfarm  birdshop";"Muara No.001/007, Cibalong, Kec. Cibalong, Kabupaten Tasikmalaya, Jawa Barat 46185";"Cibalong, Kec. Cibalong, Kabupaten Tasikmalaya";"JAWA BARAT";"46185";"Indonesia";"";"";"";"-7.5208278";"108.1853543";"https://maps.google.com/?cid=0x0:0x3d111364e02d350e";""
"perumahan";"Komplek perumahan";"Rumah Dwipa restu utami";"F5FP+H88, Jl,Cipanas,kp.sodong, Cibalong, Kec. Cibalong, Kabupaten Tasikmalaya, Jawa Barat 46185";"Jl,Cipanas,kp.sodong, Cibalong, Kec. Cibalong, Kabupaten Tasikmalaya";"JAWA BARAT";"46185";"Indonesia";"";"";"";"-7.526078";"108.1858416";"https://maps.google.com/?cid=0x0:0x278abad703a8cd09";""
"perumahan";"perumahan";"Rumah Bu Dewi";"F59G+FMW, Parung, Kec. Cibalong, Kabupaten Tasikmalaya, Jawa Barat 46185";"Parung, Kec. Cibalong, Kabupaten Tasikmalaya";"JAWA BARAT";"46185";"Indonesia";"";"";"";"-7.5312683";"108.1767067";"https://maps.google.com/?cid=0x0:0x9308439f7e950273";""
"perumahan";"Komplek perumahan";"Rumah abieza";"Babatan Cikareo No.35, Cibalong, Kec. Cibalong, Kabupaten Tasikmalaya, Jawa Barat 46185";"Cibalong, Kec. Cibalong, Kabupaten Tasikmalaya";"JAWA BARAT";"46185";"Indonesia";"";"";"";"-7.5166742";"108.1817367";"https://maps.google.com/?cid=0x0:0x4007ed001d81185e";""
"perumahan";"Komplek perumahan";"DHE YOSEP Z";"F59F+PP, Parung, Kec. Cibalong, Kabupaten Tasikmalaya, Jawa Barat 46185";"Parung, Kec. Cibalong, Kabupaten Tasikmalaya";"JAWA BARAT";"46185";"Indonesia";"";"";"";"-7.530701";"108.1742514";"https://maps.google.com/?cid=0x0:0xcb7d02a21c3e0909";""
"perumahan";"perumahan";"repan";"F59Q+9JC, Setiawaras, Kec. Cibalong, Kabupaten Tasikmalaya, Jawa Barat 46185";"Setiawaras, Kec. Cibalong, Kabupaten Tasikmalaya";"JAWA BARAT";"46185";"Indonesia";"";"";"";"-7.5306276";"108.1891956";"https://maps.google.com/?cid=0x0:0x1ba95c5a99bf2c24";""
"perumahan";"Pembangunan Perumahan";"Rumah Ai elis / Agus";"C6C3+74V, Setiawaras, Kec. Cibalong, Kabupaten Tasikmalaya, Jawa Barat 46185";"Setiawaras, Kec. Cibalong, Kabupaten Tasikmalaya";"JAWA BARAT";"46185";"Indonesia";"";"";"";"-7.5796943";"108.2026972";"https://maps.google.com/?cid=0x0:0xc128b86de0597fc0";""
"perumahan";"Komplek perumahan";"Sawah lembur";"F5MJ+FPG, Cibalong, Kec. Cibalong, Kabupaten Tasikmalaya, Jawa Barat 46185";"Cibalong, Kec. Cibalong, Kabupaten Tasikmalaya";"JAWA BARAT";"46185";"Indonesia";"";"";"";"-7.515922";"108.181659";"https://maps.google.com/?cid=0x0:0x86cb6ab4eee1fbb1";""
"perumahan";"Komplek perumahan";"EBAS,,";"Babatan Cikareo No.19, Cibalong, Kec. Cibalong, Kabupaten Tasikmalaya, Jawa Barat 46185";"Cibalong, Kec. Cibalong, Kabupaten Tasikmalaya";"JAWA BARAT";"46185";"Indonesia";"";"";"";"-7.5160351";"108.182234";"https://maps.google.com/?cid=0x0:0xa11acbf98994b261";""
"perumahan";"perumahan";"Kec. Cibalong";"Kabupaten Tasikmalaya, Jawa Barat";"Kabupaten Tasikmalaya, Jawa Barat";"JAWA BARAT";"";"Indonesia";"";"";"";"-7.5139661";"108.181027";"https://maps.google.com/?cid=0x0:0x9340bca8d01ee6f6";""
"perumahan";"Komplek perumahan";"Tanah kelurga adiji Garut";"C5GJ+HM2, Setiawaras, Kec. Cibalong, Kabupaten Tasikmalaya, Jawa Barat 46185";"Setiawaras, Kec. Cibalong, Kabupaten Tasikmalaya";"JAWA BARAT";"46185";"Indonesia";"";"";"";"-7.573624";"108.1816368";"https://maps.google.com/?cid=0x0:0xb2c07aa87e414acd";""
"perumahan";"Pembangunan Perumahan";"TITIK AKHIR JALAN DESA PASIRANGIN";"C5PJ+WQ9, Setiawaras, Kec. Cibalong, Kabupaten Tasikmalaya, Jawa Barat 46185";"Setiawaras, Kec. Cibalong, Kabupaten Tasikmalaya";"JAWA BARAT";"46185";"Indonesia";"";"";"";"-7.562714";"108.1819784";"https://maps.google.com/?cid=0x0:0xbe3491b1fd893144";""
"perumahan";"Pembangunan Perumahan";"Cibalanongan";"C55X+69C, Wangunsari, Kec. Cibalong, Kabupaten Tasikmalaya, Jawa Barat 46185";"Wangunsari, Kec. Cibalong, Kabupaten Tasikmalaya";"JAWA BARAT";"46185";"Indonesia";"";"";"";"-7.5919409";"108.1983978";"https://maps.google.com/?cid=0x0:0x829cffa6233cf4fc";""
"perumahan";"Komplek perumahan";"Rumah Ai.M silvia";"C575+PPX, Eureunpalay, Kec. Cibalong, Kabupaten Tasikmalaya, Jawa Barat 46185";"Eureunpalay, Kec. Cibalong, Kabupaten Tasikmalaya";"JAWA BARAT";"46185";"Indonesia";"";"";"";"-7.5856311";"108.1593734";"https://maps.google.com/?cid=0x0:0x2dac7ff19a37d70d";""
"perumahan";"Pembangunan Perumahan";"Rumah piki anggara";"C632+566, Setiawaras, Kec. Cibalong, Kabupaten Tasikmalaya, Jawa Barat 46185";"Setiawaras, Kec. Cibalong, Kabupaten Tasikmalaya";"JAWA BARAT";"46185";"Indonesia";"";"";"";"-7.5970913";"108.2005256";"https://maps.google.com/?cid=0x0:0x80ba87d69c56ba3f";""
"perumahan";"Pembangunan Perumahan";"ALZAM";"C58H+PM5, Setiawaras, Kec. Cibalong, Kabupaten Tasikmalaya, Jawa Barat 46185";"Setiawaras, Kec. Cibalong, Kabupaten Tasikmalaya";"JAWA BARAT";"46185";"Indonesia";"";"";"";"-7.5832421";"108.1792248";"https://maps.google.com/?cid=0x0:0x7da77e203e56b25f";""
"perumahan";"Perhimpunan Pengembang Perumahan";"Desa Cijarah";"C66M+2Q6, Cisempur, Kec. Cibalong, Kabupaten Tasikmalaya, Jawa Barat 46185";"Cisempur, Kec. Cibalong, Kabupaten Tasikmalaya";"JAWA BARAT";"46185";"Indonesia";"";"";"";"-7.5899697";"108.2343802";"https://maps.google.com/?cid=0x0:0xb36e50086e596c90";""
"perumahan";"Perumahan rakyat";"Rayna";"Kp mekarsarirt/rw 002/017, Setiawaras, Kec. Cibalong, Kabupaten Tasikmalaya, Jawa Barat 46185";"Setiawaras, Kec. Cibalong, Kabupaten Tasikmalaya";"JAWA BARAT";"46185";"Indonesia";"";"";"";"-7.597942";"108.197684";"https://maps.google.com/?cid=0x0:0x1de5f997f7ef040f";""
"perumahan";"Pembangunan Perumahan";"Cipacur city";"C632+66Q, Setiawaras, Kec. Cibalong, Kabupaten Tasikmalaya, Jawa Barat 46185";"Setiawaras, Kec. Cibalong, Kabupaten Tasikmalaya";"JAWA BARAT";"46185";"Indonesia";"";"";"";"-7.596924";"108.2006106";"https://maps.google.com/?cid=0x0:0x2a92e95bdf6b6e7e";""
"perumahan";"Komplek perumahan";"Kp. Cibatu kolot";"rt09, RW.04, Cibatu, Purwakarta Regency, West Java";"Kabupaten Purwakarta, Jawa Barat";"JAWA BARAT";"";"Indonesia";"";"";"";"-6.5011345";"107.5342432";"https://maps.google.com/?cid=0x0:0x48a761cc7d91c877";""
"perumahan";"Kantor Perusahaan";"PERUM KARYA MEKAR";"sukasari Rt08/03, Cibatu, Kec. Cibatu, Kabupaten Purwakarta, Jawa Barat 41181";"Cibatu, Kec. Cibatu, Kabupaten Purwakarta";"JAWA BARAT";"41181";"Indonesia";" 088971535789";"";"";"-6.4941358";"107.5402867";"https://maps.google.com/?cid=0x0:0xab01ad12fb151e6d";""
"perumahan";"perumahan";"Rumah mujib";"FGXV+CCM, Karyamekar, Kec. Cibatu, Kabupaten Purwakarta, Jawa Barat 41181";"Karyamekar, Kec. Cibatu, Kabupaten Purwakarta";"JAWA BARAT";"41181";"Indonesia";"";"";"";"-6.5014064";"107.5435523";"https://maps.google.com/?cid=0x0:0x15db5a4b779967b1";""
"perumahan";"Komplek perumahan";"RUMAH PANCA WIWITAN";"Jl. Raya Campaka No.28, Cibatu, Kec. Cibatu, Kabupaten Purwakarta, Jawa Barat 41181";"Cibatu, Kec. Cibatu, Kabupaten Purwakarta";"JAWA BARAT";"41181";"Indonesia";"";"";"";"-6.5018609";"107.535194";"https://maps.google.com/?cid=0x0:0x340046258ef9203c";""
"perumahan";"Komplek perumahan";"Rohayati";"FHP2+52M, Cipinang, Kec. Cibatu, Kabupaten Purwakarta, Jawa Barat 41181";"Cipinang, Kec. Cibatu, Kabupaten Purwakarta";"JAWA BARAT";"41181";"Indonesia";"";"";"";"-6.5145317";"107.5500789";"https://maps.google.com/?cid=0x0:0xe35bc19a8a849518";""
"perumahan";"Pembangunan Perumahan";"Rumah ijal";"FGGJ+HF9, Cirangkong, Kec. Cibatu, Kabupaten Purwakarta, Jawa Barat 41181";"Cirangkong, Kec. Cibatu, Kabupaten Purwakarta";"JAWA BARAT";"41181";"Indonesia";"";"";"";"-6.5235861";"107.531242";"https://maps.google.com/?cid=0x0:0xce6c7f511a0b023";""
"perumahan";"Pembangunan Perumahan";"Saeqilla Subur Makmur";"Karyamekar, Kec. Cibatu, Kabupaten Purwakarta, Jawa Barat 41181";"Kec. Cibatu, Kabupaten Purwakarta";"JAWA BARAT";"41181";"Indonesia";" 083195991477";"";"";"-6.4963008";"107.5435963";"https://maps.google.com/?cid=0x0:0xf5136b987bf84a";""
"perumahan";"Komplek perumahan";"Cilandak";"GG57+FMF, Unnamed Road, Cilandak, Kec. Cibatu, Kabupaten Purwakarta, Jawa Barat 41181";"Unnamed Road, Cilandak, Kec. Cibatu, Kabupaten Purwakarta";"JAWA BARAT";"41181";"Indonesia";"";"";"";"-6.4913237";"107.5141838";"https://maps.google.com/?cid=0x0:0xb549224c5bdd6147";""
"perumahan";"perumahan";"RUMAH YUNZA";"FGWW+385, Cipinang, Kec. Cibatu, Kabupaten Purwakarta, Jawa Barat 41181";"Cipinang, Kec. Cibatu, Kabupaten Purwakarta";"JAWA BARAT";"41181";"Indonesia";" 083871800644";"";"";"-6.504789";"107.5459291";"https://maps.google.com/?cid=0x0:0x886511dd159fc8ad";""
"perumahan";"Pembangunan Perumahan";"Kecamatan cibatu";"FHW2+W93, Cipinang, Kec. Cibatu, Kabupaten Purwakarta, Jawa Barat 41181";"Cipinang, Kec. Cibatu, Kabupaten Purwakarta";"JAWA BARAT";"41181";"Indonesia";"";"";"";"-6.5027389";"107.5509132";"https://maps.google.com/?cid=0x0:0xa9f9f797ea08c8d5";""
"perumahan";"Pembangunan Perumahan";"Cv.JP Cibatu";"GG2R+6JG, Karyamekar, Kec. Cibatu, Kabupaten Purwakarta, Jawa Barat 41181";"Karyamekar, Kec. Cibatu, Kabupaten Purwakarta";"JAWA BARAT";"41181";"Indonesia";"";"";"";"-6.4994381";"107.5415843";"https://maps.google.com/?cid=0x0:0xb3f3a94bd50dce17";""
"perumahan";"perumahan";"gubuk penyadap karet banten";"FGHP+2X4, Cipancur, Kec. Cibatu, Kabupaten Purwakarta, Jawa Barat 41181";"Cipancur, Kec. Cibatu, Kabupaten Purwakarta";"JAWA BARAT";"41181";"Indonesia";"";"";"";"-6.5224825";"107.5374573";"https://maps.google.com/?cid=0x0:0xef866cc9cb77aa73";""
"perumahan";"Komplek perumahan";"Rumah bah boyan";"GG5X+827, kp. Sukasari, Karyamekar, Kec. Cibatu, Kabupaten Purwakarta, Jawa Barat 41181";"kp. Sukasari, Karyamekar, Kec. Cibatu, Kabupaten Purwakarta";"JAWA BARAT";"41181";"Indonesia";"";"";"";"-6.4917098";"107.5475566";"https://maps.google.com/?cid=0x0:0xa54b34dd8012451d";""
"perumahan";"Pembangunan Perumahan";"LAESI MENTARI";"kp.margamukti No.rt08rw01, Cilandak, Kec. Cibatu, Kabupaten Purwakarta, Jawa Barat 41181";"Cilandak, Kec. Cibatu, Kabupaten Purwakarta";"JAWA BARAT";"41181";"Indonesia";"";"";"";"-6.5027814";"107.5238888";"https://maps.google.com/?cid=0x0:0xfeaae571c995fb9c";""
"perumahan";"perumahan";"Perum Cipinang Cibendasari Cibatu";"FHW2+W92, Cipinang, Kec. Cibatu, Kabupaten Purwakarta, Jawa Barat 41181";"Cipinang, Kec. Cibatu, Kabupaten Purwakarta";"JAWA BARAT";"41181";"Indonesia";"";"";"";"-6.502736";"107.5509042";"https://maps.google.com/?cid=0x0:0xea63e12fcc93ee84";""
"perumahan";"perumahan";"Rumah idaman";"FHQ3+4W6, Kp cibendasari, Cipinang, Kec. Cibatu, Kabupaten Purwakarta, Jawa Barat 41181";"Kp cibendasari, Cipinang, Kec. Cibatu, Kabupaten Purwakarta";"JAWA BARAT";"41181";"Indonesia";"";"";"";"-6.511883";"107.554551";"https://maps.google.com/?cid=0x0:0xf61fece662016b6";""
"perumahan";"Komplek perumahan";"Rumah orang ganteng";"FGMQ+8Q3, Cipancur, Kec. Cibatu, Kabupaten Purwakarta, Jawa Barat 41181";"Cipancur, Kec. Cibatu, Kabupaten Purwakarta";"JAWA BARAT";"41181";"Indonesia";"";"";"";"-6.517554";"107.54011";"https://maps.google.com/?cid=0x0:0x1771c9b8d4ec5845";""
"perumahan";"Perumahan";"muchtar ks home";"FGQJ+M3F, Cilandak, Kec. Cibatu, Kabupaten Purwakarta, Jawa Barat 41181";"Cilandak, Kec. Cibatu, Kabupaten Purwakarta";"JAWA BARAT";"41181";"Indonesia";"";"";"";"-6.5108024";"107.530157";"https://maps.google.com/?cid=0x0:0x21f3aecee2e0effe";""
"perumahan";"Komplek perumahan";"Nagrog";"GGFH+6W3, Kertamukti, Kec. Campaka, Kabupaten Purwakarta, Jawa Barat 41181";"Kertamukti, Kec. Campaka, Kabupaten Purwakarta";"JAWA BARAT";"41181";"Indonesia";"";"";"";"-6.4846653";"107.5232763";"https://maps.google.com/?cid=0x0:0xa635faa6f0097789";""
"perumahan";"perumahan";"Kec. Cibatu";"Kabupaten Purwakarta, Jawa Barat";"Kabupaten Purwakarta, Jawa Barat";"JAWA BARAT";"";"Indonesia";"";"";"";"-6.5026995";"107.5508467";"https://maps.google.com/?cid=0x0:0x5c90b69493f8649";""
"perumahan";"perumahan";"Nama. Eliplita.";"Kampung karanjan No.001, RT./Rw001, Cibatu, Kec. Cibatu, Kabupaten Purwakarta, Jawa Barat 41181";"RT./Rw001, Cibatu, Kec. Cibatu, Kabupaten Purwakarta";"JAWA BARAT";"41181";"Indonesia";"";"";"";"-6.5011345";"107.5342432";"https://maps.google.com/?cid=0x0:0xcfb438ed50e75d2c";""
"perumahan";"Komplek perumahan";"Rumah Fauzi";"GG4Q+4XF, Karyamekar, Kec. Cibatu, Kabupaten Purwakarta, Jawa Barat 41181";"Karyamekar, Kec. Cibatu, Kabupaten Purwakarta";"JAWA BARAT";"41181";"Indonesia";"";"";"";"-6.4940112";"107.5403323";"https://maps.google.com/?cid=0x0:0xfff17a2bca3ef3f4";""
"perumahan";"perumahan";"Rumah sabil";"GG4J+5W3 Kp. Galayah rt08 rw03, jalan raya, sadang, Kec. Cibatu, Kabupaten Subang, Jawa Barat 41181";"jalan raya, sadang, Kec. Cibatu, Kabupaten Subang";"JAWA BARAT";"41181";"Indonesia";"";"";"";"-6.4946174";"107.532282";"https://maps.google.com/?cid=0x0:0x503b3788e3644be1";""
"perumahan";"Pembangunan Perumahan";"PT.Sinar Griya Utama / Waskita";"GG2J+8VP, Jl. Raya Cibatu, Cibatu, Kec. Cibatu, Kabupaten Purwakarta, Jawa Barat 41181";"Jl. Raya Cibatu, Cibatu, Kec. Cibatu, Kabupaten Purwakarta";"JAWA BARAT";"41181";"Indonesia";"";"";"";"-6.499153";"107.5321976";"https://maps.google.com/?cid=0x0:0x5d7acdc66c20731d";""
"perumahan";"Komplek perumahan";"Nurwanto";"GG2Q+GC9, Cibatu, Kec. Cibatu, Kabupaten Purwakarta, Jawa Barat";"Kabupaten Purwakarta, Jawa Barat";"JAWA BARAT";"";"Indonesia";"";"";"";"-6.4987178";"107.5386236";"https://maps.google.com/?cid=0x0:0x7fccefa80380d80a";""
"perumahan";"Pembangunan Perumahan";"my";"FHW2+WFX, Cipinang, Kec. Cibatu, Kabupaten Purwakarta, Jawa Barat 41181";"Cipinang, Kec. Cibatu, Kabupaten Purwakarta";"JAWA BARAT";"41181";"Indonesia";"";"";"";"-6.5026282";"107.551228";"https://maps.google.com/?cid=0x0:0xbcc525aad2916ab8";""
"perumahan";"perumahan";"Nenek sayur home";"VXVC+Q7J, Cibatu, Kec. Cibatu, Kabupaten Garut, Jawa Barat 44185";"Cibatu, Kec. Cibatu, Kabupaten Garut";"JAWA BARAT";"44185";"Indonesia";"";"";"";"-7.1049882";"107.9709993";"https://maps.google.com/?cid=0x0:0xc71838129d5b0e5";""
"perumahan";"Komplek perumahan";"Rumah Shidqia";"VXR8+7JR, Kp. Salagedang, Cibatu, Kec. Cibatu, Kabupaten Garut, Jawa Barat 44185";"Kp. Salagedang, Cibatu, Kec. Cibatu, Kabupaten Garut";"JAWA BARAT";"44185";"Indonesia";"";"";"";"-7.1092638";"107.9665028";"https://maps.google.com/?cid=0x0:0x2c7cc8f56f53237e";""
"perumahan";"Komplek perumahan";"Heleran Cibatu";"Jl. Keresek - Cibatu Kp No.111, Cileles, Cibatu, Garut Regency, West Java 44185";"Cileles, Cibatu, Garut Regency";"JAWA BARAT";"44185";"Indonesia";"";"";"";"-7.0763304";"107.9825944";"https://maps.google.com/?cid=0x0:0x8973c31261e25b4c";""
"perumahan";"Komplek perumahan";"Perumahan Wanakerta Residence";"Jl. Sukahaji-Wanakerta No.65, Wanakerta, Kec. Cibatu, Kabupaten Garut, Jawa Barat 44185";"Wanakerta, Kec. Cibatu, Kabupaten Garut";"JAWA BARAT";"44185";"Indonesia";" 085798213589";"";"";"-7.1068424";"107.9882063";"https://maps.google.com/?cid=0x0:0xcc1e23d9ab157d4a";""
"perumahan";"perumahan";"Perumahan AKA Sindangsuka Cibatu";"WXRH+QGW, Sindangsuka, Kec. Cibatu, Kabupaten Garut, Jawa Barat 44185";"Sindangsuka, Kec. Cibatu, Kabupaten Garut";"JAWA BARAT";"44185";"Indonesia";"";"";"";"-7.0585637";"107.9786026";"https://maps.google.com/?cid=0x0:0xb15a42d0eccca47d";""
"perumahan";"Komplek perumahan";"SIRNAGALIH";"VXWQ+P7J, Wanakerta, Kec. Cibatu, Kabupaten Garut, Jawa Barat 44185";"Wanakerta, Kec. Cibatu, Kabupaten Garut";"JAWA BARAT";"44185";"Indonesia";"";"";"";"-7.1032025";"107.9882572";"https://maps.google.com/?cid=0x0:0x3e08edee5ce501aa";""
"perumahan";"Komplek perumahan";"Kp. kaum cibatu";"WX3M+36P, Keresek, Kec. Cibatu, Kabupaten Garut, Jawa Barat 44185";"Keresek, Kec. Cibatu, Kabupaten Garut";"JAWA BARAT";"44185";"Indonesia";"";"";"";"-7.0972822";"107.9830672";"https://maps.google.com/?cid=0x0:0xc162c45283b47693";""
"perumahan";"Komplek perumahan";"Kp. Cicantel";"W2F9+R78, Girimukti, Kec. Cibatu, Kabupaten Garut, Jawa Barat 44185";"Girimukti, Kec. Cibatu, Kabupaten Garut";"JAWA BARAT";"44185";"Indonesia";"";"";"";"-7.0754749";"108.0182156";"https://maps.google.com/?cid=0x0:0x5146acf29fdf9c0f";""
"perumahan";"Pembangunan Perumahan";"Warung Ibu Rina";"WXXX+79F, Mekarsari, Kec. Cibatu, Kabupaten Garut, Jawa Barat 44185";"Mekarsari, Kec. Cibatu, Kabupaten Garut";"JAWA BARAT";"44185";"Indonesia";"";"";"";"-7.0518067";"107.9984335";"https://maps.google.com/?cid=0x0:0x78a41b1ad89269b";""
"perumahan";"Perhimpunan Pengembang Perumahan";"rumah kaella";"WXWH+58W, Jl. Keresek - Cibatu, Sindangsuka, Kec. Cibatu, Kabupaten Garut, Jawa Barat 44185";"Jl. Keresek - Cibatu, Sindangsuka, Kec. Cibatu, Kabupaten Garut";"JAWA BARAT";"44185";"Indonesia";"";"";"";"-7.054514";"107.9783435";"https://maps.google.com/?cid=0x0:0x7b32a21b1a8b6e1c";""
"perumahan";"Pembangunan Perumahan";"Riki nurbagja";"WXMW+474, RT.01/RW.07, Mekarsari, Kec. Cibatu, Kabupaten Garut, Jawa Barat 44185";"RT.01/RW.07, Mekarsari, Kec. Cibatu, Kabupaten Garut";"JAWA BARAT";"44185";"Indonesia";"";"";"";"-7.0670294";"107.9955548";"https://maps.google.com/?cid=0x0:0xe7996db0ee30692f";""
"perumahan";"Komplek perumahan";"Rumah";"W2W6+H4F, Kp. Cisalak Jl. St. K.A Bumi Waluya, RT./Rw/RW.03/02, Sukalilah, Kec. Cibatu, Kabupaten Garut, Jawa Barat 44185";"Kp. Cisalak Jl. St. K.A Bumi Waluya, RT./Rw/RW.03/02, Sukalilah, Kec. Cibatu, Kabupaten Garut";"JAWA BARAT";"44185";"Indonesia";"";"";"";"-7.0535598";"108.0102934";"https://maps.google.com/?cid=0x0:0x637e7346f7213c2e";""
"perumahan";"Kantor Perusahaan";"Perumahan Green Wanakerta";"VXRQ+QPV, Jl. Wanakerta - Karesek, Wanakerta, Kec. Cibatu, Kabupaten Garut, Jawa Barat 44185";"Jl. Wanakerta - Karesek, Wanakerta, Kec. Cibatu, Kabupaten Garut";"JAWA BARAT";"44185";"Indonesia";"";"";"";"-7.1080162";"107.9892865";"https://maps.google.com/?cid=0x0:0x96da8a6f893d46f2";""
"perumahan";"Perhimpunan Pengembang Perumahan";"Gular";"W2H9+93R, Kp gular, Girimukti, Kec. Cibatu, Kabupaten Garut, Jawa Barat 44185";"Kp gular, Girimukti, Kec. Cibatu, Kabupaten Garut";"JAWA BARAT";"44185";"Indonesia";"";"";"";"-7.0715582";"108.0180914";"https://maps.google.com/?cid=0x0:0x5baa4364d8a0e5e6";""
"perumahan";"Komplek perumahan";"Rumah Nenek Cibatu";"WX7W+49P, Padasuka, Kec. Cibatu, Kabupaten Garut, Jawa Barat 44185";"Padasuka, Kec. Cibatu, Kabupaten Garut";"JAWA BARAT";"44185";"Indonesia";"";"";"";"-7.0874555";"107.9961483";"https://maps.google.com/?cid=0x0:0xb50cf85553d66f98";""
"perumahan";"perumahan";"Rumah kang atep didin";"babakan alpani rt03 rw03mekarsari, Mekarsari, Kec. Cibatu, Kabupaten Garut, Jawa Barat 44185";"Mekarsari, Kec. Cibatu, Kabupaten Garut";"JAWA BARAT";"44185";"Indonesia";" 0859138412024";"";"";"-7.0492673";"107.9938711";"https://maps.google.com/?cid=0x0:0x4581d06c46171ee7";""
"perumahan";"Gedung Apartemen";"Rumah Keluarga Bapak Awan Kuswandi";"Wanakerta No.13, RT.01/RW.01, Wanakerta, Kec. Cibatu, Kabupaten Garut, Jawa Barat 44185";"RT.01/RW.01, Wanakerta, Kec. Cibatu, Kabupaten Garut";"JAWA BARAT";"44185";"Indonesia";"";"";"";"-7.1022741";"107.9869309";"https://maps.google.com/?cid=0x0:0xc32ff131d9a0f32d";""
"perumahan";"Komplek perumahan";"Rumah Agus";"W2C4+34F, kp karyasari, Karyamukti, Kec. Cibatu, Kabupaten Garut, Jawa Barat 44185";"kp karyasari, Karyamukti, Kec. Cibatu, Kabupaten Garut";"JAWA BARAT";"44185";"Indonesia";"";"";"";"-7.0798203";"108.0052953";"https://maps.google.com/?cid=0x0:0x916038972f14aca7";""
"perumahan";"Komplek perumahan";"PERUM BUKIT BIDURI INDAH";"WX8X+GH2, Karyamukti, Kec. Cibatu, Kabupaten Garut, Jawa Barat 44185";"Karyamukti, Kec. Cibatu, Kabupaten Garut";"JAWA BARAT";"44185";"Indonesia";"";"";"";"-7.0837351";"107.9988878";"https://maps.google.com/?cid=0x0:0x1d12f7da890ab965";""
"perumahan";"perumahan";"Jawa Barat 44185";"Kec. Cibatu, Kabupaten Garut, Jawa Barat";"Kabupaten Garut, Jawa Barat";"JAWA BARAT";"";"Indonesia";"";"";"";"-7.0876823";"108.0124469";"https://maps.google.com/?cid=0x0:0x1c00c5eb568ed7f0";""
"perumahan";"Perhimpunan Pengembang Perumahan";"RUMAH IQBAL";"WXJM+PP4, Sindangsuka, Kec. Cibatu, Kabupaten Garut, Jawa Barat 44185";"Sindangsuka, Kec. Cibatu, Kabupaten Garut";"JAWA BARAT";"44185";"Indonesia";"";"";"";"-7.0682358";"107.9843437";"https://maps.google.com/?cid=0x0:0xe8f2e2db6063731a";""
"perumahan";"Tujuan Wisata";"Kp. Cipanas Desa";"VXPH+3VG, Kertajaya, Kec. Cibatu, Kabupaten Garut, Jawa Barat 44185";"Kertajaya, Kec. Cibatu, Kabupaten Garut";"JAWA BARAT";"44185";"Indonesia";"";"";"";"-7.1148012";"107.9797114";"https://maps.google.com/?cid=0x0:0xe6ea8da5fe5f57b8";""
"perumahan";"Komplek perumahan";"Rumah F  F";"Jl. Keresek - Cibatu No.777, Sindangsuka, Kec. Cibatu, Kabupaten Garut, Jawa Barat 44185";"Sindangsuka, Kec. Cibatu, Kabupaten Garut";"JAWA BARAT";"44185";"Indonesia";"";"";"";"-7.058403";"107.978002";"https://maps.google.com/?cid=0x0:0x4ce771060a85b15d";""
"perumahan";"Komplek perumahan";"Rumah bapa maskan";"VXQ9+348, Kertajaya, Kec. Cibatu, Kabupaten Garut, Jawa Barat 44185";"Kertajaya, Kec. Cibatu, Kabupaten Garut";"JAWA BARAT";"44185";"Indonesia";"";"";"";"-7.112651";"107.966875";"https://maps.google.com/?cid=0x0:0x412c9dc81095ef6f";""
"perumahan";"perumahan";"Rumah Salimtnwidjaya";"W2G7+FWR jabal, Kp, RT.02/RW.08 desa, Girimukti, Cibatu, Garut Regency, West Java 44185";"Kp, RT.02/RW.08 desa, Girimukti, Cibatu, Garut Regency";"JAWA BARAT";"44185";"Indonesia";"";"";"";"-7.0737566";"108.0147657";"https://maps.google.com/?cid=0x0:0xc27a2e8b07f2aa31";""
"perumahan";"Pembangunan Perumahan";"Safaniya Village house";"WXGR+JC6, Cibunar, Kec. Cibatu, Kabupaten Garut, Jawa Barat 44185";"Cibunar, Kec. Cibatu, Kabupaten Garut";"JAWA BARAT";"44185";"Indonesia";"";"";"";"-7.0734615";"107.99101";"https://maps.google.com/?cid=0x0:0xc9605dbf125335d4";""
"perumahan";"Komplek perumahan";"Yonk LPG";"WXHX+R9V, Sukalilah, Kec. Cibatu, Kabupaten Garut, Jawa Barat 44185";"Sukalilah, Kec. Cibatu, Kabupaten Garut";"JAWA BARAT";"44185";"Indonesia";"";"";"";"-7.070399";"107.9984087";"https://maps.google.com/?cid=0x0:0x2d8fda100d3d3cfd";""
"perumahan";"Komplek perumahan";"Rumah Wawan";"WX3M+X2V, Keresek, Kec. Cibatu, Kabupaten Garut, Jawa Barat 44185";"Keresek, Kec. Cibatu, Kabupaten Garut";"JAWA BARAT";"44185";"Indonesia";"";"";"";"-7.0950112";"107.98255";"https://maps.google.com/?cid=0x0:0x4fea95b4326988ba";""
"perumahan";"Pembangunan Perumahan";"Sukarya Family";"WX7X+R7J, Jl. Sukamerang - Karesek, Padasuka, Kec. Cibatu, Kabupaten Garut, Jawa Barat 44185";"Jl. Sukamerang - Karesek, Padasuka, Kec. Cibatu, Kabupaten Garut";"JAWA BARAT";"44185";"Indonesia";"";"";"";"-7.0853356";"107.9985552";"https://maps.google.com/?cid=0x0:0xbd4bd2b825e007d4";""
"perumahan";"Pembangunan Perumahan";"Kecamatan cibiuk";"WXM7+P9Q, Cibiuk Kaler, Kec. Cibiuk, Kabupaten Garut, Jawa Barat";"Kabupaten Garut, Jawa Barat";"JAWA BARAT";"";"Indonesia";" 083832893573";"";"";"-7.0656659";"107.9634958";"https://maps.google.com/?cid=0x0:0x619455e648872a81";""
"perumahan";"perumahan";"CIBIUK RESIDENCE";"WXV9+6G, Cibiuk Kaler, Kec. Cibiuk, Kabupaten Garut, Jawa Barat";"Kabupaten Garut, Jawa Barat";"JAWA BARAT";"";"Indonesia";" 085323066275";"";"";"-7.0569423";"107.968841";"https://maps.google.com/?cid=0x0:0x8a39369c55b3d78";""
"perumahan";"Indonesia";"Cibiuk";"WWVQ+48X, Lingkungpasir, Kec. Cibiuk, Kabupaten Garut, Jawa Barat 44193";"Lingkungpasir, Kec. Cibiuk, Kabupaten Garut";"JAWA BARAT";"44193";"Indonesia";"";"";"";"-7.0571302";"107.9383696";"https://maps.google.com/?cid=0x0:0xdcc8acec5b7644df";""
"perumahan";"Pembangunan Perumahan";"Garut";"WW8X+F9V, Simpangsari, Kec. Cibiuk, Kabupaten Garut, Jawa Barat";"Kabupaten Garut, Jawa Barat";"JAWA BARAT";"";"Indonesia";"";"";"";"-7.0837655";"107.9484205";"https://maps.google.com/?cid=0x0:0x3c6999eba4dedc1";""
"perumahan";"Kantor Perusahaan";"Pesantren, Cipareuan, Cibiuk, Garut, Jawa Barat";"WX74+QX, Cipareuan, Kec. Cibiuk, Kabupaten Garut, Jawa Barat 44193";"Cipareuan, Kec. Cibiuk, Kabupaten Garut";"JAWA BARAT";"44193";"Indonesia";"";"";"";"-7.0855774";"107.9573951";"https://maps.google.com/?cid=0x0:0x97596296b2bfc7cf";""
"perumahan";"Gedung Apartemen";"Home sweet home";"WX93+Q46, Unnamed Road, Cipareuan, Kec. Cibiuk, Kabupaten Garut, Jawa Barat 44193";"Unnamed Road, Cipareuan, Kec. Cibiuk, Kabupaten Garut";"JAWA BARAT";"44193";"Indonesia";"";"";"";"-7.0805884";"107.9527612";"https://maps.google.com/?cid=0x0:0x1a2494b13bb56ed5";""
"perumahan";"Perhimpunan Pengembang Perumahan";"Rumah Bunyamin,S.Ag";"WXQ8+XQG, Cibiuk Kaler, Kec. Cibiuk, Kabupaten Garut, Jawa Barat 44193";"Cibiuk Kaler, Kec. Cibiuk, Kabupaten Garut";"JAWA BARAT";"44193";"Indonesia";"";"";"";"-7.0600753";"107.9668354";"https://maps.google.com/?cid=0x0:0x84f701302fa6b506";""
"perumahan";"Komplek perumahan";"Perum Graha Pancar Cibiuk";"WXM8+M8M, Cibiuk Kaler, Kec. Cibiuk, Kabupaten Garut, Jawa Barat 44193";"Cibiuk Kaler, Kec. Cibiuk, Kabupaten Garut";"JAWA BARAT";"44193";"Indonesia";"";"";"";"-7.0660019";"107.9671432";"https://maps.google.com/?cid=0x0:0x6093e7da81539a44";""
"perumahan";"Inspektur Tempat Tinggal";"Rumah Tinggal";"XX23+VHM, Majasari, Kec. Cibiuk, Kabupaten Garut, Jawa Barat 44193";"Majasari, Kec. Cibiuk, Kabupaten Garut";"JAWA BARAT";"44193";"Indonesia";"";"";"";"-7.047779";"107.9539263";"https://maps.google.com/?cid=0x0:0x7c4825e669ffb27c";""
"perumahan";"perumahan";"Cangkudu";"WXF8+3X7, Cibiuk Kidul, Kec. Cibiuk, Kabupaten Garut, Jawa Barat 44193";"Cibiuk Kidul, Kec. Cibiuk, Kabupaten Garut";"JAWA BARAT";"44193";"Indonesia";"";"";"";"-7.0774399";"107.9674988";"https://maps.google.com/?cid=0x0:0xda8ab2b18f0070ec";""
"perumahan";"Komplek perumahan";"Perumahan Ganesha Bukit Asri";"Majasari, Kec. Cibiuk, Kabupaten Garut, Jawa Barat 44193";"Kec. Cibiuk, Kabupaten Garut";"JAWA BARAT";"44193";"Indonesia";" 082114023375";"";"";"-7.0536994";"107.9668324";"https://maps.google.com/?cid=0x0:0x824aecfbf0a60a4a";""
"perumahan";"perumahan";"Jalan alternatif menuju cibiuk kidul";"WXJ7+95, Cibiuk Kaler, Kec. Cibiuk, Kabupaten Garut, Jawa Barat 44193";"Cibiuk Kaler, Kec. Cibiuk, Kabupaten Garut";"JAWA BARAT";"44193";"Indonesia";"";"";"";"-7.0690812";"107.9629763";"https://maps.google.com/?cid=0x0:0x78e68c3ab8a55ab5";""
"perumahan";"Pembangunan Perumahan";"Perum Kiara Indah";"XX4C+GVJ, Jl. Kiaralawang, Majasari, Kec. Cibiuk, Kabupaten Garut, Jawa Barat 44193";"Jl. Kiaralawang, Majasari, Kec. Cibiuk, Kabupaten Garut";"JAWA BARAT";"44193";"Indonesia";"";"";"";"-7.0436568";"107.9721406";"https://maps.google.com/?cid=0x0:0x2593626158cb9256";""
"perumahan";"Komplek perumahan";"rumah cibiuk";"WXH9+CH4, Kampung Nagrak Kaler, Majasari, Kec. Cibiuk, Kabupaten Garut, Jawa Barat 44193";"Kampung Nagrak Kaler, Majasari, Kec. Cibiuk, Kabupaten Garut";"JAWA BARAT";"44193";"Indonesia";"";"";"";"-7.0714875";"107.9689531";"https://maps.google.com/?cid=0x0:0x88dc5ed2bf6ba278";""
"perumahan";"Pembangunan Perumahan";"Iwan farid setiawan";"WXM8+QQP, Kl.pulo baru, Cibiuk Kaler, Kec. Cibiuk, Kabupaten Garut, Jawa Barat 44193";"Kl.pulo baru, Cibiuk Kaler, Kec. Cibiuk, Kabupaten Garut";"JAWA BARAT";"44193";"Indonesia";"";"";"";"-7.0655366";"107.9669633";"https://maps.google.com/?cid=0x0:0x5fad5ecbfb9fee06";""
"perumahan";"Komplek perumahan";"Lokasi acara pernikahan";"WXX4+XJ4, Majasari, Kec. Cibiuk, Kabupaten Garut, Jawa Barat 44193";"Majasari, Kec. Cibiuk, Kabupaten Garut";"JAWA BARAT";"44193";"Indonesia";"";"";"";"-7.0500888";"107.95668";"https://maps.google.com/?cid=0x0:0xc05b30fd0c830954";""
"perumahan";"Perhimpunan Pengembang Perumahan";"Rumah Limbangan Hj.Kukun Kurnaeni";"XX4F+RHR, Jl. Babakan Kiaralawang, Majasari, Kec. Cibiuk, Kabupaten Garut, Jawa Barat 44193";"Jl. Babakan Kiaralawang, Majasari, Kec. Cibiuk, Kabupaten Garut";"JAWA BARAT";"44193";"Indonesia";"";"";"";"-7.0427622";"107.9741716";"https://maps.google.com/?cid=0x0:0x62430a137bc19c1b";""
"perumahan";"Komplek perumahan";"Rumah Ibu Lilis (Lisna, Listi, Gumelar)";"WXC4+8F4, Cipareuan, Kec. Cibiuk, Kabupaten Garut, Jawa Barat 44193";"Cipareuan, Kec. Cibiuk, Kabupaten Garut";"JAWA BARAT";"44193";"Indonesia";"";"";"";"-7.0791855";"107.9560957";"https://maps.google.com/?cid=0x0:0xae5409e1f3f826c";""
"perumahan";"Perhimpunan Pengembang Perumahan";"Rumah";"WXX8+7FV, Jl. Raya Leuwigoong, Majasari, Kec. Cibiuk, Kabupaten Garut, Jawa Barat 44193";"Jl. Raya Leuwigoong, Majasari, Kec. Cibiuk, Kabupaten Garut";"JAWA BARAT";"44193";"Indonesia";"";"";"";"-7.0517692";"107.9661819";"https://maps.google.com/?cid=0x0:0xd74390f92a33c294";""
"perumahan";"perumahan";"Kec. Cibiuk";"Kabupaten Garut, Jawa Barat";"Kabupaten Garut, Jawa Barat";"JAWA BARAT";"";"Indonesia";"";"";"";"-7.0656982";"107.9635434";"https://maps.google.com/?cid=0x0:0x87935365f6038db";""
"perumahan";"Perhimpunan Pengembang Perumahan";"kp cijeler Kaler";"WXM7+P9Q, Cibiuk Kaler, Kec. Cibiuk, Kabupaten Garut, Jawa Barat";"Kabupaten Garut, Jawa Barat";"JAWA BARAT";"";"Indonesia";"";"";"";"-7.0656659";"107.9634958";"https://maps.google.com/?cid=0x0:0x23403a4c832b7b6c";""
"perumahan";"Komplek perumahan";"Rumahth santi";"WXHG+75W, Cibiuk Kaler, Kec. Cibiuk, Kabupaten Garut, Jawa Barat 44193";"Cibiuk Kaler, Kec. Cibiuk, Kabupaten Garut";"JAWA BARAT";"44193";"Indonesia";"";"";"";"-7.0717531";"107.9746939";"https://maps.google.com/?cid=0x0:0xc9a374daf6e0e3a5";""
"perumahan";"Pembangunan Perumahan";"Perumahan Pesona Cibiuk";"WXH6+MW8, Cibiuk Kaler, Limbangan Tengah, Balubur Limbangan, Garut Regency, West Java 44186";"Cibiuk Kaler, Limbangan Tengah, Balubur Limbangan, Garut Regency";"JAWA BARAT";"44186";"Indonesia";" 082216985610";"";"";"-7.0708461";"107.9623129";"https://maps.google.com/?cid=0x0:0x28d36ca4f51fd02f";""
"perumahan";"Pembangunan Perumahan";"ARDANIA LAND CIBIUK";"WXR8+J85, Cibiuk Kaler, Kec. Cibiuk, Kabupaten Garut, Jawa Barat 44193";"Cibiuk Kaler, Kec. Cibiuk, Kabupaten Garut";"JAWA BARAT";"44193";"Indonesia";"";"";"";"-7.0584825";"107.9658641";"https://maps.google.com/?cid=0x0:0x655083d582010f43";""
"perumahan";"Perhimpunan Pengembang Perumahan";"Rumah";"MRV7+7VP, Sindangsari, Kec. Cigedug, Kabupaten Garut, Jawa Barat 44116";"Sindangsari, Kec. Cigedug, Kabupaten Garut";"JAWA BARAT";"44116";"Indonesia";"";"";"";"-7.3067859";"107.8146985";"https://maps.google.com/?cid=0x0:0xd9bb3d2300a66786";""
"perumahan";"Komplek perumahan";"Rumah gajrot";"JRQC+9C6 MH Florist, Barusuda, Kec. Cigedug, Kabupaten Garut, Jawa Barat 44116";"Barusuda, Kec. Cigedug, Kabupaten Garut";"JAWA BARAT";"44116";"Indonesia";"";"";"";"-7.361859";"107.8207667";"https://maps.google.com/?cid=0x0:0x69d5b583254bcf96";""
"perumahan";"Komplek perumahan";"Rumah.atu";"JRW8+HC4, Barusuda, Kec. Cigedug, Kabupaten Garut, Jawa Barat 44116";"Barusuda, Kec. Cigedug, Kabupaten Garut";"JAWA BARAT";"44116";"Indonesia";"";"";"";"-7.3539609";"107.8161732";"https://maps.google.com/?cid=0x0:0x25601a4502a2c494";""
"perumahan";"Komplek perumahan";"Rumah keluarga Ayi Sanjaya";"MR26+889, Cigedug, Kec. Cigedug, Kabupaten Garut, Jawa Barat 44116";"Cigedug, Kec. Cigedug, Kabupaten Garut";"JAWA BARAT";"44116";"Indonesia";"";"";"";"-7.3491475";"107.8107737";"https://maps.google.com/?cid=0x0:0xa2abfad96390898d";""
"perumahan";"perumahan";"Rumah Andin";"MR83+2XR, Cigedug, Kec. Cigedug, Kabupaten Garut, Jawa Barat 44116";"Cigedug, Kec. Cigedug, Kabupaten Garut";"JAWA BARAT";"44116";"Indonesia";"";"";"";"-7.3347315";"107.8048277";"https://maps.google.com/?cid=0x0:0x48aed67c083d1c87";""
"perumahan";"Komplek perumahan";"Rumah icaa";"MRWH+338, Cintanagara, Kec. Cigedug, Kabupaten Garut, Jawa Barat";"Kabupaten Garut, Jawa Barat";"JAWA BARAT";"";"Indonesia";" 083865795843";"";"";"-7.3048338";"107.8277086";"https://maps.google.com/?cid=0x0:0x81775b6a299e4665";""
"perumahan";"perumahan";"Rumah jobeng";"MR83+M7Q, Cigedug, Kec. Cigedug, Kabupaten Garut, Jawa Barat 44116";"Cigedug, Kec. Cigedug, Kabupaten Garut";"JAWA BARAT";"44116";"Indonesia";"";"";"";"-7.3333561";"107.8031896";"https://maps.google.com/?cid=0x0:0x29a20edf2708d45a";""
"perumahan";"perumahan";"Rumah hasya";"Sindangsari, Kec. Cigedug, Kabupaten Garut, Jawa Barat 44116";"Kec. Cigedug, Kabupaten Garut";"JAWA BARAT";"44116";"Indonesia";"";"";"";"-7.3148939";"107.8198844";"https://maps.google.com/?cid=0x0:0x9026c55ee70b1158";""
