Category;Real Category;Business Name;Address;City;State;Postal Code;Country;Phone;Email;Website;Latitude;Longitude;Map Link;Details Link
"komplek housing";"komplek housing";"Kec. Balantak";"Kabupaten Banggai, Sulawesi Tengah";"Kabupaten Banggai, Sulawesi Tengah";"SULAWESI TENGAH";"";"Indonesia";"";"";"";"-0.8814324";"123.3962452";"https://maps.google.com/?cid=0x0:0x4030bfbcaf77ee0";""
"komplek housing";"komplek housing";"Nazwa atika";"499P+CWQ, Dale-Dale, Kec. Balantak, Kabupaten Banggai, Sulawesi Tengah 94773";"Dale-Dale, Kec. Balantak, Kabupaten Banggai";"SULAWESI TENGAH";"94773";"Indonesia";"";"";"";"-0.8814106";"123.3873663";"https://maps.google.com/?cid=0x0:0x539287e0a60169e0";""
"komplek housing";"Pembangunan Perumahan";"Julia Home";"484R+8Q8, Talima B, Kec. Balantak, Kabupaten Banggai, Sulawesi Tengah 94773";"Talima B, Kec. Balantak, Kabupaten Banggai";"SULAWESI TENGAH";"94773";"Indonesia";"";"";"";"-0.8948785";"123.3428381";"https://maps.google.com/?cid=0x0:0x397c7b12a291f4a7";""
"komplek housing";"Komplek perumahan";"R. Salatun";"49HQ+65C, Dale-Dale, Kec. Balantak, Kabupaten Banggai, Sulawesi Tengah 94773";"Dale-Dale, Kec. Balantak, Kabupaten Banggai";"SULAWESI TENGAH";"94773";"Indonesia";"";"";"";"-0.8719408";"123.3878855";"https://maps.google.com/?cid=0x0:0x693d7192c5a87e52";""
"komplek housing";"komplek housing";"Tongke balantak selatan";"39QJ+6P9, Gorontalo, Kec. Balantak Sel., Kabupaten Banggai, Sulawesi Tengah";"Kabupaten Banggai, Sulawesi Tengah";"SULAWESI TENGAH";"";"Indonesia";"";"";"";"-0.9119625";"123.3818594";"https://maps.google.com/?cid=0x0:0x4c4c11e44d45274e";""
"komplek housing";"Komplek perumahan";"Tanotu";"49F4+75F, Tanotu, Kec. Balantak, Kabupaten Banggai, Sulawesi Tengah 94773";"Tanotu, Kec. Balantak, Kabupaten Banggai";"SULAWESI TENGAH";"94773";"Indonesia";"";"";"";"-0.876512";"123.3557894";"https://maps.google.com/?cid=0x0:0xb6e5cd9eca0d8122";""
"komplek housing";"Komplek perumahan";"Rumahku";"49F4+75F, Tanotu, Kec. Balantak, Kabupaten Banggai, Sulawesi Tengah";"Kabupaten Banggai, Sulawesi Tengah";"SULAWESI TENGAH";"";"Indonesia";"";"";"";"-0.8768125";"123.3554219";"https://maps.google.com/?cid=0x0:0x9b347ee016658157";""
"komplek housing";"Komplek perumahan";"Rumah Rety";"39JH+6PR, Tongke, Kec. Balantak Sel., Kabupaten Banggai, Sulawesi Tengah 94773";"Tongke, Kec. Balantak Sel., Kabupaten Banggai";"SULAWESI TENGAH";"94773";"Indonesia";"";"";"";"-0.9193821";"123.3792904";"https://maps.google.com/?cid=0x0:0x9fe3fa6ebef28f0a";""
"komplek housing";"Kantor Pemerintah";"Desa Kiloma";"48FX+8Q8, Kiloma, Kec. Balantak, Kabupaten Banggai, Sulawesi Tengah 94773";"Kiloma, Kec. Balantak, Kabupaten Banggai";"SULAWESI TENGAH";"94773";"Indonesia";"";"";"";"-0.876717";"123.3494409";"https://maps.google.com/?cid=0x0:0xd57dc978d85e6eef";""
"komplek housing";"Pembangunan Perumahan";"Adhy";"49CC+G9F, Mamping, Kec. Balantak, Kabupaten Banggai, Sulawesi Tengah";"Kabupaten Banggai, Sulawesi Tengah";"SULAWESI TENGAH";"";"Indonesia";"";"";"";"-0.878888";"123.370012";"https://maps.google.com/?cid=0x0:0xafb323ff4ce672ae";""
"komplek housing";"Komplek perumahan";"Abhigael (nlyn)";"492R+F62, Tanggawas, Kec. Balantak Sel., Kabupaten Banggai, Sulawesi Tengah";"Kabupaten Banggai, Sulawesi Tengah";"SULAWESI TENGAH";"";"Indonesia";"";"";"";"-0.899454";"123.3919054";"https://maps.google.com/?cid=0x0:0xb17bca4bcc14adba";""
"komplek housing";"komplek housing";"Rumah Ede tibo";"39Q3+3MQ, Tongke, Kec. Balantak Sel., Kabupaten Banggai, Sulawesi Tengah 94773";"Tongke, Kec. Balantak Sel., Kabupaten Banggai";"SULAWESI TENGAH";"94773";"Indonesia";"";"";"";"-0.9122902";"123.3542258";"https://maps.google.com/?cid=0x0:0x206563332fa0db63";""
"komplek housing";"Pembangunan Perumahan";"Lorong komba";"484H+5HQ, Talima B, Kec. Balantak, Kabupaten Banggai, Sulawesi Tengah 94773";"Talima B, Kec. Balantak, Kabupaten Banggai";"SULAWESI TENGAH";"94773";"Indonesia";"";"";"";"-0.8945384";"123.3289733";"https://maps.google.com/?cid=0x0:0x97d03c81e4b17f77";""
"komplek housing";"Komplek perumahan";"Miki lasandre";"499Q+6CX, Dale-Dale, Kec. Balantak, Kabupaten Banggai, Sulawesi Tengah 94773";"Dale-Dale, Kec. Balantak, Kabupaten Banggai";"SULAWESI TENGAH";"94773";"Indonesia";"";"";"";"-0.88132";"123.387523";"https://maps.google.com/?cid=0x0:0x8a3ba1678038268d";""
"komplek housing";"Komplek perumahan";"RUMAH KELUARGA MALOTA";"499W+766, Balantak, Kec. Balantak, Kabupaten Banggai, Sulawesi Tengah 94773";"Balantak, Kec. Balantak, Kabupaten Banggai";"SULAWESI TENGAH";"94773";"Indonesia";"";"";"";"-0.8818473";"123.3955203";"https://maps.google.com/?cid=0x0:0x604163b19f86e4ea";""
"komplek housing";"Komplek perumahan";"Rumah Roni Nursin";"499Q+6CX, Dale-Dale, Kec. Balantak, Kabupaten Banggai, Sulawesi Tengah 94773";"Dale-Dale, Kec. Balantak, Kabupaten Banggai";"SULAWESI TENGAH";"94773";"Indonesia";"";"";"";"-0.881352";"123.387811";"https://maps.google.com/?cid=0x0:0xaf6b6609145719c8";""
"komplek housing";"Komplek perumahan";"Riksan salatun";"499Q+6CX, Dale-Dale, Kec. Balantak, Kabupaten Banggai, Sulawesi Tengah 94773";"Dale-Dale, Kec. Balantak, Kabupaten Banggai";"SULAWESI TENGAH";"94773";"Indonesia";"";"";"";"-0.881275";"123.387219";"https://maps.google.com/?cid=0x0:0x32d24f37506d0b74";""
"komplek housing";"Kantor Pemerintah";"Kelurahan dale dale";"499W+CFM, Balantak, Kec. Balantak, Kabupaten Banggai, Sulawesi Tengah 94773";"Balantak, Kec. Balantak, Kabupaten Banggai";"SULAWESI TENGAH";"94773";"Indonesia";"";"";"";"-0.8814022";"123.3961786";"https://maps.google.com/?cid=0x0:0xfc4c5a67291715f4";""
"komplek housing";"Komplek perumahan";"Rumah Sasna";"5958+W5G, Mamping, Kec. Balantak, Kabupaten Banggai, Sulawesi Tengah 94773";"Mamping, Kec. Balantak, Kabupaten Banggai";"SULAWESI TENGAH";"94773";"Indonesia";"";"";"";"-0.8401938";"123.365447";"https://maps.google.com/?cid=0x0:0x206bd573e7a23150";""
"komplek housing";"Komplek perumahan";"Rumah Gili";"39PM+2PX, Giwang, Kec. Balantak Sel., Kabupaten Banggai, Sulawesi Tengah 94773";"Giwang, Kec. Balantak Sel., Kabupaten Banggai";"SULAWESI TENGAH";"94773";"Indonesia";"";"";"";"-0.9146742";"123.3829933";"https://maps.google.com/?cid=0x0:0x8079024b0669d8db";""
"komplek housing";"Komplek perumahan";"Posko KKN UNISMUH Angkatan XXXVI";"49F4+4JW, Tanotu, Kec. Balantak, Kabupaten Banggai, Sulawesi Tengah 94773";"Tanotu, Kec. Balantak, Kabupaten Banggai";"SULAWESI TENGAH";"94773";"Indonesia";"";"";"";"-0.8769229";"123.3566349";"https://maps.google.com/?cid=0x0:0x12bfcb7098294e85";""
"komplek housing";"Pembangunan Perumahan";"Rumah wandi";"39PM+2PX, Giwang, Kec. Balantak Sel., Kabupaten Banggai, Sulawesi Tengah 94773";"Giwang, Kec. Balantak Sel., Kabupaten Banggai";"SULAWESI TENGAH";"94773";"Indonesia";"";"";"";"-0.9164325";"123.3827607";"https://maps.google.com/?cid=0x0:0x979d6427c0ed3d85";""
"komplek housing";"Rumah Kayu";"Tongke";"39P8+VHW, Tongke, Kec. Balantak Sel., Kabupaten Banggai, Sulawesi Tengah 94773";"Tongke, Kec. Balantak Sel., Kabupaten Banggai";"SULAWESI TENGAH";"94773";"Indonesia";"";"";"";"-0.912773";"123.366462";"https://maps.google.com/?cid=0x0:0x42435a81749e47dc";""
"komplek housing";"Pembangunan Perumahan";"Yoga";"39XP+XG5, Poyang, Kec. Balantak Sel., Kabupaten Banggai, Sulawesi Tengah 94773";"Poyang, Kec. Balantak Sel., Kabupaten Banggai";"SULAWESI TENGAH";"94773";"Indonesia";"";"";"";"-0.9001076";"123.3863538";"https://maps.google.com/?cid=0x0:0xaa93c7651a19883d";""
"komplek housing";"komplek housing";"Kec. Balantak Sel.";"Kabupaten Banggai, Sulawesi Tengah";"Kabupaten Banggai, Sulawesi Tengah";"SULAWESI TENGAH";"";"Indonesia";"";"";"";"-0.9119621";"123.3818628";"https://maps.google.com/?cid=0x0:0xb20df1eaa1d315f7";""
"komplek housing";"komplek housing";"Tongke balantak selatan";"39QJ+6P9, Gorontalo, Kec. Balantak Sel., Kabupaten Banggai, Sulawesi Tengah";"Kabupaten Banggai, Sulawesi Tengah";"SULAWESI TENGAH";"";"Indonesia";"";"";"";"-0.9119625";"123.3818594";"https://maps.google.com/?cid=0x0:0x4c4c11e44d45274e";""
"komplek housing";"komplek housing";"Nazwa atika";"499P+CWQ, Dale-Dale, Kec. Balantak, Kabupaten Banggai, Sulawesi Tengah 94773";"Dale-Dale, Kec. Balantak, Kabupaten Banggai";"SULAWESI TENGAH";"94773";"Indonesia";"";"";"";"-0.8814106";"123.3873663";"https://maps.google.com/?cid=0x0:0x539287e0a60169e0";""
"komplek housing";"Komplek perumahan";"Mikyy cell";"499Q+6CX, Dale-Dale, Kec. Balantak, Kabupaten Banggai, Sulawesi Tengah 94773";"Dale-Dale, Kec. Balantak, Kabupaten Banggai";"SULAWESI TENGAH";"94773";"Indonesia";"";"";"";"-0.8813666";"123.3874787";"https://maps.google.com/?cid=0x0:0x6eb5a0e2e25728b9";""
"komplek housing";"Komplek perumahan";"Abhigael (nlyn)";"492R+F62, Tanggawas, Kec. Balantak Sel., Kabupaten Banggai, Sulawesi Tengah";"Kabupaten Banggai, Sulawesi Tengah";"SULAWESI TENGAH";"";"Indonesia";"";"";"";"-0.899454";"123.3919054";"https://maps.google.com/?cid=0x0:0xb17bca4bcc14adba";""
"komplek housing";"komplek housing";"Rumah Ede tibo";"39Q3+3MQ, Tongke, Kec. Balantak Sel., Kabupaten Banggai, Sulawesi Tengah 94773";"Tongke, Kec. Balantak Sel., Kabupaten Banggai";"SULAWESI TENGAH";"94773";"Indonesia";"";"";"";"-0.9122902";"123.3542258";"https://maps.google.com/?cid=0x0:0x206563332fa0db63";""
"komplek housing";"Pembangunan Perumahan";"Julia Home";"484R+8Q8, Talima B, Kec. Balantak, Kabupaten Banggai, Sulawesi Tengah 94773";"Talima B, Kec. Balantak, Kabupaten Banggai";"SULAWESI TENGAH";"94773";"Indonesia";"";"";"";"-0.8948785";"123.3428381";"https://maps.google.com/?cid=0x0:0x397c7b12a291f4a7";""
"komplek housing";"Komplek perumahan";"Rumah Angkhy Daerante";"29VP+P5F, Tombos, Kec. Balantak Sel., Kabupaten Banggai, Sulawesi Tengah 94773";"Tombos, Kec. Balantak Sel., Kabupaten Banggai";"SULAWESI TENGAH";"94773";"Indonesia";"";"";"";"-0.955084";"123.384471";"https://maps.google.com/?cid=0x0:0x640e06af7c72d15b";""
"komplek housing";"Pembangunan Perumahan";"Yoga";"39XP+XG5, Poyang, Kec. Balantak Sel., Kabupaten Banggai, Sulawesi Tengah 94773";"Poyang, Kec. Balantak Sel., Kabupaten Banggai";"SULAWESI TENGAH";"94773";"Indonesia";"";"";"";"-0.9001076";"123.3863538";"https://maps.google.com/?cid=0x0:0xaa93c7651a19883d";""
"komplek housing";"Komplek perumahan";"RUMAH ArkhaFisyah";"28JV+H6R, Tombos, Kec. Balantak Sel., Kabupaten Banggai, Sulawesi Tengah";"Kabupaten Banggai, Sulawesi Tengah";"SULAWESI TENGAH";"";"Indonesia";"";"";"";"-0.9685103";"123.3430033";"https://maps.google.com/?cid=0x0:0x85e6ba918bf655ee";""
"komplek housing";"Rumah Kayu";"Tongke";"39P8+VHW, Tongke, Kec. Balantak Sel., Kabupaten Banggai, Sulawesi Tengah 94773";"Tongke, Kec. Balantak Sel., Kabupaten Banggai";"SULAWESI TENGAH";"94773";"Indonesia";"";"";"";"-0.912773";"123.366462";"https://maps.google.com/?cid=0x0:0x42435a81749e47dc";""
"komplek housing";"Pembangunan Perumahan";"Rumah wandi";"39PM+2PX, Giwang, Kec. Balantak Sel., Kabupaten Banggai, Sulawesi Tengah 94773";"Giwang, Kec. Balantak Sel., Kabupaten Banggai";"SULAWESI TENGAH";"94773";"Indonesia";"";"";"";"-0.9164325";"123.3827607";"https://maps.google.com/?cid=0x0:0x979d6427c0ed3d85";""
"komplek housing";"Komplek perumahan";"Rumah Azahra Uluki";"29VP+F5G, Tombos, Kec. Balantak Sel., Kabupaten Banggai, Sulawesi Tengah 94773";"Tombos, Kec. Balantak Sel., Kabupaten Banggai";"SULAWESI TENGAH";"94773";"Indonesia";"";"";"";"-0.9563153";"123.3854637";"https://maps.google.com/?cid=0x0:0x8fe352a8e9a49b84";""
"komplek housing";"Komplek perumahan";"Rumah Gili";"39PM+2PX, Giwang, Kec. Balantak Sel., Kabupaten Banggai, Sulawesi Tengah 94773";"Giwang, Kec. Balantak Sel., Kabupaten Banggai";"SULAWESI TENGAH";"94773";"Indonesia";"";"";"";"-0.9146742";"123.3829933";"https://maps.google.com/?cid=0x0:0x8079024b0669d8db";""
"komplek housing";"Gedung Apartemen";"Hernilan tarawe";"29VQ+55H, Tombos, Kec. Balantak Sel., Kabupaten Banggai, Sulawesi Tengah 94773";"Tombos, Kec. Balantak Sel., Kabupaten Banggai";"SULAWESI TENGAH";"94773";"Indonesia";"";"";"";"-0.9565529";"123.3875981";"https://maps.google.com/?cid=0x0:0xbe2eb982ad206d8b";""
"komplek housing";"Komplek perumahan";"Rumah pribadi";"39VV+P52, Gorontalo, Kec. Balantak Sel., Kabupaten Banggai, Sulawesi Tengah";"Kabupaten Banggai, Sulawesi Tengah";"SULAWESI TENGAH";"";"Indonesia";"";"";"";"-0.9057386";"123.3928944";"https://maps.google.com/?cid=0x0:0x5155cb2de6452708";""
"komplek housing";"komplek housing";"Rumah Samrut Mbani";"29VP+P5F, Tombos, Kec. Balantak Sel., Kabupaten Banggai, Sulawesi Tengah 94773";"Tombos, Kec. Balantak Sel., Kabupaten Banggai";"SULAWESI TENGAH";"94773";"Indonesia";"";"";"";"-0.955778";"123.38506";"https://maps.google.com/?cid=0x0:0xb7eabcae2f51449c";""
"komplek housing";"Komplek perumahan";"Rumah Roni Nursin";"499Q+6CX, Dale-Dale, Kec. Balantak, Kabupaten Banggai, Sulawesi Tengah 94773";"Dale-Dale, Kec. Balantak, Kabupaten Banggai";"SULAWESI TENGAH";"94773";"Indonesia";"";"";"";"-0.881352";"123.387811";"https://maps.google.com/?cid=0x0:0xaf6b6609145719c8";""
"komplek housing";"Pembangunan Perumahan";"Adhy";"49CC+G9F, Mamping, Kec. Balantak, Kabupaten Banggai, Sulawesi Tengah";"Kabupaten Banggai, Sulawesi Tengah";"SULAWESI TENGAH";"";"Indonesia";"";"";"";"-0.878888";"123.370012";"https://maps.google.com/?cid=0x0:0xafb323ff4ce672ae";""
"komplek housing";"Komplek perumahan";"Miki lasandre";"499Q+6CX, Dale-Dale, Kec. Balantak, Kabupaten Banggai, Sulawesi Tengah 94773";"Dale-Dale, Kec. Balantak, Kabupaten Banggai";"SULAWESI TENGAH";"94773";"Indonesia";"";"";"";"-0.88132";"123.387523";"https://maps.google.com/?cid=0x0:0x8a3ba1678038268d";""
"komplek housing";"Pembangunan Perumahan";"Dina Tatumani";"39XP+XGG, Poyang, Kec. Balantak Sel., Kabupaten Banggai, Sulawesi Tengah 94773";"Poyang, Kec. Balantak Sel., Kabupaten Banggai";"SULAWESI TENGAH";"94773";"Indonesia";"";"";"";"-0.9000468";"123.3865271";"https://maps.google.com/?cid=0x0:0xb4940cf5e8b28e21";""
"komplek housing";"Komplek perumahan";"Hanri manuring";"39VM+F4X, Unnamed Road, Poyang, Kec. Balantak Sel., Kabupaten Banggai, Sulawesi Tengah 94773";"Unnamed Road, Poyang, Kec. Balantak Sel., Kabupaten Banggai";"SULAWESI TENGAH";"94773";"Indonesia";"";"";"";"-0.9062516";"123.3828531";"https://maps.google.com/?cid=0x0:0xd64ad1766ac155fd";""
"komplek housing";"Komplek perumahan";"Tanotu";"49F4+75F, Tanotu, Kec. Balantak, Kabupaten Banggai, Sulawesi Tengah 94773";"Tanotu, Kec. Balantak, Kabupaten Banggai";"SULAWESI TENGAH";"94773";"Indonesia";"";"";"";"-0.876512";"123.3557894";"https://maps.google.com/?cid=0x0:0xb6e5cd9eca0d8122";""
"komplek housing";"Komplek perumahan";"R. Salatun";"49HQ+65C, Dale-Dale, Kec. Balantak, Kabupaten Banggai, Sulawesi Tengah 94773";"Dale-Dale, Kec. Balantak, Kabupaten Banggai";"SULAWESI TENGAH";"94773";"Indonesia";"";"";"";"-0.8719408";"123.3878855";"https://maps.google.com/?cid=0x0:0x693d7192c5a87e52";""
"komplek housing";"Komplek perumahan";"Riksan salatun";"499Q+6CX, Dale-Dale, Kec. Balantak, Kabupaten Banggai, Sulawesi Tengah 94773";"Dale-Dale, Kec. Balantak, Kabupaten Banggai";"SULAWESI TENGAH";"94773";"Indonesia";"";"";"";"-0.881275";"123.387219";"https://maps.google.com/?cid=0x0:0x32d24f37506d0b74";""
"komplek housing";"komplek housing";"Kec. Balantak Utara";"Kabupaten Banggai, Sulawesi Tengah";"Kabupaten Banggai, Sulawesi Tengah";"SULAWESI TENGAH";"";"Indonesia";"";"";"";"-0.820076";"123.4312766";"https://maps.google.com/?cid=0x0:0xf26eb1fcb4582c11";""
"komplek housing";"Pembangunan Perumahan";"Pangkalasean";"895V+43, Pangkalaseang, Kec. Balantak Utara, Kabupaten Banggai, Sulawesi Tengah";"Kabupaten Banggai, Sulawesi Tengah";"SULAWESI TENGAH";"";"Indonesia";"";"";"";"-0.6921487";"123.3927482";"https://maps.google.com/?cid=0x0:0xbcff7cf68d74f881";""
"komplek housing";"Komplek perumahan";"Toweer";"6CGR+2V, Teku, Kec. Balantak Utara, Kabupaten Banggai, Sulawesi Tengah";"Kabupaten Banggai, Sulawesi Tengah";"SULAWESI TENGAH";"";"Indonesia";"";"";"";"-0.7741769";"123.4430881";"https://maps.google.com/?cid=0x0:0x45f0e4e70e11ffe1";""
"komplek housing";"komplek housing";"Nazwa atika";"499P+CWQ, Dale-Dale, Kec. Balantak, Kabupaten Banggai, Sulawesi Tengah 94773";"Dale-Dale, Kec. Balantak, Kabupaten Banggai";"SULAWESI TENGAH";"94773";"Indonesia";"";"";"";"-0.8814106";"123.3873663";"https://maps.google.com/?cid=0x0:0x539287e0a60169e0";""
"komplek housing";"Perhimpunan Pengembang Perumahan";"Mama Risal Panigoro";"7CW3+CMH, Batusimpang, Kec. Balantak, Kabupaten Banggai, Sulawesi Tengah";"Kabupaten Banggai, Sulawesi Tengah";"SULAWESI TENGAH";"";"Indonesia";"";"";"";"-0.7032893";"123.4042412";"https://maps.google.com/?cid=0x0:0x450486f3348de446";""
"komplek housing";"Komplek perumahan";"Rumah deagani";"6CGP+PP, Teku, Kec. Balantak Utara, Kabupaten Banggai, Sulawesi Tengah";"Kabupaten Banggai, Sulawesi Tengah";"SULAWESI TENGAH";"";"Indonesia";"";"";"";"-0.773168";"123.436796";"https://maps.google.com/?cid=0x0:0xf2d9e462fb120b9e";""
"komplek housing";"Komplek perumahan";"Mikyy cell";"499Q+6CX, Dale-Dale, Kec. Balantak, Kabupaten Banggai, Sulawesi Tengah 94773";"Dale-Dale, Kec. Balantak, Kabupaten Banggai";"SULAWESI TENGAH";"94773";"Indonesia";"";"";"";"-0.8813666";"123.3874787";"https://maps.google.com/?cid=0x0:0x6eb5a0e2e25728b9";""
"komplek housing";"Komplek perumahan";"Rumah Sasna";"5958+W5G, Mamping, Kec. Balantak, Kabupaten Banggai, Sulawesi Tengah 94773";"Mamping, Kec. Balantak, Kabupaten Banggai";"SULAWESI TENGAH";"94773";"Indonesia";"";"";"";"-0.8401938";"123.365447";"https://maps.google.com/?cid=0x0:0x206bd573e7a23150";""
"komplek housing";"Komplek perumahan";"Rumah sutarwin dilosi";"599X+6JX, Kampangar, Kec. Balantak Utara, Kabupaten Banggai, Sulawesi Tengah";"Kabupaten Banggai, Sulawesi Tengah";"SULAWESI TENGAH";"";"Indonesia";"";"";"";"-0.8318835";"123.3991028";"https://maps.google.com/?cid=0x0:0xf1a20744ad73dd39";""
"komplek housing";"Komplek perumahan";"R. Salatun";"49HQ+65C, Dale-Dale, Kec. Balantak, Kabupaten Banggai, Sulawesi Tengah 94773";"Dale-Dale, Kec. Balantak, Kabupaten Banggai";"SULAWESI TENGAH";"94773";"Indonesia";"";"";"";"-0.8719408";"123.3878855";"https://maps.google.com/?cid=0x0:0x693d7192c5a87e52";""
"komplek housing";"Komplek perumahan";"Mamping";"49X9+GG7, Mamping, Kec. Balantak, Kabupaten Banggai, Sulawesi Tengah";"Kabupaten Banggai, Sulawesi Tengah";"SULAWESI TENGAH";"";"Indonesia";"";"";"";"-0.8512086";"123.3687823";"https://maps.google.com/?cid=0x0:0xb410bb8b8b2d7d01";""
"komplek housing";"Komplek perumahan";"kebun fajran";"7CG4+QP, Batu Mandi, Kec. Balantak Utara, Kabupaten Banggai, Sulawesi Tengah";"Kabupaten Banggai, Sulawesi Tengah";"SULAWESI TENGAH";"";"Indonesia";"";"";"";"-0.7231238";"123.4067825";"https://maps.google.com/?cid=0x0:0x447343a5d1b38b80";""
"komplek housing";"Komplek perumahan";"Rumah fajran";"7C3F+4JG, Ondoliang, Kec. Balantak, Kabupaten Banggai, Sulawesi Tengah";"Kabupaten Banggai, Sulawesi Tengah";"SULAWESI TENGAH";"";"Indonesia";"";"";"";"-0.7471994";"123.4240685";"https://maps.google.com/?cid=0x0:0x8e0df0f9efaf8327";""
"komplek housing";"Komplek perumahan";"Tanotu";"49F4+75F, Tanotu, Kec. Balantak, Kabupaten Banggai, Sulawesi Tengah 94773";"Tanotu, Kec. Balantak, Kabupaten Banggai";"SULAWESI TENGAH";"94773";"Indonesia";"";"";"";"-0.876512";"123.3557894";"https://maps.google.com/?cid=0x0:0xb6e5cd9eca0d8122";""
"komplek housing";"Komplek perumahan";"Rumah Roni Nursin";"499Q+6CX, Dale-Dale, Kec. Balantak, Kabupaten Banggai, Sulawesi Tengah 94773";"Dale-Dale, Kec. Balantak, Kabupaten Banggai";"SULAWESI TENGAH";"94773";"Indonesia";"";"";"";"-0.881352";"123.387811";"https://maps.google.com/?cid=0x0:0xaf6b6609145719c8";""
"komplek housing";"Komplek perumahan";"RUMAH KELUARGA MALOTA";"499W+766, Balantak, Kec. Balantak, Kabupaten Banggai, Sulawesi Tengah 94773";"Balantak, Kec. Balantak, Kabupaten Banggai";"SULAWESI TENGAH";"94773";"Indonesia";"";"";"";"-0.8818473";"123.3955203";"https://maps.google.com/?cid=0x0:0x604163b19f86e4ea";""
"komplek housing";"Komplek perumahan";"Rumahku";"49F4+75F, Tanotu, Kec. Balantak, Kabupaten Banggai, Sulawesi Tengah";"Kabupaten Banggai, Sulawesi Tengah";"SULAWESI TENGAH";"";"Indonesia";"";"";"";"-0.8768125";"123.3554219";"https://maps.google.com/?cid=0x0:0x9b347ee016658157";""
"komplek housing";"Komplek perumahan";"Miki lasandre";"499Q+6CX, Dale-Dale, Kec. Balantak, Kabupaten Banggai, Sulawesi Tengah 94773";"Dale-Dale, Kec. Balantak, Kabupaten Banggai";"SULAWESI TENGAH";"94773";"Indonesia";"";"";"";"-0.88132";"123.387523";"https://maps.google.com/?cid=0x0:0x8a3ba1678038268d";""
"komplek housing";"Pembangunan Perumahan";"Adhy";"49CC+G9F, Mamping, Kec. Balantak, Kabupaten Banggai, Sulawesi Tengah";"Kabupaten Banggai, Sulawesi Tengah";"SULAWESI TENGAH";"";"Indonesia";"";"";"";"-0.878888";"123.370012";"https://maps.google.com/?cid=0x0:0xafb323ff4ce672ae";""
"komplek housing";"Komplek perumahan";"Posko KKN UNISMUH Angkatan XXXVI";"49F4+4JW, Tanotu, Kec. Balantak, Kabupaten Banggai, Sulawesi Tengah 94773";"Tanotu, Kec. Balantak, Kabupaten Banggai";"SULAWESI TENGAH";"94773";"Indonesia";"";"";"";"-0.8769229";"123.3566349";"https://maps.google.com/?cid=0x0:0x12bfcb7098294e85";""
"komplek housing";"komplek housing";"Sulawesi Tengah 94762";"Kec. Batui, Kabupaten Banggai, Sulawesi Tengah";"Kabupaten Banggai, Sulawesi Tengah";"SULAWESI TENGAH";"";"Indonesia";"";"";"";"-1.3168964";"122.4014193";"https://maps.google.com/?cid=0x0:0xda4e323ee87b4759";""
"komplek housing";"Komplek perumahan";"Rumah Dg.FIRMAN (Kampung Baru)";"Ombolu, Kec. Batui Sel., Kabupaten Banggai, Sulawesi Tengah 94762";"Kec. Batui Sel., Kabupaten Banggai";"SULAWESI TENGAH";"94762";"Indonesia";"";"";"";"-1.3166234";"122.3767975";"https://maps.google.com/?cid=0x0:0x2bde98e789bfc2dc";""
"komplek housing";"Pembangunan Perumahan";"bakung kec batui";"Jl. Trans Luwuk, Sisipan, Kec. Batui, Kabupaten Banggai, Sulawesi Tengah 94762";"Sisipan, Kec. Batui, Kabupaten Banggai";"SULAWESI TENGAH";"94762";"Indonesia";" 082329734423";"";"";"-1.3029083";"122.5287533";"https://maps.google.com/?cid=0x0:0xb0216d3a1ad9f1";""
"komplek housing";"Komplek perumahan";"Home FitriSultan";"JCGV+39M, Gori-Gori, Kec. Batui Sel., Kabupaten Banggai, Sulawesi Tengah 94762";"Gori-Gori, Kec. Batui Sel., Kabupaten Banggai";"SULAWESI TENGAH";"94762";"Indonesia";"";"";"";"-1.3747935";"122.4434162";"https://maps.google.com/?cid=0x0:0x64bf91916f789d83";""
"komplek housing";"Komplek perumahan";"Kompleks mangga dua";"Jl.melati No.27, Tolando, Kec. Batui, Kabupaten Banggai, Sulawesi Tengah 94762";"Tolando, Kec. Batui, Kabupaten Banggai";"SULAWESI TENGAH";"94762";"Indonesia";"";"";"";"-1.2835786";"122.5525649";"https://maps.google.com/?cid=0x0:0x1f037deb4ff4320e";""
"komplek housing";"Perumahan";"AFS";"JCGW+2GX, Gori-Gori, Kec. Batui Sel., Kabupaten Banggai, Sulawesi Tengah 94762";"Gori-Gori, Kec. Batui Sel., Kabupaten Banggai";"SULAWESI TENGAH";"94762";"Indonesia";"";"";"";"-1.3745707";"122.4458164";"https://maps.google.com/?cid=0x0:0x8846fb155ddec71";""
"komplek housing";"Komplek perumahan";"Rumah NURHAYATI";"JCGP+9M2, Jalan Trans Luwuk-Toili, Gori-Gori, Kec. Batui Sel.";"Kabupaten Banggai, Sulawesi Tengah";"SULAWESI TENGAH";"";"Indonesia";" 085739292339";"";"";"-1.3741104";"122.4366315";"https://maps.google.com/?cid=0x0:0xc62c2edf1c5104ff";""
"komplek housing";"Perhimpunan Pengembang Perumahan";"Rumah H. Djamil Tua Siregar";"M98R+GJ6, Ombolu, Kec. Batui Sel., Kabupaten Banggai, Sulawesi Tengah 94762";"Ombolu, Kec. Batui Sel., Kabupaten Banggai";"SULAWESI TENGAH";"94762";"Indonesia";"";"";"";"-1.3337102";"122.3915107";"https://maps.google.com/?cid=0x0:0x2f4cfeb6d0e04437";""
"komplek housing";"Komplek perumahan";"Batas Kec. Batui Selatan";"JC34+MGV, Sumber Harjo, Kec. Moilong, Kabupaten Banggai, Sulawesi Tengah 94762";"Sumber Harjo, Kec. Moilong, Kabupaten Banggai";"SULAWESI TENGAH";"94762";"Indonesia";"";"";"";"-1.3957524";"122.4063122";"https://maps.google.com/?cid=0x0:0xda083243e82336ae";""
"komplek housing";"Komplek perumahan";"Home Nikmah";"M99Q+R9J, Ombolu, Kec. Batui Sel., Kabupaten Banggai, Sulawesi Tengah 94762";"Ombolu, Kec. Batui Sel., Kabupaten Banggai";"SULAWESI TENGAH";"94762";"Indonesia";"";"";"";"-1.3303588";"122.3883367";"https://maps.google.com/?cid=0x0:0x154f4f1e242278d6";""
"komplek housing";"Pembangunan Perumahan";"Rumah Kel Muslan-Abada";"MGJ4+PMF, Kayowa, Kec. Batui, Kabupaten Banggai, Sulawesi Tengah 94762";"Kayowa, Kec. Batui, Kabupaten Banggai";"SULAWESI TENGAH";"94762";"Indonesia";"";"";"";"-1.3181898";"122.5066734";"https://maps.google.com/?cid=0x0:0x51126abf7ae648c6";""
"komplek housing";"Komplek perumahan";"Andy Aprianto Home";"JFR6+FM7, Bone Balantak, Kec. Batui Sel., Kabupaten Banggai, Sulawesi Tengah 94762";"Bone Balantak, Kec. Batui Sel., Kabupaten Banggai";"SULAWESI TENGAH";"94762";"Indonesia";"";"";"";"-1.3589707";"122.4611935";"https://maps.google.com/?cid=0x0:0xf99c045945b3f5ce";""
"komplek housing";"Perhimpunan Pengembang Perumahan";"Rumah Da'i dan Relawan aisyiyah (Tombiobong)";"P9PC+5Q5, Maleo Jaya, Kec. Batui Sel., Kabupaten Banggai, Sulawesi Tengah";"Kabupaten Banggai, Sulawesi Tengah";"SULAWESI TENGAH";"";"Indonesia";"";"";"";"-1.2646102";"122.3719799";"https://maps.google.com/?cid=0x0:0x2ed4b9ba6a79ab88";""
"komplek housing";"Perhimpunan Pengembang Perumahan";"Lorong mantan kades";"JFC7+758, Bone Balantak, Kec. Batui Sel., Kabupaten Banggai, Sulawesi Tengah";"Kabupaten Banggai, Sulawesi Tengah";"SULAWESI TENGAH";"";"Indonesia";"";"";"";"-1.3793314";"122.4629392";"https://maps.google.com/?cid=0x0:0x3d875590ee158ecf";""
"komplek housing";"Komplek perumahan";"Rumah Fina";"M9CW+MP7, Sukamaju, Kec. Batui Sel., Kabupaten Banggai, Sulawesi Tengah 94762";"Sukamaju, Kec. Batui Sel., Kabupaten Banggai";"SULAWESI TENGAH";"94762";"Indonesia";"";"";"";"-1.328326";"122.3967851";"https://maps.google.com/?cid=0x0:0xa61e8d2b3b2e3251";""
"komplek housing";"Komplek perumahan";"Rumahnya Keluarga Dg massello Family";"JCGV+F83, Bone Balantak, Kec. Batui Sel., Kabupaten Banggai, Sulawesi Tengah 94762";"Bone Balantak, Kec. Batui Sel., Kabupaten Banggai";"SULAWESI TENGAH";"94762";"Indonesia";"";"";"";"-1.3743219";"122.4435178";"https://maps.google.com/?cid=0x0:0xfebf51093ef06a97";""
"komplek housing";"Komplek perumahan";"Rmah whina";"MF27+RQ2, Masing, Kec. Batui Sel., Kabupaten Banggai, Sulawesi Tengah";"Kabupaten Banggai, Sulawesi Tengah";"SULAWESI TENGAH";"";"Indonesia";"";"";"";"-1.3479968";"122.4643827";"https://maps.google.com/?cid=0x0:0x55db0fed91f3de25";""
"komplek housing";"Pembangunan Perumahan";"KAMAN";"Sisipan, Kec. Batui, Kabupaten Banggai, Sulawesi Tengah";"Kabupaten Banggai, Sulawesi Tengah";"SULAWESI TENGAH";"";"Indonesia";"";"";"";"-1.2853672";"122.5251311";"https://maps.google.com/?cid=0x0:0xe7ce580458866adf";""
"komplek housing";"Komplek perumahan";"Indri's house";"PHC4+Q8C, Sisipan, Kec. Batui, Kabupaten Banggai, Sulawesi Tengah";"Kabupaten Banggai, Sulawesi Tengah";"SULAWESI TENGAH";"";"Indonesia";"";"";"";"-1.2780715";"122.5557536";"https://maps.google.com/?cid=0x0:0xc262152b11bf90ee";""
"komplek housing";"Taman bermain";"Hutan lindung";"JC8F+G73, Jl. Trans Luwuk, Gori-Gori, Kec. Batui Sel., Kabupaten Banggai, Sulawesi Tengah 94762";"Jl. Trans Luwuk, Gori-Gori, Kec. Batui Sel., Kabupaten Banggai";"SULAWESI TENGAH";"94762";"Indonesia";"";"";"";"-1.383727";"122.4231577";"https://maps.google.com/?cid=0x0:0xcdbe8ea2c8b3cf13";""
"komplek housing";"komplek housing";"Kec. Batui";"Kabupaten Banggai, Sulawesi Tengah";"Kabupaten Banggai, Sulawesi Tengah";"SULAWESI TENGAH";"";"Indonesia";"";"";"";"-1.2780715";"122.5557536";"https://maps.google.com/?cid=0x0:0x3399ddb877366fd3";""
"komplek housing";"Komplek perumahan";"Rumah Hj Maemuna Hi Dg Masiseng";"MGJ6+GG2, Kayowa, Kec. Batui, Kabupaten Banggai, Sulawesi Tengah 94762";"Kayowa, Kec. Batui, Kabupaten Banggai";"SULAWESI TENGAH";"94762";"Indonesia";"";"";"";"-1.319328";"122.511005";"https://maps.google.com/?cid=0x0:0x2daed574e01b987d";""
"komplek housing";"Komplek perumahan";"Rumah alip";"MGRJ+WM9, Bakung, Kec. Batui, Kabupaten Banggai, Sulawesi Tengah 94762";"Bakung, Kec. Batui, Kabupaten Banggai";"SULAWESI TENGAH";"94762";"Indonesia";"";"";"";"-1.3077133";"122.5317448";"https://maps.google.com/?cid=0x0:0x3a34b27badf1c791";""
"komplek housing";"komplek housing";"Rumahku";"Jl. Nyiur Melambai No.43, dusun 1, Nonong, Kec. Batui, Kota Luwuk Banggai, Sulawesi Tengah 94762";"dusun 1, Nonong, Kec. Batui, Kota Luwuk Banggai";"SULAWESI TENGAH";"94762";"Indonesia";"";"";"";"-1.3382704";"122.5278052";"https://maps.google.com/?cid=0x0:0x72b288a540426624";""
"komplek housing";"Komplek perumahan";"Sisters Craft (Rumah Widya Nurhidayah)";"MF4W+R42, Jl. Trans Luwuk, Nonong, Kec. Batui, Kabupaten Banggai, Sulawesi Tengah 94762";"Jl. Trans Luwuk, Nonong, Kec. Batui, Kabupaten Banggai";"SULAWESI TENGAH";"94762";"Indonesia";"";"";"";"-1.3429821";"122.4952687";"https://maps.google.com/?cid=0x0:0xbb7e6631a44c495";""
"komplek housing";"Komplek perumahan";"Rumah rahmat";"MGVJ+4XW, Bakung, Kec. Batui, Kabupaten Banggai, Sulawesi Tengah 94762";"Bakung, Kec. Batui, Kabupaten Banggai";"SULAWESI TENGAH";"94762";"Indonesia";"";"";"";"-1.3059651";"122.5322382";"https://maps.google.com/?cid=0x0:0xf1150be0d4cec594";""
"komplek housing";"Komplek perumahan";"Rumah dula";"Komp. Gunung No.11, Lingkungan II, Lamo, Kec. Batui, Kabupaten Banggai, Sulawesi Tengah 94762";"Lingkungan II, Lamo, Kec. Batui, Kabupaten Banggai";"SULAWESI TENGAH";"94762";"Indonesia";"";"";"";"-1.263608";"122.5609154";"https://maps.google.com/?cid=0x0:0xea0a7fc34440eccb";""
"komplek housing";"Komplek perumahan";"Rumahnya danti";"MF49+546, Masing, Kec. Batui Sel., Kabupaten Banggai, Sulawesi Tengah 94762";"Masing, Kec. Batui Sel., Kabupaten Banggai";"SULAWESI TENGAH";"94762";"Indonesia";"";"";"";"-1.3445761";"122.4677683";"https://maps.google.com/?cid=0x0:0xa12ec975e0c21695";""
"komplek housing";"Komplek perumahan";"Rumah pak alamsah";"MGJ5+4XF, Kayowa, Kec. Batui, Kabupaten Banggai, Sulawesi Tengah 94762";"Kayowa, Kec. Batui, Kabupaten Banggai";"SULAWESI TENGAH";"94762";"Indonesia";"";"";"";"-1.3196875";"122.5099219";"https://maps.google.com/?cid=0x0:0x8419532c5f806dec";""
"komplek housing";"Komplek perumahan";"Rumah Dg.FIRMAN (Kampung Baru)";"Ombolu, Kec. Batui Sel., Kabupaten Banggai, Sulawesi Tengah 94762";"Kec. Batui Sel., Kabupaten Banggai";"SULAWESI TENGAH";"94762";"Indonesia";"";"";"";"-1.3166234";"122.3767975";"https://maps.google.com/?cid=0x0:0x2bde98e789bfc2dc";""
"komplek housing";"Pembangunan Perumahan";"bakung kec batui";"Jl. Trans Luwuk, Sisipan, Kec. Batui, Kabupaten Banggai, Sulawesi Tengah 94762";"Sisipan, Kec. Batui, Kabupaten Banggai";"SULAWESI TENGAH";"94762";"Indonesia";" 082329734423";"";"";"-1.3029083";"122.5287533";"https://maps.google.com/?cid=0x0:0xb0216d3a1ad9f1";""
"komplek housing";"komplek housing";"Sulawesi Tengah 94762";"Kec. Batui, Kabupaten Banggai, Sulawesi Tengah";"Kabupaten Banggai, Sulawesi Tengah";"SULAWESI TENGAH";"";"Indonesia";"";"";"";"-1.3168964";"122.4014193";"https://maps.google.com/?cid=0x0:0xda4e323ee87b4759";""
"komplek housing";"Komplek perumahan";"Batas Kec. Batui Selatan";"JC34+MGV, Sumber Harjo, Kec. Moilong, Kabupaten Banggai, Sulawesi Tengah 94762";"Sumber Harjo, Kec. Moilong, Kabupaten Banggai";"SULAWESI TENGAH";"94762";"Indonesia";"";"";"";"-1.3957524";"122.4063122";"https://maps.google.com/?cid=0x0:0xda083243e82336ae";""
"komplek housing";"Perumahan";"AFS";"JCGW+2GX, Gori-Gori, Kec. Batui Sel., Kabupaten Banggai, Sulawesi Tengah 94762";"Gori-Gori, Kec. Batui Sel., Kabupaten Banggai";"SULAWESI TENGAH";"94762";"Indonesia";"";"";"";"-1.3745707";"122.4458164";"https://maps.google.com/?cid=0x0:0x8846fb155ddec71";""
"komplek housing";"Pembangunan Perumahan";"Rumah Kel Muslan-Abada";"MGJ4+PMF, Kayowa, Kec. Batui, Kabupaten Banggai, Sulawesi Tengah 94762";"Kayowa, Kec. Batui, Kabupaten Banggai";"SULAWESI TENGAH";"94762";"Indonesia";"";"";"";"-1.3181898";"122.5066734";"https://maps.google.com/?cid=0x0:0x51126abf7ae648c6";""
"komplek housing";"Komplek perumahan";"Rumah Fina";"M9CW+MP7, Sukamaju, Kec. Batui Sel., Kabupaten Banggai, Sulawesi Tengah 94762";"Sukamaju, Kec. Batui Sel., Kabupaten Banggai";"SULAWESI TENGAH";"94762";"Indonesia";"";"";"";"-1.328326";"122.3967851";"https://maps.google.com/?cid=0x0:0xa61e8d2b3b2e3251";""
"komplek housing";"Pembangunan Perumahan";"Resthouse";"MF4V+WFR, Nonong, Kec. Batui, Kabupaten Banggai, Sulawesi Tengah";"Kabupaten Banggai, Sulawesi Tengah";"SULAWESI TENGAH";"";"Indonesia";"";"";"";"-1.3426315";"122.4936493";"https://maps.google.com/?cid=0x0:0xb071fcc9078f99c2";""
"komplek housing";"Perhimpunan Pengembang Perumahan";"Rumah H. Djamil Tua Siregar";"M98R+GJ6, Ombolu, Kec. Batui Sel., Kabupaten Banggai, Sulawesi Tengah 94762";"Ombolu, Kec. Batui Sel., Kabupaten Banggai";"SULAWESI TENGAH";"94762";"Indonesia";"";"";"";"-1.3337102";"122.3915107";"https://maps.google.com/?cid=0x0:0x2f4cfeb6d0e04437";""
"komplek housing";"Komplek perumahan";"Rumah Anggi";"JF82+2WX, Sinorang, Kec. Batui Sel., Kabupaten Banggai, Sulawesi Tengah";"Kabupaten Banggai, Sulawesi Tengah";"SULAWESI TENGAH";"";"Indonesia";"";"";"";"-1.3848992";"122.4523486";"https://maps.google.com/?cid=0x0:0xfd15ac2e490af00d";""
"komplek housing";"Komplek perumahan";"Home Nikmah";"M99Q+R9J, Ombolu, Kec. Batui Sel., Kabupaten Banggai, Sulawesi Tengah 94762";"Ombolu, Kec. Batui Sel., Kabupaten Banggai";"SULAWESI TENGAH";"94762";"Indonesia";"";"";"";"-1.3303588";"122.3883367";"https://maps.google.com/?cid=0x0:0x154f4f1e242278d6";""
"komplek housing";"Komplek perumahan";"Rumah sutriani";"JCFV+X8G, Gori-Gori, Kec. Batui Sel., Kabupaten Banggai, Sulawesi Tengah 94762";"Gori-Gori, Kec. Batui Sel., Kabupaten Banggai";"SULAWESI TENGAH";"94762";"Indonesia";"";"";"";"-1.3750547";"122.4433227";"https://maps.google.com/?cid=0x0:0x21c49483b041cc84";""
"komplek housing";"Komplek perumahan";"Rumah NURHAYATI";"JCGP+9M2, Jalan Trans Luwuk-Toili, Gori-Gori, Kec. Batui Sel.";"Kabupaten Banggai, Sulawesi Tengah";"SULAWESI TENGAH";"";"Indonesia";" 085739292339";"";"";"-1.3741104";"122.4366315";"https://maps.google.com/?cid=0x0:0xc62c2edf1c5104ff";""
"komplek housing";"Komplek perumahan";"Rumahnya Keluarga Dg massello Family";"JCGV+F83, Bone Balantak, Kec. Batui Sel., Kabupaten Banggai, Sulawesi Tengah 94762";"Bone Balantak, Kec. Batui Sel., Kabupaten Banggai";"SULAWESI TENGAH";"94762";"Indonesia";"";"";"";"-1.3743219";"122.4435178";"https://maps.google.com/?cid=0x0:0xfebf51093ef06a97";""
"komplek housing";"Komplek perumahan";"Rumahnya danti";"MF49+546, Masing, Kec. Batui Sel., Kabupaten Banggai, Sulawesi Tengah 94762";"Masing, Kec. Batui Sel., Kabupaten Banggai";"SULAWESI TENGAH";"94762";"Indonesia";"";"";"";"-1.3445761";"122.4677683";"https://maps.google.com/?cid=0x0:0xa12ec975e0c21695";""
"komplek housing";"Perhimpunan Pengembang Perumahan";"Rumah Da'i dan Relawan aisyiyah (Tombiobong)";"P9PC+5Q5, Maleo Jaya, Kec. Batui Sel., Kabupaten Banggai, Sulawesi Tengah";"Kabupaten Banggai, Sulawesi Tengah";"SULAWESI TENGAH";"";"Indonesia";"";"";"";"-1.2646102";"122.3719799";"https://maps.google.com/?cid=0x0:0x2ed4b9ba6a79ab88";""
"komplek housing";"Komplek perumahan";"Rumah I KETUT WARDANA";"MCG3+RP2, Sukamaju, Kec. Batui Sel., Kabupaten Banggai, Sulawesi Tengah 94762";"Sukamaju, Kec. Batui Sel., Kabupaten Banggai";"SULAWESI TENGAH";"94762";"Indonesia";"";"";"";"-1.3272635";"122.3993555";"https://maps.google.com/?cid=0x0:0x7064367af361a926";""
"komplek housing";"komplek housing";"rumah vhiaa";"M99V+Q7, Ombolu, Kec. Batui Sel., Kabupaten Banggai, Sulawesi Tengah";"Kabupaten Banggai, Sulawesi Tengah";"SULAWESI TENGAH";"";"Indonesia";"";"";"";"-1.3305625";"122.3931875";"https://maps.google.com/?cid=0x0:0xf2ad5119a25027f9";""
"komplek housing";"Komplek perumahan";"Rumah abdul";"M9CP+GRH, Ombolu, Kec. Batui Sel., Kabupaten Banggai, Sulawesi Tengah 94762";"Ombolu, Kec. Batui Sel., Kabupaten Banggai";"SULAWESI TENGAH";"94762";"Indonesia";"";"";"";"-1.3285849";"122.386953";"https://maps.google.com/?cid=0x0:0x94c4361b4dcaa411";""
"komplek housing";"Komplek perumahan";"Andy Aprianto Home";"JFR6+FM7, Bone Balantak, Kec. Batui Sel., Kabupaten Banggai, Sulawesi Tengah 94762";"Bone Balantak, Kec. Batui Sel., Kabupaten Banggai";"SULAWESI TENGAH";"94762";"Indonesia";"";"";"";"-1.3589707";"122.4611935";"https://maps.google.com/?cid=0x0:0xf99c045945b3f5ce";""
"komplek housing";"komplek housing";"Kec. Batui Sel.";"Kabupaten Banggai, Sulawesi Tengah";"Kabupaten Banggai, Sulawesi Tengah";"SULAWESI TENGAH";"";"Indonesia";"";"";"";"-1.3671298";"122.4559285";"https://maps.google.com/?cid=0x0:0x2bc7848795f9d04a";""
"komplek housing";"Komplek perumahan";"Kompleks Tokulo'on";"JF82+VQ8, Unnamed Road, Sinorang, Kec. Batui Sel., Kabupaten Banggai, Sulawesi Tengah 94762";"Unnamed Road, Sinorang, Kec. Batui Sel., Kabupaten Banggai";"SULAWESI TENGAH";"94762";"Indonesia";"";"";"";"-1.3828392";"122.4519587";"https://maps.google.com/?cid=0x0:0x7e213fdd2ff9eedd";""
"komplek housing";"Komplek perumahan";"Rumah Ade suhanda";"MC65+4VQ, Sukamaju I, Kec. Batui Sel., Kabupaten Banggai, Sulawesi Tengah 94762";"Sukamaju I, Kec. Batui Sel., Kabupaten Banggai";"SULAWESI TENGAH";"94762";"Indonesia";"";"";"";"-1.340823";"122.411315";"https://maps.google.com/?cid=0x0:0xb0d69807992bb17a";""
"komplek housing";"Masjid";"Rumah komplek masjid Al ikhlas";"JFJ2+7X2, Bone Balantak, Kec. Batui Sel., Kabupaten Banggai, Sulawesi Tengah 94762";"Bone Balantak, Kec. Batui Sel., Kabupaten Banggai";"SULAWESI TENGAH";"94762";"Indonesia";" 081524765243";"";"";"-1.3693618";"122.4523855";"https://maps.google.com/?cid=0x0:0x5935981cc8065174";""
"komplek housing";"Komplek perumahan";"Rumah Falisha";"M9FP+2G8, Ombolu, Kec. Batui Sel., Kabupaten Banggai, Sulawesi Tengah 94762";"Ombolu, Kec. Batui Sel., Kabupaten Banggai";"SULAWESI TENGAH";"94762";"Indonesia";"";"";"";"-1.3274721";"122.3863231";"https://maps.google.com/?cid=0x0:0x4f682e74ce3ff6bd";""
"komplek housing";"Taman bermain";"Hutan lindung";"JC8F+G73, Jl. Trans Luwuk, Gori-Gori, Kec. Batui Sel., Kabupaten Banggai, Sulawesi Tengah 94762";"Jl. Trans Luwuk, Gori-Gori, Kec. Batui Sel., Kabupaten Banggai";"SULAWESI TENGAH";"94762";"Indonesia";"";"";"";"-1.383727";"122.4231577";"https://maps.google.com/?cid=0x0:0xcdbe8ea2c8b3cf13";""
"komplek housing";"Komplek perumahan";"Songi";"JFR6+FM7, Bone Balantak, Kec. Batui Sel., Kabupaten Banggai, Sulawesi Tengah 94762";"Bone Balantak, Kec. Batui Sel., Kabupaten Banggai";"SULAWESI TENGAH";"94762";"Indonesia";"";"";"";"-1.3588375";"122.4616719";"https://maps.google.com/?cid=0x0:0x3c64478c154b68ac";""
"komplek housing";"Perhimpunan Pengembang Perumahan";"Pradana Home";"P9HQ+JGW, Maleo Jaya, Kec. Batui Sel., Kabupaten Banggai, Sulawesi Tengah 94762";"Maleo Jaya, Kec. Batui Sel., Kabupaten Banggai";"SULAWESI TENGAH";"94762";"Indonesia";"";"";"";"-1.2709916";"122.3883853";"https://maps.google.com/?cid=0x0:0x9147dabd2b3e0dca";""
"komplek housing";"Komplek perumahan";"Rumah syahril";"MCG3+RP2, Sukamaju, Kec. Batui Sel., Kabupaten Banggai, Sulawesi Tengah 94762";"Sukamaju, Kec. Batui Sel., Kabupaten Banggai";"SULAWESI TENGAH";"94762";"Indonesia";"";"";"";"-1.3229938";"122.4042514";"https://maps.google.com/?cid=0x0:0x4beb5d1a0e60a06";""
"komplek housing";"komplek housing";"Sulawesi Tengah 94752";"Kabupaten Banggai, Sulawesi Tengah";"Kabupaten Banggai, Sulawesi Tengah";"SULAWESI TENGAH";"";"Indonesia";"";"";"";"-0.8588989";"122.6729515";"https://maps.google.com/?cid=0x0:0xb25ba52058f1ce1f";""
"komplek housing";"komplek housing";"Bualemo";"Kabupaten Banggai, Sulawesi Tengah";"Kabupaten Banggai, Sulawesi Tengah";"SULAWESI TENGAH";"";"Indonesia";"";"";"";"-0.6627381";"123.1239049";"https://maps.google.com/?cid=0x0:0xbd3ce34da8e19bf6";""
"komplek housing";"Komplek perumahan";"Bualemo";"C335+RQ8, Lembah Tompotika, Bualemo, Kabupaten Banggai, Sulawesi Tengah 94752";"Lembah Tompotika, Bualemo, Kabupaten Banggai";"SULAWESI TENGAH";"94752";"Indonesia";"";"";"";"-0.5954715";"123.0594455";"https://maps.google.com/?cid=0x0:0x6958ee5a1ebf8e75";""
"komplek housing";"komplek housing";"ILHAM K NDOYAH";"6M63+7V2, Jaya Bakti, Pagimana, Kabupaten Banggai, Sulawesi Tengah";"Kabupaten Banggai, Sulawesi Tengah";"SULAWESI TENGAH";"";"Indonesia";"";"";"";"-0.7893775";"122.6546386";"https://maps.google.com/?cid=0x0:0xcdf0c4fed4120de9";""
"komplek housing";"komplek housing";"Kos 5Bersaudara";"6J5X+446, Jl. Trans Sulawesi, Pagimana, Kabupaten Banggai, Sulawesi Tengah 94752";"Jl. Trans Sulawesi, Pagimana, Kabupaten Banggai";"SULAWESI TENGAH";"94752";"Indonesia";"";"";"";"-0.7922034";"122.6477566";"https://maps.google.com/?cid=0x0:0x9461782268070d03";""
"komplek housing";"komplek housing";"Tempat tinggal sya";"6J7X+9C8, Jaya Bakti, Pagimana, Kabupaten Banggai, Sulawesi Tengah 94752";"Jaya Bakti, Pagimana, Kabupaten Banggai";"SULAWESI TENGAH";"94752";"Indonesia";"";"";"";"-0.7865977";"122.6485677";"https://maps.google.com/?cid=0x0:0x5f74f32b9e9898c7";""
"komplek housing";"Komplek perumahan";"Rumahh Tita";"6J7X+4VC, Jalan Kampung Baru, Jaya Bakti, Pagimana, Kabupaten Banggai, Sulawesi Tengah";"Kabupaten Banggai, Sulawesi Tengah";"SULAWESI TENGAH";"";"Indonesia";"";"";"";"-0.7871874";"122.6496446";"https://maps.google.com/?cid=0x0:0x29fe2eb5f904ecea";""
"komplek housing";"Komplek perumahan";"Lorong alhama";"5JXW+Q6W, Hohudongan, Pagimana, Kabupaten Banggai, Sulawesi Tengah 94752";"Hohudongan, Pagimana, Kabupaten Banggai";"SULAWESI TENGAH";"94752";"Indonesia";"";"";"";"-0.8005235";"122.6455642";"https://maps.google.com/?cid=0x0:0x4c21c1d6e7b46b19";""
"komplek housing";"Komplek perumahan";"Rumah Yongkel Yalasing";"5JVQ+C7P, Sinampangnyo, Pagimana, Kabupaten Banggai, Sulawesi Tengah 94752";"Sinampangnyo, Pagimana, Kabupaten Banggai";"SULAWESI TENGAH";"94752";"Indonesia";"";"";"";"-0.806416";"122.6381971";"https://maps.google.com/?cid=0x0:0x7b20ff2b26f2a6bd";""
"komplek housing";"Komplek perumahan";"Rumah elite Cees🔥";"6J6Q+VJR, Tongkonunuk, Pagimana, Kabupaten Banggai, Sulawesi Tengah 94752";"Tongkonunuk, Pagimana, Kabupaten Banggai";"SULAWESI TENGAH";"94752";"Indonesia";"";"";"";"-0.7877671";"122.639023";"https://maps.google.com/?cid=0x0:0xf794f117ab90f87f";""
"komplek housing";"Komplek perumahan";"Shintia's house";"Jl. tabangian No., 83, Sinampangnyo, Pagimana, Kabupaten Banggai, Sulawesi Tengah 94752";"83, Sinampangnyo, Pagimana, Kabupaten Banggai";"SULAWESI TENGAH";"94752";"Indonesia";"";"";"";"-0.8066471";"122.6388956";"https://maps.google.com/?cid=0x0:0xe81cd064768e7c76";""
"komplek housing";"Komplek perumahan";"Home Lira-Aril-Lara";"6J7X+4VC, Jaya Bakti, Pagimana, Kabupaten Banggai, Sulawesi Tengah";"Kabupaten Banggai, Sulawesi Tengah";"SULAWESI TENGAH";"";"Indonesia";"";"";"";"-0.7871874";"122.6496446";"https://maps.google.com/?cid=0x0:0x4156af0bb317972c";""
"komplek housing";"komplek housing";"Tempat tinggal";"6J7X+4VC, Jaya Bakti, Pagimana, Kabupaten Banggai, Sulawesi Tengah";"Kabupaten Banggai, Sulawesi Tengah";"SULAWESI TENGAH";"";"Indonesia";"";"";"";"-0.7871874";"122.6496446";"https://maps.google.com/?cid=0x0:0x9f43f418301041a6";""
"komplek housing";"Komplek perumahan";"jaini house";"5MP3+X7G, Desa Hion, Basabungan, Pagimana, Kabupaten Banggai, Sulawesi Tengah 94752";"Desa Hion, Basabungan, Pagimana, Kabupaten Banggai";"SULAWESI TENGAH";"94752";"Indonesia";"";"";"";"-0.8125588";"122.6531565";"https://maps.google.com/?cid=0x0:0x1631d981fe459301";""
"komplek housing";"komplek housing";"pagimana";"6J7X+4VC, Jaya Bakti, Pagimana, Kabupaten Banggai, Sulawesi Tengah";"Kabupaten Banggai, Sulawesi Tengah";"SULAWESI TENGAH";"";"Indonesia";"";"";"";"-0.7871874";"122.6496446";"https://maps.google.com/?cid=0x0:0x99a246dfdb0e87b";""
"komplek housing";"Komplek perumahan";"En Residence";"6M42+4MQ, Jl. Trans Sulawesi, Pagimana, Kabupaten Banggai, Sulawesi Tengah 94752";"Jl. Trans Sulawesi, Pagimana, Kabupaten Banggai";"SULAWESI TENGAH";"94752";"Indonesia";"";"";"";"-0.7946";"122.651665";"https://maps.google.com/?cid=0x0:0xbd6cab6795c09ecd";""
"komplek housing";"Komplek perumahan";"Rumah nunung pangadjo";"6M62+92P, Jaya Bakti, Pagimana, Kabupaten Banggai, Sulawesi Tengah 94752";"Jaya Bakti, Pagimana, Kabupaten Banggai";"SULAWESI TENGAH";"94752";"Indonesia";" 082283820753";"";"";"-0.78903";"122.6500864";"https://maps.google.com/?cid=0x0:0x5d3d93b1d2b21be9";""
"komplek housing";"Pembangunan Perumahan";"Rumah Papa Bulu";"5H4C+H6V, Bulu, Pagimana, Kabupaten Banggai, Sulawesi Tengah 94752";"Bulu, Pagimana, Kabupaten Banggai";"SULAWESI TENGAH";"94752";"Indonesia";"";"";"";"-0.844177";"122.569398";"https://maps.google.com/?cid=0x0:0xda203b133c2ee051";""
"komplek housing";"Pembangunan Perumahan";"Saipul Netik";"6J7V+8XR, Tongkonunuk, Pagimana, Kabupaten Banggai, Sulawesi Tengah";"Kabupaten Banggai, Sulawesi Tengah";"SULAWESI TENGAH";"";"Indonesia";"";"";"";"-0.786628";"122.6448762";"https://maps.google.com/?cid=0x0:0x743b5fc1e49cbec8";""
"komplek housing";"Perhimpunan Pengembang Perumahan";"Rumah Lukman Palede";"5MP3+X7G, Desa Hion, Basabungan, Pagimana, Kabupaten Banggai, Sulawesi Tengah 94752";"Desa Hion, Basabungan, Pagimana, Kabupaten Banggai";"SULAWESI TENGAH";"94752";"Indonesia";"";"";"";"-0.8127495";"122.6537248";"https://maps.google.com/?cid=0x0:0xc8bfb524b095ddf6";""
"komplek housing";"Komplek perumahan";"Lisda home";"9W3G+9V9, Sumber Wangi, Bualemo, Kabupaten Banggai, Sulawesi Tengah 94752";"Sumber Wangi, Bualemo, Kabupaten Banggai";"SULAWESI TENGAH";"94752";"Indonesia";"";"";"";"-0.6465983";"122.927244";"https://maps.google.com/?cid=0x0:0xd89151a80f3deea2";""
"komplek housing";"Komplek perumahan";"IndriIsti";"C583+CJQ, Bualemo A, Bualemo, Kabupaten Banggai, Sulawesi Tengah 94752";"Bualemo A, Bualemo, Kabupaten Banggai";"SULAWESI TENGAH";"94752";"Indonesia";" 085278077466";"";"";"-0.5839093";"123.154112";"https://maps.google.com/?cid=0x0:0x49ca7b35744c410d";""
"komplek housing";"Komplek perumahan";"Rumah ija lamba";"9W88+J44, Jalan Dolingkang, Mayayap, Bualemo, Kabupaten Banggai, Sulawesi Tengah 94752";"Jalan Dolingkang, Mayayap, Bualemo, Kabupaten Banggai";"SULAWESI TENGAH";"94752";"Indonesia";"";"";"";"-0.6334875";"122.9153281";"https://maps.google.com/?cid=0x0:0x85b9f22df91c63a2";""
"komplek housing";"Komplek perumahan";"Suliman Labongkeng";"C48W+QMF, Jl. Pendidikan, Bualemo B, Bualemo, Kabupaten Banggai, Sulawesi Tengah 94752";"Jl. Pendidikan, Bualemo B, Bualemo, Kabupaten Banggai";"SULAWESI TENGAH";"94752";"Indonesia";"";"";"";"-0.5831458";"123.147137";"https://maps.google.com/?cid=0x0:0x2d80e8f570031409";""
"komplek housing";"Komplek perumahan";"Milka Asiki";"C583+CQP, Bualemo A, Bualemo, Kabupaten Banggai, Sulawesi Tengah 94752";"Bualemo A, Bualemo, Kabupaten Banggai";"SULAWESI TENGAH";"94752";"Indonesia";"";"";"";"-0.5840174";"123.1543521";"https://maps.google.com/?cid=0x0:0xaef779f8eb229234";""
"komplek housing";"Komplek perumahan";"Bele Le Pado";"C583+43H, Bualemo A, Bualemo, Kabupaten Banggai, Sulawesi Tengah 94752";"Bualemo A, Bualemo, Kabupaten Banggai";"SULAWESI TENGAH";"94752";"Indonesia";"";"";"";"-0.5846986";"123.1527492";"https://maps.google.com/?cid=0x0:0x60bb836ec481083c";""
"komplek housing";"Komplek perumahan";"RM. Driver muda";"C567+W4W, Bualemo A, Bualemo, Kabupaten Banggai, Sulawesi Tengah 94752";"Bualemo A, Bualemo, Kabupaten Banggai";"SULAWESI TENGAH";"94752";"Indonesia";"";"";"";"-0.5876452";"123.162814";"https://maps.google.com/?cid=0x0:0x59b014093ec9b4db";""
"komplek housing";"Pembangunan Perumahan";"David Qomar";"95XW+W86, Unnamed Road, Nipa Kalemoan, Bualemo, Kabupaten Banggai, Sulawesi Tengah 94752";"Unnamed Road, Nipa Kalemoan, Bualemo, Kabupaten Banggai";"SULAWESI TENGAH";"94752";"Indonesia";"";"";"";"-0.600207";"123.1957597";"https://maps.google.com/?cid=0x0:0xf94fb52e6b0be35";""
"komplek housing";"Komplek perumahan";"Echa lestari";"9W3F+P36, Sumber Wangi, Bualemo, Kabupaten Banggai, Sulawesi Tengah 94752";"Sumber Wangi, Bualemo, Kabupaten Banggai";"SULAWESI TENGAH";"94752";"Indonesia";"";"";"";"-0.6457069";"122.9226432";"https://maps.google.com/?cid=0x0:0xf67a20f7f732efc3";""
"komplek housing";"komplek housing";"Bunta";"Bunta Dua, Kec. Bunta, Kabupaten Banggai, Sulawesi Tengah";"Kabupaten Banggai, Sulawesi Tengah";"SULAWESI TENGAH";"";"Indonesia";"";"";"";"-0.827723";"122.166901";"https://maps.google.com/?cid=0x0:0x1d1c94d908aa398d";""
"komplek housing";"Pondok";"Kos Bunta";"Kos Bunta oranye, Bunta Dua, Kec. Bunta, Kabupaten Banggai, Sulawesi Tengah";"Kabupaten Banggai, Sulawesi Tengah";"SULAWESI TENGAH";"";"Indonesia";"";"";"";"-0.827723";"122.166901";"https://maps.google.com/?cid=0x0:0xd550b026608a950c";""
"komplek housing";"Komplek perumahan";"Jama masjid bunta";"55C8+WQ6, Bunta Dua, Kec. Bunta, Kabupaten Banggai, Sulawesi Tengah";"Kabupaten Banggai, Sulawesi Tengah";"SULAWESI TENGAH";"";"Indonesia";"";"";"";"-0.827723";"122.166901";"https://maps.google.com/?cid=0x0:0x6828db862a2624bd";""
"komplek housing";"Komplek perumahan";"Rumahnya Ridwan yyakcobus";"55C8+WQ6, Bunta - Pagimana, Bunta Dua, Kec. Bunta, Kabupaten Banggai, Sulawesi Tengah";"Kabupaten Banggai, Sulawesi Tengah";"SULAWESI TENGAH";"";"Indonesia";"";"";"";"-0.827723";"122.166901";"https://maps.google.com/?cid=0x0:0x571ad358caa12260";""
"komplek housing";"Komplek perumahan";"batu ampas";"55C8+WQ6, Bunta - Pagimana, Bunta Dua, Kec. Bunta, Kabupaten Banggai, Sulawesi Tengah";"Kabupaten Banggai, Sulawesi Tengah";"SULAWESI TENGAH";"";"Indonesia";"";"";"";"-0.827723";"122.166901";"https://maps.google.com/?cid=0x0:0x4ff242c0b5e93a5a";""
"komplek housing";"komplek housing";"Komplek Housing";"Blok Bojong Nangka I, Jl. Ring Rudal Blok Bojong Nangka I No.68, RT.001/RW.007, Jatirahayu, Kec. Pd. Melati, Kota Bks, Jawa Barat 17414";"Jl. Ring Rudal Blok Bojong Nangka I No.68, RT.001/RW.007, Jatirahayu, Kec. Pd. Melati, Kota Bks";"SULAWESI TENGAH";"17414";"Indonesia";"";"";"";"-6.293724";"106.9165114";"https://maps.google.com/?cid=0x0:0x9c50464976dee674";""
"komplek housing";"komplek housing";"Sulawesi Tengah 94761";"Kabupaten Banggai, Sulawesi Tengah";"Kabupaten Banggai, Sulawesi Tengah";"SULAWESI TENGAH";"";"Indonesia";"";"";"";"-1.1198794";"122.4920088";"https://maps.google.com/?cid=0x0:0xe1f14a50bf77e8c";""
"komplek housing";"komplek housing";"Kec. Kintom";"Kabupaten Banggai, Sulawesi Tengah";"Kabupaten Banggai, Sulawesi Tengah";"SULAWESI TENGAH";"";"Indonesia";"";"";"";"-1.2003909";"122.6289775";"https://maps.google.com/?cid=0x0:0xa6f793b1214b98da";""
"komplek housing";"komplek housing";"Kintom";"Samadoya, Kec. Kintom, Kabupaten Banggai, Sulawesi Tengah";"Kabupaten Banggai, Sulawesi Tengah";"SULAWESI TENGAH";"";"Indonesia";"";"";"";"-1.146013";"122.656097";"https://maps.google.com/?cid=0x0:0x87a221c4d8e1ae90";""
"komplek housing";"komplek housing";"Sulawesi Tengah 94771";"Kabupaten Banggai, Sulawesi Tengah";"Kabupaten Banggai, Sulawesi Tengah";"SULAWESI TENGAH";"";"Indonesia";"";"";"";"-0.9177687";"123.213851";"https://maps.google.com/?cid=0x0:0x760e998f5028c81b";""
"komplek housing";"Komplek perumahan";"Wilana";"263J+3C9, Pondan, Kec. Lamala, Kabupaten Banggai, Sulawesi Tengah 94771";"Pondan, Kec. Lamala, Kabupaten Banggai";"SULAWESI TENGAH";"94771";"Indonesia";" 085311021093";"";"";"-0.9974441";"123.2314122";"https://maps.google.com/?cid=0x0:0xc2a1a9360cccbad3";""
"komplek housing";"Komplek perumahan";"Home Leon";"348W+GQ4, Sirom, Kec. Lamala, Kabupaten Banggai, Sulawesi Tengah 94771";"Sirom, Kec. Lamala, Kabupaten Banggai";"SULAWESI TENGAH";"94771";"Indonesia";"";"";"";"-0.9341226";"123.1475327";"https://maps.google.com/?cid=0x0:0x170c4ff29c8ee981";""
"komplek housing";"Pembangunan Perumahan";"Home edhe";"4562+X5V, Baruga, Kec. Lamala, Kabupaten Banggai, Sulawesi Tengah 94772";"Baruga, Kec. Lamala, Kabupaten Banggai";"SULAWESI TENGAH";"94772";"Indonesia";"";"";"";"-0.8879047";"123.1506924";"https://maps.google.com/?cid=0x0:0xed5cde741cc36ded";""
"komplek housing";"Komplek perumahan";"Rumah Lala";"34XR+5R6, Lomba, Kec. Lamala, Kabupaten Banggai, Sulawesi Tengah";"Kabupaten Banggai, Sulawesi Tengah";"SULAWESI TENGAH";"";"Indonesia";"";"";"";"-0.9020862";"123.1420183";"https://maps.google.com/?cid=0x0:0xee1f2e351d902b5a";""
"komplek housing";"Pembangunan Perumahan";"my home";"348W+GQ4, Sirom, Kec. Lamala, Kabupaten Banggai, Sulawesi Tengah 94771";"Sirom, Kec. Lamala, Kabupaten Banggai";"SULAWESI TENGAH";"94771";"Indonesia";"";"";"";"-0.934078";"123.147675";"https://maps.google.com/?cid=0x0:0x64f390e5d7106023";""
"komplek housing";"Komplek perumahan";"Nael home";"X7RX+86Q, Bombanon, Kec. Lamala, Kabupaten Banggai, Sulawesi Tengah 94771";"Bombanon, Kec. Lamala, Kabupaten Banggai";"SULAWESI TENGAH";"94771";"Indonesia";"";"";"";"-1.0091591";"123.2981002";"https://maps.google.com/?cid=0x0:0xf494298e9fb161cb";""
"komplek housing";"Komplek perumahan";"Axl";"25X9+32X, Nipa, Kec. Lamala, Kabupaten Banggai, Sulawesi Tengah";"Kabupaten Banggai, Sulawesi Tengah";"SULAWESI TENGAH";"";"Indonesia";"";"";"";"-0.9522501";"123.1676085";"https://maps.google.com/?cid=0x0:0x83bb6521a22147d4";""
"komplek housing";"Komplek perumahan";"aldy home";"X7MQ+4VM, Bombanon, Kec. Lamala, Kabupaten Banggai, Sulawesi Tengah 94771";"Bombanon, Kec. Lamala, Kabupaten Banggai";"SULAWESI TENGAH";"94771";"Indonesia";"";"";"";"-1.0171676";"123.2896695";"https://maps.google.com/?cid=0x0:0x5065e1119cf82617";""
"komplek housing";"Komplek perumahan";"Haprol Home";"262J+H84, Pondan, Kec. Lamala, Kabupaten Banggai, Sulawesi Tengah 94771";"Pondan, Kec. Lamala, Kabupaten Banggai";"SULAWESI TENGAH";"94771";"Indonesia";"";"";"";"-0.998433";"123.231425";"https://maps.google.com/?cid=0x0:0x6608ea85dba4adf6";""
"komplek housing";"Komplek perumahan";"Kasih irel";"46M6+QVV, Labotan, Kec. Lamala, Kabupaten Banggai, Sulawesi Tengah 94771";"Labotan, Kec. Lamala, Kabupaten Banggai";"SULAWESI TENGAH";"94771";"Indonesia";"";"";"";"-0.8655171";"123.212177";"https://maps.google.com/?cid=0x0:0x99e26e1ad75099f2";""
"komplek housing";"Komplek perumahan";"Rafeld home";"4584+Q5J, Kota Baru, Kec. Lamala, Kabupaten Banggai, Sulawesi Tengah";"Kabupaten Banggai, Sulawesi Tengah";"SULAWESI TENGAH";"";"Indonesia";"";"";"";"-0.8824886";"123.1554381";"https://maps.google.com/?cid=0x0:0xf4d7a67006644431";""
"komplek housing";"Komplek perumahan";"Rumah Azril Azizah";"34XV+H6R, Lomba, Kec. Lamala, Kabupaten Banggai, Sulawesi Tengah";"Kabupaten Banggai, Sulawesi Tengah";"SULAWESI TENGAH";"";"Indonesia";"";"";"";"-0.9010585";"123.1430162";"https://maps.google.com/?cid=0x0:0xc199e7cc7960b8e5";""
"komplek housing";"Komplek perumahan";"Gita Home";"X7RX+86Q, Bombanon, Kec. Lamala, Kabupaten Banggai, Sulawesi Tengah";"Kabupaten Banggai, Sulawesi Tengah";"SULAWESI TENGAH";"";"Indonesia";"";"";"";"-1.0091591";"123.2981002";"https://maps.google.com/?cid=0x0:0xd7cf014b1215a594";""
"komplek housing";"Komplek perumahan";"Posko Sulianti Obama";"34RQ+GGW, Bonebobakal, Kec. Lamala, Kabupaten Banggai, Sulawesi Tengah";"Kabupaten Banggai, Sulawesi Tengah";"SULAWESI TENGAH";"";"Indonesia";"";"";"";"-0.9086452";"123.1388358";"https://maps.google.com/?cid=0x0:0x96f4fa891aa13968";""
"komplek housing";"Pembangunan Perumahan";"Jerli taale";"263H+5MJ, Pondan, Kec. Lamala, Kabupaten Banggai, Sulawesi Tengah 94771";"Pondan, Kec. Lamala, Kabupaten Banggai";"SULAWESI TENGAH";"94771";"Indonesia";"";"";"";"-0.9969297";"123.2290999";"https://maps.google.com/?cid=0x0:0xed632b6e6bc84ae1";""
"komplek housing";"komplek housing";"Rumah VIBONG";"X7Q4+X8V, Binotik, Kec. Lamala, Kabupaten Banggai, Sulawesi Tengah 94771";"Binotik, Kec. Lamala, Kabupaten Banggai";"SULAWESI TENGAH";"94771";"Indonesia";"";"";"";"-1.0101381";"123.2557678";"https://maps.google.com/?cid=0x0:0x9f0050d322869077";""
"komplek housing";"komplek housing";"Charlie Home";"X82G+R85, Bollo, Sulubombong, Kabupaten Banggai, Sulawesi Tengah";"Kabupaten Banggai, Sulawesi Tengah";"SULAWESI TENGAH";"";"Indonesia";"";"";"";"-1.0477288";"123.325354";"https://maps.google.com/?cid=0x0:0xa2dbc1a0968ded53";""
"komplek housing";"Komplek perumahan";"Rumah elkana";"X6WV+RMH, Sobol Baru, Kec. Mantoh, Kabupaten Banggai, Sulawesi Tengah 94771";"Sobol Baru, Kec. Mantoh, Kabupaten Banggai";"SULAWESI TENGAH";"94771";"Indonesia";"";"";"";"-1.0029266";"123.2442303";"https://maps.google.com/?cid=0x0:0x8482ebb143cc4ae8";""
"komplek housing";"Komplek perumahan";"Kiki daelani";"46J6+328, Tinonda, Kec. Lamala, Kabupaten Banggai, Sulawesi Tengah 94771";"Tinonda, Kec. Lamala, Kabupaten Banggai";"SULAWESI TENGAH";"94771";"Indonesia";"";"";"";"-0.8697074";"123.2103362";"https://maps.google.com/?cid=0x0:0x6ed127c0f2001596";""
"komplek housing";"komplek housing";"Kec. Lamala";"Kabupaten Banggai, Sulawesi Tengah";"Kabupaten Banggai, Sulawesi Tengah";"SULAWESI TENGAH";"";"Indonesia";"";"";"";"-0.8681873";"123.211817";"https://maps.google.com/?cid=0x0:0xab6bed3033922df6";""
"komplek housing";"Komplek perumahan";"Gian Luigi sibawa";"262M+2R4, Pondan, Kec. Lamala, Kabupaten Banggai, Sulawesi Tengah 94771";"Pondan, Kec. Lamala, Kabupaten Banggai";"SULAWESI TENGAH";"94771";"Indonesia";"";"";"";"-0.9999967";"123.2345649";"https://maps.google.com/?cid=0x0:0x89bb5d0353169cf2";""
"komplek housing";"Komplek perumahan";"Pandi Home";"X6WQ+JGG, Sobol, Kec. Mantoh, Kabupaten Banggai, Sulawesi Tengah 94771";"Sobol, Kec. Mantoh, Kabupaten Banggai";"SULAWESI TENGAH";"94771";"Indonesia";"";"";"";"-1.0034426";"123.2388377";"https://maps.google.com/?cid=0x0:0xa80a28d039d50c98";""
"komplek housing";"Komplek perumahan";"Rumah nya Atu";"34QV+W23, Poroan, Kec. Lamala, Kabupaten Banggai, Sulawesi Tengah 94771";"Poroan, Kec. Lamala, Kabupaten Banggai";"SULAWESI TENGAH";"94771";"Indonesia";"";"";"";"-0.9106652";"123.1435358";"https://maps.google.com/?cid=0x0:0xc20b955a91bd9436";""
"komplek housing";"Perhimpunan Pengembang Perumahan";"Henri Noch";"X7MV+934, Bombanon, Kec. Lamala, Kabupaten Banggai, Sulawesi Tengah 94771";"Bombanon, Kec. Lamala, Kabupaten Banggai";"SULAWESI TENGAH";"94771";"Indonesia";"";"";"";"-1.015812";"123.292927";"https://maps.google.com/?cid=0x0:0xf98a003deb4af245";""
"komplek housing";"Komplek perumahan";"Komplek mangga 2";"X6WV+64Q, Jl. Poros, Sobol, Kec. Mantoh, Kabupaten Banggai, Sulawesi Tengah 94771";"Jl. Poros, Sobol, Kec. Mantoh, Kabupaten Banggai";"SULAWESI TENGAH";"94771";"Indonesia";"";"";"";"-1.0044369";"123.2429656";"https://maps.google.com/?cid=0x0:0xd5254d519285c308";""
"komplek housing";"Perhimpunan Pengembang Perumahan";"Sandy sauli";"263H+4XX, Pondan, Kec. Lamala, Kabupaten Banggai, Sulawesi Tengah 94771";"Pondan, Kec. Lamala, Kabupaten Banggai";"SULAWESI TENGAH";"94771";"Indonesia";"";"";"";"-0.9971296";"123.229982";"https://maps.google.com/?cid=0x0:0x79d3009d8ffedc80";""
"komplek housing";"Komplek perumahan";"Tiga Saudara";"X8GC+267, Bollo, Kec. Lamala, Kabupaten Banggai, Sulawesi Tengah 94771";"Bollo, Kec. Lamala, Kabupaten Banggai";"SULAWESI TENGAH";"94771";"Indonesia";"";"";"";"-1.0249681";"123.3205544";"https://maps.google.com/?cid=0x0:0x3356e13438010d02";""
"komplek housing";"Komplek perumahan";"Ica priskila";"262H+MF6, Pondan, Kec. Lamala, Kabupaten Banggai, Sulawesi Tengah 94771";"Pondan, Kec. Lamala, Kabupaten Banggai";"SULAWESI TENGAH";"94771";"Indonesia";"";"";"";"-0.9983276";"123.2286348";"https://maps.google.com/?cid=0x0:0xd8c13b56f22767fb";""
"komplek housing";"komplek housing";"Kec. Lobu";"Kabupaten Banggai, Sulawesi Tengah";"Kabupaten Banggai, Sulawesi Tengah";"SULAWESI TENGAH";"";"Indonesia";"";"";"";"-0.7774779";"122.5052906";"https://maps.google.com/?cid=0x0:0xd1be4b373e4c02f6";""
"komplek housing";"komplek housing";"LOBU";"6G89+8XH, Jl. Trans Sulawesi, Bolobungkang, Kec. Lobu, Kabupaten Banggai, Sulawesi Tengah 94752";"Jl. Trans Sulawesi, Bolobungkang, Kec. Lobu, Kabupaten Banggai";"SULAWESI TENGAH";"94752";"Indonesia";"";"";"";"-0.7841886";"122.5199968";"https://maps.google.com/?cid=0x0:0xebc05699cdaf0101";""
"komplek housing";"Komplek perumahan";"LOBU JELOK";"6FGX+2JP, JELOK, Kec. Lobu, Kabupaten Banggai, Sulawesi Tengah";"Kabupaten Banggai, Sulawesi Tengah";"SULAWESI TENGAH";"";"Indonesia";"";"";"";"-0.7749218";"122.4990828";"https://maps.google.com/?cid=0x0:0x98c893d3e37da545";""
"komplek housing";"Komplek perumahan";"Rumah Kel Bang Monjawab";"6F5X+HJP, Kadodi, Kec. Lobu, Kabupaten Banggai, Sulawesi Tengah 94752";"Kadodi, Kec. Lobu, Kabupaten Banggai";"SULAWESI TENGAH";"94752";"Indonesia";"";"";"";"-0.790827";"122.497808";"https://maps.google.com/?cid=0x0:0x9cee8487a5a0301f";""
"komplek housing";"Kantor Pemerintah";"Desa Dolom, Lobu";"5G9C+FW Banggai, Lompio, Kec. Lobu, Kabupaten Banggai Kepulauan, Sulawesi Tengah 94752";"Lompio, Kec. Lobu, Kabupaten Banggai Kepulauan";"SULAWESI TENGAH";"94752";"Indonesia";"";"";"";"-0.8314037";"122.522355";"https://maps.google.com/?cid=0x0:0x8e954d389589a135";""
"komplek housing";"Kantor Pemerintah";"Desa Balean";"5FGX+73M, Balean, Kec. Lobu, Kabupaten Banggai, Sulawesi Tengah 94752";"Balean, Kec. Lobu, Kabupaten Banggai";"SULAWESI TENGAH";"94752";"Indonesia";"";"";"";"-0.8242802";"122.497668";"https://maps.google.com/?cid=0x0:0x7b6d6e587176d46f";""
"komplek housing";"Komplek perumahan";"BOLTAS";"6G87+HG7, Jl. Trans Sulawesi, Bolobungkang, Kec. Lobu, Kabupaten Banggai, Sulawesi Tengah 94752";"Jl. Trans Sulawesi, Bolobungkang, Kec. Lobu, Kabupaten Banggai";"SULAWESI TENGAH";"94752";"Indonesia";"";"";"";"-0.7841548";"122.5138322";"https://maps.google.com/?cid=0x0:0xf319b39345f6b47c";""
"komplek housing";"komplek housing";"Rumah nia";"6FGX+2JP, Dusun 4, Lobu, Kec. Lobu, Kabupaten Banggai, Sulawesi Tengah";"Kabupaten Banggai, Sulawesi Tengah";"SULAWESI TENGAH";"";"Indonesia";"";"";"";"-0.7749218";"122.4990828";"https://maps.google.com/?cid=0x0:0x22df418e311b5e35";""
"komplek housing";"Komplek perumahan";"Bolobungkang kec.lobu";"6G94+FM4, Bolobungkang, Kec. Lobu, Kabupaten Banggai, Sulawesi Tengah";"Kabupaten Banggai, Sulawesi Tengah";"SULAWESI TENGAH";"";"Indonesia";"";"";"";"-0.7813653";"122.5066976";"https://maps.google.com/?cid=0x0:0x35dc8a21d428e638";""
"komplek housing";"Komplek perumahan";"Keluarga Dunggio";"6G83+CM8, Niubulan, Kec. Lobu, Kabupaten Banggai, Sulawesi Tengah 94752";"Niubulan, Kec. Lobu, Kabupaten Banggai";"SULAWESI TENGAH";"94752";"Indonesia";"";"";"";"-0.783883";"122.5040143";"https://maps.google.com/?cid=0x0:0xba8fa394a2f2e0d5";""
"komplek housing";"Pembangunan Perumahan";"Rumah Sitti Hadijah";"6G94+V6X, Lobu, Kec. Lobu, Kabupaten Banggai, Sulawesi Tengah";"Kabupaten Banggai, Sulawesi Tengah";"SULAWESI TENGAH";"";"Indonesia";"";"";"";"-0.779814";"122.505232";"https://maps.google.com/?cid=0x0:0xd747a4fceee60a90";""
"komplek housing";"Komplek perumahan";"puput usman";"Lobu, Kec. Lobu, Kabupaten Banggai, Sulawesi Tengah";"Kabupaten Banggai, Sulawesi Tengah";"SULAWESI TENGAH";"";"Indonesia";"";"";"";"-0.7720993";"122.5021067";"https://maps.google.com/?cid=0x0:0xa9ae07084e9519a1";""
"komplek housing";"Komplek perumahan";"Rumah Fitra Sintubu";"6F2M+R9Q, Balean, Kec. Lobu, Kabupaten Banggai, Sulawesi Tengah 94752";"Balean, Kec. Lobu, Kabupaten Banggai";"SULAWESI TENGAH";"94752";"Indonesia";"";"";"";"-0.7982033";"122.4837017";"https://maps.google.com/?cid=0x0:0x38a496b7b3240139";""
"komplek housing";"Pembangunan Perumahan";"Opii Cell";"6G83+WQ5, Niubulan, Kec. Lobu, Kabupaten Banggai, Sulawesi Tengah 94752";"Niubulan, Kec. Lobu, Kabupaten Banggai";"SULAWESI TENGAH";"94752";"Indonesia";"";"";"";"-0.7827576";"122.504455";"https://maps.google.com/?cid=0x0:0xfdd8e5de96752704";""
"komplek housing";"Komplek perumahan";"Rumahnya rahman";"6GG2+FRQ, Lobu, Kec. Lobu, Kabupaten Banggai, Sulawesi Tengah";"Kabupaten Banggai, Sulawesi Tengah";"SULAWESI TENGAH";"";"Indonesia";"";"";"";"-0.7737851";"122.5021103";"https://maps.google.com/?cid=0x0:0xa3ad999e9173cae";""
"komplek housing";"Komplek perumahan";"Rumah Nabila Lukum";"6GH2+FVX, Lobu, Kec. Lobu, Kabupaten Banggai, Sulawesi Tengah";"Kabupaten Banggai, Sulawesi Tengah";"SULAWESI TENGAH";"";"Indonesia";"";"";"";"-0.771264";"122.5022206";"https://maps.google.com/?cid=0x0:0x96464e76f30fbec8";""
"komplek housing";"Komplek perumahan";"Rumah ita";"6F8X+RJ8, Dekat gereja sion, Niubulan, Kec. Lobu, Kabupaten Banggai, Sulawesi Tengah 94752";"Dekat gereja sion, Niubulan, Kec. Lobu, Kabupaten Banggai";"SULAWESI TENGAH";"94752";"Indonesia";"";"";"";"-0.7829734";"122.4990828";"https://maps.google.com/?cid=0x0:0xf4dad9d77298ed03";""
"komplek housing";"Pembangunan Perumahan";"Rumah Nuralya Adelia lesar";"6F2M+R9Q, Balean, Kec. Lobu, Kabupaten Banggai, Sulawesi Tengah 94752";"Balean, Kec. Lobu, Kabupaten Banggai";"SULAWESI TENGAH";"94752";"Indonesia";"";"";"";"-0.798288";"122.483584";"https://maps.google.com/?cid=0x0:0x197927fe5fc7bf5b";""
"komplek housing";"Komplek perumahan";"Rumah Ayhu Taher";"5GRW+48, Uwedaka-Daka, Kec. Lobu, Kabupaten Banggai, Sulawesi Tengah";"Kabupaten Banggai, Sulawesi Tengah";"SULAWESI TENGAH";"";"Indonesia";"";"";"";"-0.7832571";"122.5495492";"https://maps.google.com/?cid=0x0:0x6f501d2c52153c36";""
"komplek housing";"Kompleks Apartemen";"Depot Air Minum Sintia Water";"Niubulan, Kec. Lobu, Kabupaten Banggai, Sulawesi Tengah 94752";"Kec. Lobu, Kabupaten Banggai";"SULAWESI TENGAH";"94752";"Indonesia";" 082191851034";"";"";"-0.7811409";"122.5051998";"https://maps.google.com/?cid=0x0:0xa0539419c8a5e2ba";""
"komplek housing";"Komplek perumahan";"Rumah Dian Dwi Astuti";"6G95+838, Bolobungkang, Kec. Lobu, Kabupaten Banggai, Sulawesi Tengah 94752";"Bolobungkang, Kec. Lobu, Kabupaten Banggai";"SULAWESI TENGAH";"94752";"Indonesia";"";"";"";"-0.7817049";"122.5083702";"https://maps.google.com/?cid=0x0:0xa1c6306ce7467e4";""
"komplek housing";"Komplek perumahan";"Rumah mama nur";"6GC4+24C, Niubulan, Kec. Lobu, Kabupaten Banggai, Sulawesi Tengah 94752";"Niubulan, Kec. Lobu, Kabupaten Banggai";"SULAWESI TENGAH";"94752";"Indonesia";"";"";"";"-0.7799349";"122.505272";"https://maps.google.com/?cid=0x0:0x21ae6971678c743b";""
"komplek housing";"Komplek perumahan";"Pondok Gede Housing II";"Housing II, Jl. Raya Hankam, RT.001/RW.004, Jatirahayu, Pondok Gede, Bekasi, West Java";"Kota Bks, Jawa Barat";"SULAWESI TENGAH";"";"Indonesia";"";"";"";"-6.2876701";"106.9147674";"https://maps.google.com/?cid=0x0:0x2a52e601c20d18f2";""
"komplek housing";"Agen Properti";"Lodji Residentie by LODJI GROUP";"Jl. Caringin, Bojong Rawalumbu, Kec. Rawalumbu, Kota Bks, Jawa Barat 17117";"Bojong Rawalumbu, Kec. Rawalumbu, Kota Bks";"SULAWESI TENGAH";"17117";"Indonesia";" 081289111333";"";"";"-6.2951498";"106.9966706";"https://maps.google.com/?cid=0x0:0x690c3103ffb1a141";""
"komplek housing";"komplek housing";"Luwuk";"Kabupaten Banggai, Sulawesi Tengah";"Kabupaten Banggai, Sulawesi Tengah";"SULAWESI TENGAH";"";"Indonesia";"";"";"";"-0.9486911";"122.7907281";"https://maps.google.com/?cid=0x0:0xf073c8b206d78291";""
"komplek housing";"Perhimpunan Pengembang Perumahan";"Perumahan Kejaksaan Negeri Luwuk (kompleks)";"3Q3W+WMX, Jl. Sungai Limboto, Luwuk, Kabupaten Banggai, Sulawesi Tengah 94712";"Jl. Sungai Limboto, Luwuk, Kabupaten Banggai";"SULAWESI TENGAH";"94712";"Indonesia";"";"";"";"-0.9451359";"122.7967278";"https://maps.google.com/?cid=0x0:0x6a4fe9a75e976ef2";""
"komplek housing";"Komplek perumahan";"Kilo satu (kompleks";"3R63+3Q3, Jl. Imam Bonjol, Bungin, Luwuk, Kabupaten Banggai, Sulawesi Tengah 94711";"Jl. Imam Bonjol, Bungin, Luwuk, Kabupaten Banggai";"SULAWESI TENGAH";"94711";"Indonesia";"";"";"";"-0.9398555";"122.8044107";"https://maps.google.com/?cid=0x0:0xef1ca732ca081819";""
"komplek housing";"Komplek perumahan";"Kompleks Turki";"3Q3R+MJM, Jl. KH. Wahid Hasyim, Luwuk, Kabupaten Banggai, Sulawesi Tengah 94712";"Jl. KH. Wahid Hasyim, Luwuk, Kabupaten Banggai";"SULAWESI TENGAH";"94712";"Indonesia";"";"";"";"-0.9457948";"122.791548";"https://maps.google.com/?cid=0x0:0xc83615f4c826f5c2";""
"komplek housing";"Komplek perumahan";"Pertokoan (kompleks)";"3Q2W+V79, Jl. W Monginsidi, Luwuk, Kabupaten Banggai, Sulawesi Tengah 94712";"Jl. W Monginsidi, Luwuk, Kabupaten Banggai";"SULAWESI TENGAH";"94712";"Indonesia";"";"";"";"-0.9478495";"122.7957368";"https://maps.google.com/?cid=0x0:0xa060e10002da5ed";""
"komplek housing";"Komplek perumahan";"lumba lumba (kompleks)";"2QVR+3M3, Jl. Yos Sudarso, Karaton, Luwuk, Kabupaten Banggai, Sulawesi Tengah 94711";"Jl. Yos Sudarso, Karaton, Luwuk, Kabupaten Banggai";"SULAWESI TENGAH";"94711";"Indonesia";"";"";"";"-0.957356";"122.7916585";"https://maps.google.com/?cid=0x0:0xa1cef43bcac1da0f";""
"komplek housing";"Komplek perumahan";"persibal (kompleks)";"3Q5V+G6X, Baru, Luwuk, Kabupaten Banggai, Sulawesi Tengah 94712";"Baru, Luwuk, Kabupaten Banggai";"SULAWESI TENGAH";"94712";"Indonesia";"";"";"";"-0.9411421";"122.7931097";"https://maps.google.com/?cid=0x0:0xb6538fee27320e7c";""
"komplek housing";"Komplek perumahan";"Cokro (kompleks)";"3Q2Q+JX6, Jl. Hos Cokroaminoto, Luwuk, Kabupaten Banggai, Sulawesi Tengah 94712";"Jl. Hos Cokroaminoto, Luwuk, Kabupaten Banggai";"SULAWESI TENGAH";"94712";"Indonesia";"";"";"";"-0.9484523";"122.7898999";"https://maps.google.com/?cid=0x0:0xeb391ba9ed244345";""
"komplek housing";"Pemasok Produk Makanan";"Kilo Tiga (kompleks)";"3R7C+QF5, Jl. Imam Bonjol, Bungin Tim., Luwuk, Kabupaten Banggai, Sulawesi Tengah 94711";"Jl. Imam Bonjol, Bungin Tim., Luwuk, Kabupaten Banggai";"SULAWESI TENGAH";"94711";"Indonesia";"";"";"";"-0.9356075";"122.8212424";"https://maps.google.com/?cid=0x0:0xa91065ca9209e363";""
"komplek housing";"Komplek perumahan";"Kompleks jalur dua";"3R77+V8M, Jl. Batu Gn., Lumpoknyo, Luwuk, Kabupaten Banggai, Sulawesi Tengah 94711";"Jl. Batu Gn., Lumpoknyo, Luwuk, Kabupaten Banggai";"SULAWESI TENGAH";"94711";"Indonesia";"";"";"";"-0.9352895";"122.8132896";"https://maps.google.com/?cid=0x0:0x9818e019a4102c31";""
"komplek housing";"Komplek perumahan";"Setia Budi (kompleks)";"Jl. Setia Budi No.3, Luwuk, Kabupaten Banggai, Sulawesi Tengah 94712";"Luwuk, Kabupaten Banggai";"SULAWESI TENGAH";"94712";"Indonesia";"";"";"";"-0.9475313";"122.788608";"https://maps.google.com/?cid=0x0:0xf9d23929f87c9f99";""
"komplek housing";"Komplek perumahan";"Tontouan (kompleks)";"2QRM+9H9, Kompo, Kec. Luwuk Selatan, Kabupaten Banggai, Sulawesi Tengah 94713";"Kompo, Kec. Luwuk Selatan, Kabupaten Banggai";"SULAWESI TENGAH";"94713";"Indonesia";"";"";"";"-0.9590983";"122.78397";"https://maps.google.com/?cid=0x0:0x6df7028fd3b84cbe";""
"komplek housing";"Komplek perumahan";"guung klabat (kompleks)";"3Q4V+5RC, Jl. G.Klabat, Luwuk, Kabupaten Banggai, Sulawesi Tengah 94712";"Jl. G.Klabat, Luwuk, Kabupaten Banggai";"SULAWESI TENGAH";"94712";"Indonesia";"";"";"";"-0.944551";"122.7945053";"https://maps.google.com/?cid=0x0:0x34d2f46e832ef5f";""
"komplek housing";"Komplek perumahan";"Home";"3R52+7V5, Jl. Imam Bonjol, Bungin, Luwuk, Kabupaten Banggai, Sulawesi Tengah 94711";"Jl. Imam Bonjol, Bungin, Luwuk, Kabupaten Banggai";"SULAWESI TENGAH";"94711";"Indonesia";"";"";"";"-0.9413265";"122.8022847";"https://maps.google.com/?cid=0x0:0x9a2c16dd60d6439e";""
"komplek housing";"Kantor Perusahaan";"Kompleks pelita";"3Q3Q+HXM, Jl. G. Lompobatang, Luwuk, Kabupaten Banggai, Sulawesi Tengah 94712";"Jl. G. Lompobatang, Luwuk, Kabupaten Banggai";"SULAWESI TENGAH";"94712";"Indonesia";"";"";"";"-0.946033";"122.7899305";"https://maps.google.com/?cid=0x0:0x974bf269b5da314";""
"komplek housing";"Komplek perumahan";"Jaltes (kompleks)";"Jl. Dr. Sutardjo No.30, Luwuk, Kabupaten Banggai, Sulawesi Tengah 94712";"Luwuk, Kabupaten Banggai";"SULAWESI TENGAH";"94712";"Indonesia";"";"";"";"-0.9478342";"122.7903693";"https://maps.google.com/?cid=0x0:0x75289117c0f132dc";""
"komplek housing";"Perhimpunan Pengembang Perumahan";"Kim house";"Jln baru, Tontouan, Luwuk, Kabupaten Banggai, Sulawesi Tengah 94712";"Tontouan, Luwuk, Kabupaten Banggai";"SULAWESI TENGAH";"94712";"Indonesia";"";"";"";"-0.9417622";"122.7907821";"https://maps.google.com/?cid=0x0:0x67c0d2aefe39616f";""
"komplek housing";"Komplek perumahan";"Karaton (kompleks)";"2QRQ+6CH, Jl. Dewi Sartika, Simpong, Luwuk, Kabupaten Banggai, Sulawesi Tengah 94713";"Jl. Dewi Sartika, Simpong, Luwuk, Kabupaten Banggai";"SULAWESI TENGAH";"94713";"Indonesia";"";"";"";"-0.9594474";"122.7886117";"https://maps.google.com/?cid=0x0:0x29bc5b478d1ef287";""
"komplek housing";"Komplek perumahan";"Kids  baby terapi luwuk";"Jl. RA. Kartini, Karaton, Luwuk, Kabupaten Banggai, Sulawesi Tengah 94711";"Karaton, Luwuk, Kabupaten Banggai";"SULAWESI TENGAH";"94711";"Indonesia";" 082399411119";"";"";"-0.9584684";"122.7899416";"https://maps.google.com/?cid=0x0:0x7422dd5fa3d108e3";""
"komplek housing";"Komplek perumahan";"Penginapan Garuda";"Jl. KH. Agus Salim No.36, Luwuk, Kabupaten Banggai, Sulawesi Tengah 94712";"Luwuk, Kabupaten Banggai";"SULAWESI TENGAH";"94712";"Indonesia";" 085393917586";"";"";"-0.9510839";"122.7876698";"https://maps.google.com/?cid=0x0:0xf72aa6818f409efd";""
"komplek housing";"komplek housing";"Luwuk";"Soho, Luwuk, Kabupaten Banggai, Sulawesi Tengah";"Kabupaten Banggai, Sulawesi Tengah";"SULAWESI TENGAH";"";"Indonesia";"";"";"";"-0.938828";"122.792801";"https://maps.google.com/?cid=0x0:0xe6b89a29058c5a5e";""
"komplek housing";"Pengembang Realestat";"Perumahan Royal Regency";"2Q3P+HR7, Tj. Tuwis, Kec. Luwuk Selatan, Kabupaten Banggai, Sulawesi Tengah 94715";"Tj. Tuwis, Kec. Luwuk Selatan, Kabupaten Banggai";"SULAWESI TENGAH";"94715";"Indonesia";"";"";"";"-0.9960994";"122.7870353";"https://maps.google.com/?cid=0x0:0x8bf3241ae8fd43e";""
"komplek housing";"Komplek perumahan";"New Golden Park Luwuk";"2Q3R+QJ7, Tanjung Tuwis, Luwuk, Tj. Tuwis, Kec. Luwuk Selatan, Kabupaten Banggai, Sulawesi Tengah 94715";"Tanjung Tuwis, Luwuk, Tj. Tuwis, Kec. Luwuk Selatan, Kabupaten Banggai";"SULAWESI TENGAH";"94715";"Indonesia";"";"";"";"-0.9955955";"122.7915554";"https://maps.google.com/?cid=0x0:0x953942bcc0078e6c";""
"komplek housing";"komplek housing";"Luwuk";"Soho, Luwuk, Kabupaten Banggai, Sulawesi Tengah";"Kabupaten Banggai, Sulawesi Tengah";"SULAWESI TENGAH";"";"Indonesia";"";"";"";"-0.938828";"122.792801";"https://maps.google.com/?cid=0x0:0xe6b89a29058c5a5e";""
"komplek housing";"Komplek perumahan";"Grenn House Shenna";"3Q6V+F47, Soho, Luwuk, Kabupaten Banggai, Sulawesi Tengah 94712";"Soho, Luwuk, Kabupaten Banggai";"SULAWESI TENGAH";"94712";"Indonesia";" 081354550313";"";"";"-0.938828";"122.792801";"https://maps.google.com/?cid=0x0:0x85a010bc1b2c5fde";""
"komplek housing";"Komplek perumahan";"Adam's home";"3Q4W+JQR, Jl. Sungai Pakowa No.8, Soho, Luwuk, Kabupaten Banggai, Sulawesi Tengah 94712";"Jl. Sungai Pakowa No.8, Soho, Luwuk, Kabupaten Banggai";"SULAWESI TENGAH";"94712";"Indonesia";"";"";"";"-0.938828";"122.792801";"https://maps.google.com/?cid=0x0:0xe42e377f351eb4d6";""
"komplek housing";"Komplek perumahan";"Inpres";"3Q6V+F47, Soho, Luwuk, Kabupaten Banggai, Sulawesi Tengah 94712";"Soho, Luwuk, Kabupaten Banggai";"SULAWESI TENGAH";"94712";"Indonesia";"";"";"";"-0.938828";"122.792801";"https://maps.google.com/?cid=0x0:0xab9d1629aa227ced";""
"komplek housing";"Komplek perumahan";"Kp dukuh";"kec gunungsari, Kp dukuh No.002, RT.002, Soho, Luwuk, Kabupaten Banggai, Sulawesi Tengah";"Kabupaten Banggai, Sulawesi Tengah";"SULAWESI TENGAH";"";"Indonesia";"";"";"";"-0.938828";"122.792801";"https://maps.google.com/?cid=0x0:0x26d2aec00c797127";""
"komplek housing";"Komplek perumahan";"Home Aini Lamala";"3Q6V+F47, Soho, Luwuk, Kabupaten Banggai, Sulawesi Tengah";"Kabupaten Banggai, Sulawesi Tengah";"SULAWESI TENGAH";"";"Indonesia";"";"";"";"-0.938828";"122.792801";"https://maps.google.com/?cid=0x0:0x6cd4e0aee0b3a9f9";""
"komplek housing";"Perhimpunan Pengembang Perumahan";"Luwuk Banggai";"3Q6V+F47, Soho, Luwuk, Kabupaten Banggai, Sulawesi Tengah";"Kabupaten Banggai, Sulawesi Tengah";"SULAWESI TENGAH";"";"Indonesia";"";"";"";"-0.938828";"122.792801";"https://maps.google.com/?cid=0x0:0x47f68b9ae701bd3f";""
"komplek housing";"Komplek perumahan";"kos hizkia bahari";"3Q6V+4H6, Soho, Luwuk, Kabupaten Banggai, Sulawesi Tengah";"Kabupaten Banggai, Sulawesi Tengah";"SULAWESI TENGAH";"";"Indonesia";"";"";"";"-0.9397212";"122.7938877";"https://maps.google.com/?cid=0x0:0x71e9783f6313655c";""
"komplek housing";"Komplek perumahan";"Aspar";"Kolonedale - Luwuk, Soho, Luwuk, Kabupaten Banggai, Sulawesi Tengah";"Kabupaten Banggai, Sulawesi Tengah";"SULAWESI TENGAH";"";"Indonesia";"";"";"";"-0.938828";"122.792801";"https://maps.google.com/?cid=0x0:0xfc3733f2bd5c149d";""
"komplek housing";"Pembangunan Perumahan";"Rory - Pasuhuk";"3Q6V+37R, Jl. Gn. Hohoban, colo, Luwuk, Kabupaten Banggai, Sulawesi Tengah 94712";"Jl. Gn. Hohoban, colo, Luwuk, Kabupaten Banggai";"SULAWESI TENGAH";"94712";"Indonesia";" 082189180707";"";"";"-0.9397514";"122.7931343";"https://maps.google.com/?cid=0x0:0xa08d50d26853a159";""
"komplek housing";"komplek housing";"Rumah fuad";"3Q6V+F47, RT.01/RW.02, Soho, Luwuk, Kabupaten Banggai, Sulawesi Tengah";"Kabupaten Banggai, Sulawesi Tengah";"SULAWESI TENGAH";"";"Indonesia";"";"";"";"-0.938828";"122.792801";"https://maps.google.com/?cid=0x0:0x8814b44084c5f81";""
"komplek housing";"Komplek perumahan";"Rio Saputra laslanut";"3Q6V+F47, Soho, Luwuk, Kabupaten Banggai, Sulawesi Tengah";"Kabupaten Banggai, Sulawesi Tengah";"SULAWESI TENGAH";"";"Indonesia";"";"";"";"-0.938828";"122.792801";"https://maps.google.com/?cid=0x0:0x293ec86280cb5862";""
"komplek housing";"Komplek perumahan";"Jole";"3Q6V+F47, Soho, Luwuk, Kabupaten Banggai, Sulawesi Tengah";"Kabupaten Banggai, Sulawesi Tengah";"SULAWESI TENGAH";"";"Indonesia";"";"";"";"-0.938828";"122.792801";"https://maps.google.com/?cid=0x0:0xe26a10a524bdf5ee";""
"komplek housing";"komplek housing";"RUMAH HADI TENONG";"3Q6V+F47, BINTARO, Luwuk, Kabupaten Banggai, Sulawesi Tengah";"Kabupaten Banggai, Sulawesi Tengah";"SULAWESI TENGAH";"";"Indonesia";"";"";"";"-0.938828";"122.792801";"https://maps.google.com/?cid=0x0:0xe29262b3b20630fe";""
"komplek housing";"Perumahan";"Bukit mulia";"3Q6V+F47, Soho, Luwuk, Kabupaten Banggai, Sulawesi Tengah";"Kabupaten Banggai, Sulawesi Tengah";"SULAWESI TENGAH";"";"Indonesia";"";"";"";"-0.938828";"122.792801";"https://maps.google.com/?cid=0x0:0xcab9561480b686af";""
"komplek housing";"Komplek perumahan";"Istana Keluarga Cemara";"3Q6V+F47, Jl. Batu hitam, Soho, Luwuk, Banggai Regency, Central Sulawesi";"Kabupaten Banggai, Sulawesi Tengah";"SULAWESI TENGAH";"";"Indonesia";"";"";"";"-0.938828";"122.792801";"https://maps.google.com/?cid=0x0:0xb9569273346f9b0a";""
"komplek housing";"Pembangunan Perumahan";"Rumah Halimun";"Perumahan Bukit Permata Halimun Blok Meranti No. 28, Kelurahan Maahas, Luwuk, Kabupaten Banggai, Sulawesi Tengah 94715";"Kelurahan Maahas, Luwuk, Kabupaten Banggai";"SULAWESI TENGAH";"94715";"Indonesia";"";"";"";"-0.938828";"122.792801";"https://maps.google.com/?cid=0x0:0x3d62d691ff01a7b8";""
"komplek housing";"komplek housing";"Sulawesi Tengah 94713";"Luwuk, Kabupaten Banggai, Sulawesi Tengah";"Kabupaten Banggai, Sulawesi Tengah";"SULAWESI TENGAH";"";"Indonesia";"";"";"";"-0.9486457";"122.7661258";"https://maps.google.com/?cid=0x0:0x1b3d7c4d1eb79e74";""
"komplek housing";"Komplek perumahan";"Halmahera (kompleks)";"2QMQ+JF8, Jl. P.Halmahera Simpong, Jole, Luwuk, Kabupaten Banggai, Sulawesi Tengah 94713";"Jl. P.Halmahera Simpong, Jole, Luwuk, Kabupaten Banggai";"SULAWESI TENGAH";"94713";"Indonesia";"";"";"";"-0.9659542";"122.7887131";"https://maps.google.com/?cid=0x0:0x9dba16fbdd2f4a0a";""
"komplek housing";"Komplek perumahan";"Simpong (kompleks)";"2QPR+52M, Jl. Dr. Moh. Hatta, Simpong, Luwuk, Kabupaten Banggai, Sulawesi Tengah 94713";"Jl. Dr. Moh. Hatta, Simpong, Luwuk, Kabupaten Banggai";"SULAWESI TENGAH";"94713";"Indonesia";"";"";"";"-0.9645433";"122.7900415";"https://maps.google.com/?cid=0x0:0x16607c33ebb8a4bf";""
"komplek housing";"Komplek perumahan";"Jaltes (kompleks)";"Jl. Dr. Sutardjo No.30, Luwuk, Kabupaten Banggai, Sulawesi Tengah 94712";"Luwuk, Kabupaten Banggai";"SULAWESI TENGAH";"94712";"Indonesia";"";"";"";"-0.9478342";"122.7903693";"https://maps.google.com/?cid=0x0:0x75289117c0f132dc";""
"komplek housing";"Komplek perumahan";"Karaton (kompleks)";"2QRQ+6CH, Jl. Dewi Sartika, Simpong, Luwuk, Kabupaten Banggai, Sulawesi Tengah 94713";"Jl. Dewi Sartika, Simpong, Luwuk, Kabupaten Banggai";"SULAWESI TENGAH";"94713";"Indonesia";"";"";"";"-0.9594474";"122.7886117";"https://maps.google.com/?cid=0x0:0x29bc5b478d1ef287";""
"komplek housing";"Perhimpunan Pengembang Perumahan";"Perumahan Kejaksaan Negeri Luwuk (kompleks)";"3Q3W+WMX, Jl. Sungai Limboto, Luwuk, Kabupaten Banggai, Sulawesi Tengah 94712";"Jl. Sungai Limboto, Luwuk, Kabupaten Banggai";"SULAWESI TENGAH";"94712";"Indonesia";"";"";"";"-0.9451359";"122.7967278";"https://maps.google.com/?cid=0x0:0x6a4fe9a75e976ef2";""
"komplek housing";"Komplek perumahan";"Utham.Al";"2QQM+5FP, Kompo, Luwuk, Kabupaten Banggai, Sulawesi Tengah 94713";"Kompo, Luwuk, Kabupaten Banggai";"SULAWESI TENGAH";"94713";"Indonesia";"";"";"";"-0.9623243";"122.7834606";"https://maps.google.com/?cid=0x0:0x7112ab4f1a48ebab";""
"komplek housing";"Pembangunan Perumahan";"Home Yulie Tubigo";"2QMJ+MPM, Kompo, Kec. Luwuk Selatan, Kabupaten Banggai, Sulawesi Tengah 94713";"Kompo, Kec. Luwuk Selatan, Kabupaten Banggai";"SULAWESI TENGAH";"94713";"Indonesia";"";"";"";"-0.9657862";"122.7817913";"https://maps.google.com/?cid=0x0:0xebe29ad43dc4322d";""
"komplek housing";"Komplek perumahan";"Tontouan (kompleks)";"2QRM+9H9, Kompo, Kec. Luwuk Selatan, Kabupaten Banggai, Sulawesi Tengah 94713";"Kompo, Kec. Luwuk Selatan, Kabupaten Banggai";"SULAWESI TENGAH";"94713";"Indonesia";"";"";"";"-0.9590983";"122.78397";"https://maps.google.com/?cid=0x0:0x6df7028fd3b84cbe";""
"komplek housing";"Komplek perumahan";"House Khipel";"2QPM+HF7, Jl. Teratai, Kompo, kelurahan, Hanga Hanga, Kec. Luwuk Selatan, Kabupaten Banggai, Sulawesi Tengah 94713";"Jl. Teratai, Kompo, kelurahan, Hanga Hanga, Kec. Luwuk Selatan, Kabupaten Banggai";"SULAWESI TENGAH";"94713";"Indonesia";"";"";"";"-0.9635875";"122.7836719";"https://maps.google.com/?cid=0x0:0x7a88321905d09c0f";""
"komplek housing";"Komplek perumahan";"Nhunu Ari Home";"2QPM+652, Kompo, Kec. Luwuk Selatan, Kabupaten Banggai, Sulawesi Tengah 94713";"Kompo, Kec. Luwuk Selatan, Kabupaten Banggai";"SULAWESI TENGAH";"94713";"Indonesia";"";"";"";"-0.963975";"122.7836534";"https://maps.google.com/?cid=0x0:0xf485cd24a9e2e191";""
"komplek housing";"Perhimpunan Pengembang Perumahan";"Dode Home";"2QXJ+9X4, Tontouan, Luwuk, Kabupaten Banggai, Sulawesi Tengah";"Kabupaten Banggai, Sulawesi Tengah";"SULAWESI TENGAH";"";"Indonesia";"";"";"";"-0.9516181";"122.7824534";"https://maps.google.com/?cid=0x0:0x90ec1234afb06e5b";""
"komplek housing";"Komplek perumahan";"Pit home";"2QXJ+F6C, Tontouan, Luwuk, Kabupaten Banggai, Sulawesi Tengah";"Kabupaten Banggai, Sulawesi Tengah";"SULAWESI TENGAH";"";"Indonesia";"";"";"";"-0.951317";"122.7805062";"https://maps.google.com/?cid=0x0:0x9a2cbf5ee8e076b0";""
"komplek housing";"Komplek perumahan";"Pangestu Home";"2QJP+WW6, Jl. Pulau Peleng, Hanga-Hanga Permai, Luwuk, Kabupaten Banggai, Sulawesi Tengah 94713";"Jl. Pulau Peleng, Hanga-Hanga Permai, Luwuk, Kabupaten Banggai";"SULAWESI TENGAH";"94713";"Indonesia";"";"";"";"-0.9677222";"122.7872524";"https://maps.google.com/?cid=0x0:0x5787050904707e6e";""
"komplek housing";"Komplek perumahan";"Cokro (kompleks)";"3Q2Q+JX6, Jl. Hos Cokroaminoto, Luwuk, Kabupaten Banggai, Sulawesi Tengah 94712";"Jl. Hos Cokroaminoto, Luwuk, Kabupaten Banggai";"SULAWESI TENGAH";"94712";"Indonesia";"";"";"";"-0.9484523";"122.7898999";"https://maps.google.com/?cid=0x0:0xeb391ba9ed244345";""
"komplek housing";"Kantor Perusahaan";"Kompleks pelita";"3Q3Q+HXM, Jl. G. Lompobatang, Luwuk, Kabupaten Banggai, Sulawesi Tengah 94712";"Jl. G. Lompobatang, Luwuk, Kabupaten Banggai";"SULAWESI TENGAH";"94712";"Indonesia";"";"";"";"-0.946033";"122.7899305";"https://maps.google.com/?cid=0x0:0x974bf269b5da314";""
"komplek housing";"Komplek perumahan";"SIAGIAN HOME";"Jl. Pulau Seram No.24, Jole, Kec. Luwuk Selatan, Kabupaten Banggai, Sulawesi Tengah 94713";"Jole, Kec. Luwuk Selatan, Kabupaten Banggai";"SULAWESI TENGAH";"94713";"Indonesia";"";"";"";"-0.9658395";"122.7853814";"https://maps.google.com/?cid=0x0:0xabbd9db6954cc277";""
"komplek housing";"Perusahaan Listrik";"depan PLTD (kompleks)";"2QQQ+R9Q, Jl. Tj. Branjangan, Simpong, Luwuk, Kabupaten Banggai, Sulawesi Tengah 94713";"Jl. Tj. Branjangan, Simpong, Luwuk, Kabupaten Banggai";"SULAWESI TENGAH";"94713";"Indonesia";"";"";"";"-0.9604041";"122.7884764";"https://maps.google.com/?cid=0x0:0x9afba2689ac8dbf8";""
"komplek housing";"Pembangunan Perumahan";"Nek aji";"Jl. Dr. Moh. Hatta No.5, Simpong, Luwuk, Kabupaten Banggai, Sulawesi Tengah 94713";"Simpong, Luwuk, Kabupaten Banggai";"SULAWESI TENGAH";"94713";"Indonesia";"";"";"";"-0.9626738";"122.7900563";"https://maps.google.com/?cid=0x0:0x469d114849f3ef09";""
"komplek housing";"Pembangunan Perumahan";"Taqwa Home";"2QQG+GQC, Kompo, Kec. Luwuk Selatan, Kabupaten Banggai, Sulawesi Tengah 94713";"Kompo, Kec. Luwuk Selatan, Kabupaten Banggai";"SULAWESI TENGAH";"94713";"Indonesia";"";"";"";"-0.9611996";"122.776905";"https://maps.google.com/?cid=0x0:0x82291a64c091d6bf";""
"komplek housing";"Komplek perumahan";"New Golden Park Luwuk";"2Q3R+QJ7, Tanjung Tuwis, Luwuk, Tj. Tuwis, Kec. Luwuk Selatan, Kabupaten Banggai, Sulawesi Tengah 94715";"Tanjung Tuwis, Luwuk, Tj. Tuwis, Kec. Luwuk Selatan, Kabupaten Banggai";"SULAWESI TENGAH";"94715";"Indonesia";"";"";"";"-0.9955955";"122.7915554";"https://maps.google.com/?cid=0x0:0x953942bcc0078e6c";""
"komplek housing";"Pembangunan Perumahan";"Golden Park";"XQXQ+MF3, Tj. Tuwis, Kec. Luwuk Selatan, Kabupaten Banggai, Sulawesi Tengah";"Kabupaten Banggai, Sulawesi Tengah";"SULAWESI TENGAH";"";"Indonesia";"";"";"";"-1.0008723";"122.7886867";"https://maps.google.com/?cid=0x0:0xbe9d36c582b743e8";""
"komplek housing";"komplek housing";"Luwuk";"Soho, Luwuk, Kabupaten Banggai, Sulawesi Tengah";"Kabupaten Banggai, Sulawesi Tengah";"SULAWESI TENGAH";"";"Indonesia";"";"";"";"-0.938828";"122.792801";"https://maps.google.com/?cid=0x0:0xe6b89a29058c5a5e";""
"komplek housing";"komplek housing";"Kec. Tebet";"Kota Jakarta Selatan, Daerah Khusus Ibukota Jakarta";"Kota Jakarta Selatan, Daerah Khusus Ibukota Jakarta";"SULAWESI TENGAH";"";"Indonesia";"";"";"";"-6.2251223";"106.8549881";"https://maps.google.com/?cid=0x0:0xd575e31c807295f9";""
"komplek housing";"komplek housing";"Kec. Luwuk Selatan";"Kabupaten Banggai, Sulawesi Tengah";"Kabupaten Banggai, Sulawesi Tengah";"SULAWESI TENGAH";"";"Indonesia";"";"";"";"-0.9683732";"122.7880388";"https://maps.google.com/?cid=0x0:0xc7c1b7efaa1f7db5";""
"komplek housing";"Komplek perumahan";"MD House";"Jl. Pulau Bali No.16, Hanga-Hanga Permai, Kec. Luwuk Selatan, Kabupaten Banggai, Sulawesi Tengah 94717";"Hanga-Hanga Permai, Kec. Luwuk Selatan, Kabupaten Banggai";"SULAWESI TENGAH";"94717";"Indonesia";"";"";"";"-0.965933";"122.7842234";"https://maps.google.com/?cid=0x0:0xa90d2beb84258ab2";""
"komplek housing";"Komplek perumahan";"Kost Humairah";"Jl. Pulau Nias, Simpong, Luwuk, Kabupaten Banggai, Sulawesi Tengah 94717";"Simpong, Luwuk, Kabupaten Banggai";"SULAWESI TENGAH";"94717";"Indonesia";" 081354369002";"";"";"-0.9623117";"122.7899759";"https://maps.google.com/?cid=0x0:0xf5f2ba0e04ee60d7";""
"komplek housing";"Komplek perumahan";"Jole pantai luwuk banggai sulawesi tengah";"2QPR+RMP, Jl. Pulau Buru No.19, Simpong, Luwuk, Kabupaten Banggai, Sulawesi Tengah 94715";"Jl. Pulau Buru No.19, Simpong, Luwuk, Kabupaten Banggai";"SULAWESI TENGAH";"94715";"Indonesia";"";"";"";"-0.964458";"122.7909312";"https://maps.google.com/?cid=0x0:0x4ef4ae5b211d48a6";""
"komplek housing";"komplek housing";"Sulawesi Tengah 94723";"Luwuk Tim., Kabupaten Banggai, Sulawesi Tengah";"Kabupaten Banggai, Sulawesi Tengah";"SULAWESI TENGAH";"";"Indonesia";"";"";"";"-0.839586";"123.0113568";"https://maps.google.com/?cid=0x0:0x2de3784bfac7e497";""
"komplek housing";"Komplek perumahan";"Uwedikan (kompleks)";"4335+53C, Uwedikan, Luwuk Tim., Kabupaten Banggai, Sulawesi Tengah 94723";"Uwedikan, Luwuk Tim., Kabupaten Banggai";"SULAWESI TENGAH";"94723";"Indonesia";"";"";"";"-0.897052";"123.0576324";"https://maps.google.com/?cid=0x0:0xa0bdf088e0586f9d";""
"komplek housing";"Toko Ponsel";"RAHMAN CELL";"4XGX+8PF, Pohi, Luwuk Tim., Kabupaten Banggai, Sulawesi Tengah 94723";"Pohi, Luwuk Tim., Kabupaten Banggai";"SULAWESI TENGAH";"94723";"Indonesia";" 085757787330";"";"";"-0.8740641";"122.9986236";"https://maps.google.com/?cid=0x0:0xe606db2df6a612b6";""
"komplek housing";"Komplek perumahan";"Rappe home";"42VW+FCR, Jl. Trans Luwuk, Baya, Luwuk Tim., Kabupaten Banggai, Sulawesi Tengah 94723";"Jl. Trans Luwuk, Baya, Luwuk Tim., Kabupaten Banggai";"SULAWESI TENGAH";"94723";"Indonesia";"";"";"";"-0.8562423";"123.0457583";"https://maps.google.com/?cid=0x0:0x59399d0400840bb3";""
"komplek housing";"Komplek perumahan";"Rumah ece";"42VX+PJX, Jl. Trans Luwuk, Baya, Luwuk Tim., Kabupaten Banggai, Sulawesi Tengah 94723";"Jl. Trans Luwuk, Baya, Luwuk Tim., Kabupaten Banggai";"SULAWESI TENGAH";"94723";"Indonesia";"";"";"";"-0.8554851";"123.0496022";"https://maps.google.com/?cid=0x0:0x476b805879b68674";""
"komplek housing";"Komplek perumahan";"Kompleks mangga dua padang";"42X9+FV2, Hunduhon, Luwuk Tim., Kabupaten Banggai, Sulawesi Tengah";"Kabupaten Banggai, Sulawesi Tengah";"SULAWESI TENGAH";"";"Indonesia";"";"";"";"-0.8513665";"123.0196251";"https://maps.google.com/?cid=0x0:0x1e265c99d3209d01";""
"komplek housing";"Komplek perumahan";"Vita Alung";"42H9+X6G, Hunduhon, Luwuk Tim., Kabupaten Banggai, Sulawesi Tengah 94723";"Hunduhon, Luwuk Tim., Kabupaten Banggai";"SULAWESI TENGAH";"94723";"Indonesia";"";"";"";"-0.8703179";"123.0177962";"https://maps.google.com/?cid=0x0:0x7d17be1bad779c25";""
"komplek housing";"Komplek perumahan";"Home Faisa";"5338+JX2, Bantayan, Luwuk Tim., Kabupaten Banggai, Sulawesi Tengah 94723";"Bantayan, Luwuk Tim., Kabupaten Banggai";"SULAWESI TENGAH";"94723";"Indonesia";"";"";"";"-0.846011";"123.0672071";"https://maps.google.com/?cid=0x0:0xeaba94c62529ef77";""
"komplek housing";"komplek housing";"Rumah R mokoo";"42VC+863, Hunduhon, Luwuk Tim., Kabupaten Banggai, Sulawesi Tengah 94723";"Hunduhon, Luwuk Tim., Kabupaten Banggai";"SULAWESI TENGAH";"94723";"Indonesia";"";"";"";"-0.8563659";"123.0204355";"https://maps.google.com/?cid=0x0:0x31cb4fb878026175";""
"komplek housing";"Komplek perumahan";"Rumahpsekdesbantayan";"5338+JMR, Bantayan, Luwuk Tim., Kabupaten Banggai, Sulawesi Tengah 94723";"Bantayan, Luwuk Tim., Kabupaten Banggai";"SULAWESI TENGAH";"94723";"Indonesia";"";"";"";"-0.8458695";"123.0666391";"https://maps.google.com/?cid=0x0:0x8d8485e0e092774";""
"komplek housing";"Komplek perumahan";"Rumah om salam kuburan cina";"5338+VFQ, Bantayan, Luwuk Tim., Kabupaten Banggai, Sulawesi Tengah 94723";"Bantayan, Luwuk Tim., Kabupaten Banggai";"SULAWESI TENGAH";"94723";"Indonesia";"";"";"";"-0.8452937";"123.0662488";"https://maps.google.com/?cid=0x0:0x1e1ee09cb3f729cd";""
"komplek housing";"Komplek perumahan";"Rumah Hafidzh Alfaith";"622G+QV, Molino, Luwuk Tim., Kabupaten Banggai, Sulawesi Tengah";"Kabupaten Banggai, Sulawesi Tengah";"SULAWESI TENGAH";"";"Indonesia";"";"";"";"-0.7980779";"123.0271544";"https://maps.google.com/?cid=0x0:0x39b258dfbb86e5c0";""
"komplek housing";"Komplek perumahan";"Ryan home";"42VV+W8J, Jl. Trans Luwuk, Baya, Luwuk Tim., Kabupaten Banggai, Sulawesi Tengah 94723";"Jl. Trans Luwuk, Baya, Luwuk Tim., Kabupaten Banggai";"SULAWESI TENGAH";"94723";"Indonesia";"";"";"";"-0.8552221";"123.04429";"https://maps.google.com/?cid=0x0:0x80addf35fcacb8d1";""
"komplek housing";"Tempat Istirahat";"Bayu Louk Kec. Luwuk Timur";"3XXH+7WW, Luwuk Tim., Kabupaten Banggai, Sulawesi Tengah";"Kabupaten Banggai, Sulawesi Tengah";"SULAWESI TENGAH";"";"Indonesia";"";"";"";"-0.901759";"122.9798355";"https://maps.google.com/?cid=0x0:0xf158fd3868894d32";""
"komplek housing";"Komplek perumahan";"Deltatec";"4XFX+M69, Pohi, Luwuk Tim., Kabupaten Banggai, Sulawesi Tengah 94723";"Pohi, Luwuk Tim., Kabupaten Banggai";"SULAWESI TENGAH";"94723";"Indonesia";" 081245695205";"";"";"-0.8756972";"122.9981071";"https://maps.google.com/?cid=0x0:0x94bfe46a25d32958";""
"komplek housing";"Pembangunan Perumahan";"LORONG AGOGO";"42J8+7G8, Hunduhon, Luwuk Tim., Kabupaten Banggai, Sulawesi Tengah 94723";"Hunduhon, Luwuk Tim., Kabupaten Banggai";"SULAWESI TENGAH";"94723";"Indonesia";"";"";"";"-0.8693331";"123.0163305";"https://maps.google.com/?cid=0x0:0x994743b58a85932c";""
"komplek housing";"Komplek perumahan";"Rumah Hamid";"5339+57R, Bantayan, Luwuk Tim., Kabupaten Banggai, Sulawesi Tengah 94723";"Bantayan, Luwuk Tim., Kabupaten Banggai";"SULAWESI TENGAH";"94723";"Indonesia";"";"";"";"-0.8486598";"123.0693211";"https://maps.google.com/?cid=0x0:0x60a3985e48d84c5c";""
"komplek housing";"Komplek perumahan";"Preis";"4X2F+PWJ, Louk, Luwuk Tim., Kabupaten Banggai, Sulawesi Tengah 94723";"Louk, Luwuk Tim., Kabupaten Banggai";"SULAWESI TENGAH";"94723";"Indonesia";"";"";"";"-0.8981574";"122.9747512";"https://maps.google.com/?cid=0x0:0x54d97feb453d52f8";""
"komplek housing";"Komplek perumahan";"Yaris T. Lagarinda";"42R9+GWF, Jl. Trans Luwuk, Hunduhon, Luwuk Tim., Kabupaten Banggai, Sulawesi Tengah 94723";"Jl. Trans Luwuk, Hunduhon, Luwuk Tim., Kabupaten Banggai";"SULAWESI TENGAH";"94723";"Indonesia";"";"";"";"-0.8586822";"123.0198028";"https://maps.google.com/?cid=0x0:0xb12e863c40e4699";""
"komplek housing";"komplek housing";"Luwuk Tim.";"Kabupaten Banggai, Sulawesi Tengah";"Kabupaten Banggai, Sulawesi Tengah";"SULAWESI TENGAH";"";"Indonesia";"";"";"";"-0.839586";"123.0113568";"https://maps.google.com/?cid=0x0:0x458d31529908d07d";""
"komplek housing";"Pembangunan Perumahan";"Damak";"4XHG+QQC, Lontos, Luwuk Tim., Kabupaten Banggai, Sulawesi Tengah 94723";"Lontos, Luwuk Tim., Kabupaten Banggai";"SULAWESI TENGAH";"94723";"Indonesia";"";"";"";"-0.8705746";"122.9768847";"https://maps.google.com/?cid=0x0:0x7f498c7f9e7107d";""
"komplek housing";"Komplek perumahan";"Rumah nya inal";"5339+57R, Bantayan, Luwuk Tim., Kabupaten Banggai, Sulawesi Tengah 94723";"Bantayan, Luwuk Tim., Kabupaten Banggai";"SULAWESI TENGAH";"94723";"Indonesia";"";"";"";"-0.8479236";"123.0683984";"https://maps.google.com/?cid=0x0:0xa5920a1df28bd6";""
"komplek housing";"Pembangunan Perumahan";"Rumah Sarlin Hi Kader";"42J8+3MP, Hunduhon, Luwuk Tim., Kabupaten Banggai, Sulawesi Tengah 94723";"Hunduhon, Luwuk Tim., Kabupaten Banggai";"SULAWESI TENGAH";"94723";"Indonesia";"";"";"";"-0.870106";"123.017215";"https://maps.google.com/?cid=0x0:0x2dce84b7d259188f";""
"komplek housing";"Rumah Kayu";"Rizal CAMP";"Jl. Siswa, Boitan, Luwuk, Kabupaten Banggai, Sulawesi Tengah 94723";"Boitan, Luwuk, Kabupaten Banggai";"SULAWESI TENGAH";"94723";"Indonesia";" 085796796153";"";"";"-0.7936191";"123.0888632";"https://maps.google.com/?cid=0x0:0x72d275ce509594d8";""
"komplek housing";"Komplek perumahan";"Rumah Linda";"622F+8RQ, Molino, Luwuk Tim., Kabupaten Banggai, Sulawesi Tengah 94723";"Molino, Luwuk Tim., Kabupaten Banggai";"SULAWESI TENGAH";"94723";"Indonesia";"";"";"";"-0.7991527";"123.0246013";"https://maps.google.com/?cid=0x0:0xd2f3bccebde5d246";""
"komplek housing";"Perhimpunan Pengembang Perumahan";"Tempat Nongkrong JUMP STREET";"42J9+J83, Jl. Trans Luwuk, Hunduhon, Luwuk Tim., Kabupaten Banggai, Sulawesi Tengah 94723";"Jl. Trans Luwuk, Hunduhon, Luwuk Tim., Kabupaten Banggai";"SULAWESI TENGAH";"94723";"Indonesia";"";"";"";"-0.8684788";"123.0183115";"https://maps.google.com/?cid=0x0:0x4e4dd696042bd811";""
"komplek housing";"Komplek perumahan";"BASECAMP ANDIKA";"4245+37G, Jl. Trans Luwuk, Kayutanyo, Luwuk Tim., Kabupaten Banggai, Sulawesi Tengah 94723";"Jl. Trans Luwuk, Kayutanyo, Luwuk Tim., Kabupaten Banggai";"SULAWESI TENGAH";"94723";"Indonesia";"";"";"";"-0.8946051";"123.0080628";"https://maps.google.com/?cid=0x0:0xf5cc3153f74eabd4";""
"komplek housing";"Komplek perumahan";"Pertigaan bulakan";"4XFJ+V7W, Lontos, Luwuk Tim., Kabupaten Banggai, Sulawesi Tengah 94723";"Lontos, Luwuk Tim., Kabupaten Banggai";"SULAWESI TENGAH";"94723";"Indonesia";"";"";"";"-0.8752601";"122.9806996";"https://maps.google.com/?cid=0x0:0x1f9dccff1d99ed4e";""
"komplek housing";"komplek housing";"Sulawesi Tengah 94711";"Luwuk, Kabupaten Banggai, Sulawesi Tengah";"Kabupaten Banggai, Sulawesi Tengah";"SULAWESI TENGAH";"";"Indonesia";"";"";"";"-0.971116";"122.740723";"https://maps.google.com/?cid=0x0:0x99dfbe03dbb8318d";""
"komplek housing";"Komplek perumahan";"Home S Mahiwa";"2QPM+8P7, Hanga-Hanga, Kec. Luwuk Selatan, Kabupaten Banggai, Sulawesi Tengah";"Kabupaten Banggai, Sulawesi Tengah";"SULAWESI TENGAH";"";"Indonesia";"";"";"";"-0.9642179";"122.784282";"https://maps.google.com/?cid=0x0:0x371c542060d45ed9";""
"komplek housing";"Komplek perumahan";"lumba lumba (kompleks)";"2QVR+3M3, Jl. Yos Sudarso, Karaton, Luwuk, Kabupaten Banggai, Sulawesi Tengah 94711";"Jl. Yos Sudarso, Karaton, Luwuk, Kabupaten Banggai";"SULAWESI TENGAH";"94711";"Indonesia";"";"";"";"-0.957356";"122.7916585";"https://maps.google.com/?cid=0x0:0xa1cef43bcac1da0f";""
"komplek housing";"Komplek perumahan";"GICEILYO HOME";"Puge Atas Lapangan Voly, Bukit Mambual, Luwuk Selatan, Banggai Regency, Central Sulawesi 94711";"Bukit Mambual, Luwuk Selatan, Banggai Regency";"SULAWESI TENGAH";"94711";"Indonesia";" 085299560789";"";"";"-0.9730806";"122.7803422";"https://maps.google.com/?cid=0x0:0x20a6a5c0ce5e362f";""
"komplek housing";"Komplek perumahan";"Lili's home";"2QMJ+FG8, Jl. Mawar, Hanga-Hanga Permai, Kec. Luwuk Selatan, Kabupaten Banggai, Sulawesi Tengah";"Kabupaten Banggai, Sulawesi Tengah";"SULAWESI TENGAH";"";"Indonesia";"";"";"";"-0.9663419";"122.7813237";"https://maps.google.com/?cid=0x0:0x8aa3a319e6bc01d3";""
"komplek housing";"Komplek perumahan";"Addina's house";"Jl. Cumi-Cumi No.Kel, Maahas, Kec. Luwuk Selatan, Kabupaten Banggai, Sulawesi Tengah 94711";"Maahas, Kec. Luwuk Selatan, Kabupaten Banggai";"SULAWESI TENGAH";"94711";"Indonesia";"";"";"";"-0.9738955";"122.7849645";"https://maps.google.com/?cid=0x0:0xf939ae669c8c1840";""
"komplek housing";"Pembangunan Perumahan";"Taqwa Home";"2QQG+GQC, Kompo, Kec. Luwuk Selatan, Kabupaten Banggai, Sulawesi Tengah 94713";"Kompo, Kec. Luwuk Selatan, Kabupaten Banggai";"SULAWESI TENGAH";"94713";"Indonesia";"";"";"";"-0.9611996";"122.776905";"https://maps.google.com/?cid=0x0:0x82291a64c091d6bf";""
"komplek housing";"Pondok";"Kost Koh Ol";"2QHM+F36, Jl. Tuna, Hanga-Hanga Permai, Kec. Luwuk Selatan, Kabupaten Banggai, Sulawesi Tengah 94711";"Jl. Tuna, Hanga-Hanga Permai, Kec. Luwuk Selatan, Kabupaten Banggai";"SULAWESI TENGAH";"94711";"Indonesia";"";"";"";"-0.9713394";"122.7826507";"https://maps.google.com/?cid=0x0:0x86f201cad910718";""
"komplek housing";"Komplek perumahan";"Kids  baby terapi luwuk";"Jl. RA. Kartini, Karaton, Luwuk, Kabupaten Banggai, Sulawesi Tengah 94711";"Karaton, Luwuk, Kabupaten Banggai";"SULAWESI TENGAH";"94711";"Indonesia";" 082399411119";"";"";"-0.9584684";"122.7899416";"https://maps.google.com/?cid=0x0:0x7422dd5fa3d108e3";""
"komplek housing";"Komplek perumahan";"EL HOMEE";"2QGG+VVJ, Bukit Mambual, Kec. Luwuk Selatan, Kabupaten Banggai, Sulawesi Tengah";"Kabupaten Banggai, Sulawesi Tengah";"SULAWESI TENGAH";"";"Indonesia";"";"";"";"-0.9727826";"122.7771374";"https://maps.google.com/?cid=0x0:0x95be14b568859dc2";""
"komplek housing";"Perumahan";"Home ian";"2QHJ+749, Bukit Mambual, Kec. Luwuk Selatan, Kabupaten Banggai, Sulawesi Tengah 94711";"Bukit Mambual, Kec. Luwuk Selatan, Kabupaten Banggai";"SULAWESI TENGAH";"94711";"Indonesia";"";"";"";"-0.9718404";"122.7803694";"https://maps.google.com/?cid=0x0:0x1acb86845e1303d1";""
"komplek housing";"Pembangunan Perumahan";"Home Yulie Tubigo";"2QMJ+MPM, Kompo, Kec. Luwuk Selatan, Kabupaten Banggai, Sulawesi Tengah 94713";"Kompo, Kec. Luwuk Selatan, Kabupaten Banggai";"SULAWESI TENGAH";"94713";"Indonesia";"";"";"";"-0.9657862";"122.7817913";"https://maps.google.com/?cid=0x0:0xebe29ad43dc4322d";""
"komplek housing";"Komplek perumahan";"Chenny Home";"2QXJ+8HV, Tontouan, Luwuk, Kabupaten Banggai, Sulawesi Tengah 94712";"Tontouan, Luwuk, Kabupaten Banggai";"SULAWESI TENGAH";"94712";"Indonesia";"";"";"";"-0.9515614";"122.781636";"https://maps.google.com/?cid=0x0:0x40ca29b4a9e74e25";""
