Category,Real Category,Business Name,Address,City,State,Postal Code,Country,Phone,Email,Website,Latitude,Longitude,Map Link,Details Link
restaurant,restaurant,Tolala,"Tolala, Kec. Tolala, Kabupaten Kolaka Utara, Sulawesi Tenggara","Kabupaten Kolaka Utara, Sulawesi Tenggara",SULAWESI TENGGARA,,Indonesia,,,,-2.929746,121.094101,https://maps.google.com/?cid=0x0:0xee1ecf24e29b1476,
restaurant,Indonesia,DAPUR SHANUM,"Jl. Poros Lasusua - Ranteangin, Tojabi, Kec. Lasusua, Kabupaten Kolaka Utara, Sulawesi Tenggara 93916","Tojabi, Kec. Lasusua, Kabupaten Kolaka Utara",SULAWESI TENGGARA,93916.0,Indonesia,81342387888.0,,,-3.5159666,120.9050552,https://maps.google.com/?cid=0x0:0xad6a233ae8d4e922,
restaurant,Restoran,Faith Kitchen Cafe and BBQ,"Jalan Tomangera, Patowonua, Kec. Lasusua, Kabupaten Kolaka Utara, Sulawesi Tenggara 93911","Patowonua, Kec. Lasusua, Kabupaten Kolaka Utara",SULAWESI TENGGARA,93911.0,Indonesia,82195819030.0,,,-3.5058955,120.8853449,https://maps.google.com/?cid=0x0:0xbf63445af3ec07aa,
restaurant,Restoran,Rumah makan sulawesi,"33CQ+634, Tolala, Kec. Tolala, Kabupaten Kolaka Utara, Sulawesi Tenggara","Kabupaten Kolaka Utara, Sulawesi Tenggara",SULAWESI TENGGARA,,Indonesia,,,,-2.9294922,121.0877095,https://maps.google.com/?cid=0x0:0xde8af1d66ac8d59,
restaurant,Hotel,Rumah Makan DINI,"336P+GVH, Jl. Poros Malili - Batuputih, Bahari, Kec. Tolala, Kabupaten Kolaka Utara, Sulawesi Tenggara 93955","Jl. Poros Malili - Batuputih, Bahari, Kec. Tolala, Kabupaten Kolaka Utara",SULAWESI TENGGARA,93955.0,Indonesia,,,,-2.9386967,121.0872401,https://maps.google.com/?cid=0x0:0xf4aa52eff3fafdf,
restaurant,Sarapan,The Butter House,"1760 Fremont Blvd Suite B-1, Seaside, CA 93955, Amerika Serikat","Seaside, CA",SULAWESI TENGGARA,93955.0,Indonesia,18313942887.0,,,36.6138598,-121.8422205,https://maps.google.com/?cid=0x0:0x9f62e42083f848ee,
restaurant,Restoran,Googie Grill,"1520 Del Monte Blvd, Seaside, CA 93955, Amerika Serikat","Seaside, CA",SULAWESI TENGGARA,93955.0,Indonesia,18313921520.0,,,36.6079632,-121.8546012,https://maps.google.com/?cid=0x0:0x68b959cb1d1bae15,
restaurant,Meksiko,La Tortuga,"1257 Fremont Blvd, Seaside, CA 93955, Amerika Serikat","Seaside, CA",SULAWESI TENGGARA,93955.0,Indonesia,18313948320.0,,,36.6039631,-121.8483437,https://maps.google.com/?cid=0x0:0xc11dc3bf740a0459,
restaurant,Restoran Amerika,Maligne,"600 Broadway Ave, Seaside, CA 93955, Amerika Serikat","Seaside, CA",SULAWESI TENGGARA,93955.0,Indonesia,18316011302.0,,,36.6090545,-121.8504567,https://maps.google.com/?cid=0x0:0xec85325147ae366d,
restaurant,Restoran,The Breakfast Club,"1130 Fremont Blvd #201, Seaside, CA 93955, Amerika Serikat","Seaside, CA",SULAWESI TENGGARA,93955.0,Indonesia,18313943238.0,,,36.6005637,-121.848711,https://maps.google.com/?cid=0x0:0xcf4c2b8f151a9f1f,
restaurant,Meksiko,Jose's Mexican Food,"1612 Del Monte Blvd, Seaside, CA 93955, Amerika Serikat","Seaside, CA",SULAWESI TENGGARA,93955.0,Indonesia,18318990345.0,,,36.6096631,-121.8519846,https://maps.google.com/?cid=0x0:0xb8e6f9aa7f6e88a8,
restaurant,Vietnam,Baan Thai Restaurant,"1760 Fremont Blvd F1, Seaside, CA 93955, Amerika Serikat","Seaside, CA",SULAWESI TENGGARA,93955.0,Indonesia,18313942996.0,,,36.6134299,-121.8420602,https://maps.google.com/?cid=0x0:0x45dce84e7f08ddbf,
restaurant,China,German Restaurant Stammtisch,"1204 Echo Ave, Seaside, CA 93955, Amerika Serikat","Seaside, CA",SULAWESI TENGGARA,93955.0,Indonesia,18318993070.0,,,36.6137605,-121.8402767,https://maps.google.com/?cid=0x0:0x9445dbcc8867a50d,
restaurant,Meksiko,Mariscos Puerto Nuevo,"580 Broadway Ave, Seaside, CA 93955, Amerika Serikat","Seaside, CA",SULAWESI TENGGARA,93955.0,Indonesia,18315830411.0,,,36.6091376,-121.8508793,https://maps.google.com/?cid=0x0:0x7564aa7f9570e2b1,
restaurant,Meksiko,El Pollo Rey,"1188 Broadway Ave, Seaside, CA 93955, Amerika Serikat","Seaside, CA",SULAWESI TENGGARA,93955.0,Indonesia,18317174744.0,,,36.6089064,-121.8407248,https://maps.google.com/?cid=0x0:0x987b994bf1ceb469,
restaurant,Meksiko,Las Marias Bar  Grill,"1732 Fremont Blvd, Seaside, CA 93955, Amerika Serikat","Seaside, CA",SULAWESI TENGGARA,93955.0,Indonesia,18317471877.0,,,36.6125506,-121.8435072,https://maps.google.com/?cid=0x0:0x647a64051dfd04c9,
restaurant,Restoran,Silver Tide Bar  Grill,"1441 Canyon Del Rey Blvd, Seaside, CA 93955, Amerika Serikat","Seaside, CA",SULAWESI TENGGARA,93955.0,Indonesia,18313931115.0,,,36.6067431,-121.8563462,https://maps.google.com/?cid=0x0:0xdd8fdaad234fbb0a,
restaurant,Sushi,Sushi Time,"1153 Fremont Blvd, Seaside, CA 93955, Amerika Serikat","Seaside, CA",SULAWESI TENGGARA,93955.0,Indonesia,18318845011.0,,,36.6016176,-121.8495946,https://maps.google.com/?cid=0x0:0xcfef31ede0b9a760,
restaurant,Pizza,Gusto Handcrafted Pasta  Pizza,"1901 Fremont Blvd, Seaside, CA 93955, Amerika Serikat","Seaside, CA",SULAWESI TENGGARA,93955.0,Indonesia,18318995825.0,,,36.617033,-121.842083,https://maps.google.com/?cid=0x0:0xf5f90f9989d696ad,
restaurant,Meksiko,Taco's California Grill,"400 Palm Ave, Seaside, CA 93955, Amerika Serikat","Seaside, CA",SULAWESI TENGGARA,93955.0,Indonesia,18313941080.0,,,36.608428,-121.853543,https://maps.google.com/?cid=0x0:0x75af457a5c301f48,
restaurant,Meksiko,Las Cazuelas Taqueria,"880 Broadway Ave, Seaside, CA 93955, Amerika Serikat","Seaside, CA",SULAWESI TENGGARA,93955.0,Indonesia,18316417832.0,,,36.6089831,-121.8464812,https://maps.google.com/?cid=0x0:0xcc1e382d863c298d,
restaurant,restaurant,Michelle's Soul Food Kitchen,"2087 Del Monte Blvd, Seaside, CA 93955, Amerika Serikat","Seaside, CA",SULAWESI TENGGARA,93955.0,Indonesia,18317602386.0,,,36.6214152,-121.8414496,https://maps.google.com/?cid=0x0:0xde54b8d4273a3fe4,
restaurant,restaurant,Kec. Watunohu,"Kabupaten Kolaka Utara, Sulawesi Tenggara","Kabupaten Kolaka Utara, Sulawesi Tenggara",SULAWESI TENGGARA,,Indonesia,,,,-3.2963575,120.9960062,https://maps.google.com/?cid=0x0:0xea2f7b5cb0f3f0ff,
restaurant,Restoran,Warung Pika Samaturu 24jm,"PX5X+2W2, Samaturu, Kec. Watunohu, Kabupaten Kolaka Utara, Sulawesi Tenggara 93958","Samaturu, Kec. Watunohu, Kabupaten Kolaka Utara",SULAWESI TENGGARA,93958.0,Indonesia,,,,-3.2924837,120.9997789,https://maps.google.com/?cid=0x0:0x8f717679b97b3104,
restaurant,Prasmanan,Warung Prasmanan Hj.Diana,"P225+V5W, Lapai, Kec. Ngapa, Kabupaten Kolaka Utara, Sulawesi Tenggara 93958","Lapai, Kec. Ngapa, Kabupaten Kolaka Utara",SULAWESI TENGGARA,93958.0,Indonesia,,,,-3.2977685,121.0079462,https://maps.google.com/?cid=0x0:0x1cd0fcbcea1b755d,
restaurant,Grosir,Mila,"PX4X+J9W, Samaturu, Kec. Watunohu, Kabupaten Kolaka Utara, Sulawesi Tenggara 93958","Samaturu, Kec. Watunohu, Kabupaten Kolaka Utara",SULAWESI TENGGARA,93958.0,Indonesia,,,,-3.2933853,120.9984625,https://maps.google.com/?cid=0x0:0xa9989373782af582,
restaurant,Restoran,Warung Pangkep Sop Saudara H. Anwar Lapai,"Jl. Poros Lapai - Malili, Beringin, Kec. Ngapa, Kabupaten Kolaka Utara, Sulawesi Tenggara 93958","Beringin, Kec. Ngapa, Kabupaten Kolaka Utara",SULAWESI TENGGARA,93958.0,Indonesia,82393246456.0,,,-3.2976472,121.0009255,https://maps.google.com/?cid=0x0:0xbf050818a89ae59d,
restaurant,Bakso,Warung Bakso dan Mie Ayam Soponyono 88,"PX3X+4P3, Beringin, Kec. Ngapa, Kabupaten Kolaka Utara, Sulawesi Tenggara 93958","Beringin, Kec. Ngapa, Kabupaten Kolaka Utara",SULAWESI TENGGARA,93958.0,Indonesia,81393999090.0,,,-3.2972464,120.9992947,https://maps.google.com/?cid=0x0:0x6345d82f347e89e5,
restaurant,Restoran,Warung Makan,"MXGH+296, Jl. Poros Olooloho - Lasusua, Lapolu, Kec. Kodeoha, Kabupaten Kolaka Utara, Sulawesi Tenggara 93958","Jl. Poros Olooloho - Lasusua, Lapolu, Kec. Kodeoha, Kabupaten Kolaka Utara",SULAWESI TENGGARA,93958.0,Indonesia,82292080404.0,,,-3.3249555,120.9783955,https://maps.google.com/?cid=0x0:0x38d5a6b5746126ba,
restaurant,Prasmanan,Warung Prasmanan Saudah,"P222+X82, Beringin, Kec. Ngapa, Kabupaten Kolaka Utara, Sulawesi Tenggara 93958","Beringin, Kec. Ngapa, Kabupaten Kolaka Utara",SULAWESI TENGGARA,93958.0,Indonesia,8114666333.0,,,-3.2976145,121.000779,https://maps.google.com/?cid=0x0:0xcb90b06b7236d493,
restaurant,Restoran,Warung Tak Disangka,"P232+48W, Kawasan pasar, Lapai, Kec. Ngapa, Kabupaten Kolaka Utara, Sulawesi Tenggara 93958","Kawasan pasar, Lapai, Kec. Ngapa, Kabupaten Kolaka Utara",SULAWESI TENGGARA,93958.0,Indonesia,85242150545.0,,,-3.2971881,121.0007777,https://maps.google.com/?cid=0x0:0xfbf693d7ab861bb2,
restaurant,Bakso,Warung Makan Dan Kedai Bakso TIGA SEVEN,"Jl. Poros Olooloho - Lasusua, Lapai, Kec. Ngapa, Kabupaten Kolaka Utara, Sulawesi Tenggara 93958","Lapai, Kec. Ngapa, Kabupaten Kolaka Utara",SULAWESI TENGGARA,93958.0,Indonesia,82349346228.0,,,-3.3005997,121.006761,https://maps.google.com/?cid=0x0:0x98612300ea62ca5c,
restaurant,Kedai Kopi,Warkop Ahmad,"PX3W+C5H, Jl. Poros Lapai - Malili, Dusun II, Lahabaru, Kec. Watunohu, Kabupaten Kolaka Utara, Sulawesi Tenggara 93958","Jl. Poros Lapai - Malili, Dusun II, Lahabaru, Kec. Watunohu, Kabupaten Kolaka Utara",SULAWESI TENGGARA,93958.0,Indonesia,82346936615.0,,,-3.2964357,120.99549,https://maps.google.com/?cid=0x0:0xe6b3ab3d3daabcc6,
restaurant,Bakso,"Rm. Ikan Rumah Seng"" Aroma Malluse Tasi""","PX3W+GHQ, Jl. Poros Lapai - Malili, Lahabaru, Kec. Watunohu, Kabupaten Kolaka Utara, Sulawesi Tenggara 93958","Jl. Poros Lapai - Malili, Lahabaru, Kec. Watunohu, Kabupaten Kolaka Utara",SULAWESI TENGGARA,93958.0,Indonesia,,,,-3.2961707,120.9964946,https://maps.google.com/?cid=0x0:0xad8919a12efd93a2,
restaurant,Sulawesi Selatan,Hidangan Coto Makassar Dg.muntu,"P222+VHW, Beringin, Kec. Ngapa, Kabupaten Kolaka Utara, Sulawesi Tenggara 93958","Beringin, Kec. Ngapa, Kabupaten Kolaka Utara",SULAWESI TENGGARA,93958.0,Indonesia,82292614182.0,,,-3.2977681,121.0014606,https://maps.google.com/?cid=0x0:0x174efb60a3697d39,
restaurant,Kedai Kopi,wira house cafe,"P233+77C, Unnamed Road, Beringin, Kec. Ngapa, Kabupaten Kolaka Utara, Sulawesi Tenggara 93958","Unnamed Road, Beringin, Kec. Ngapa, Kabupaten Kolaka Utara",SULAWESI TENGGARA,93958.0,Indonesia,85271430809.0,,,-3.2968194,121.0031443,https://maps.google.com/?cid=0x0:0x8998da2c4203efb1,
restaurant,Restoran,WAROENG THA,"Q23R+958, Jl. Poros Lapai - Malili, Kasumeeto, Kec. Pakue, Kabupaten Kolaka Utara, Sulawesi Tenggara 93954","Jl. Poros Lapai - Malili, Kasumeeto, Kec. Pakue, Kabupaten Kolaka Utara",SULAWESI TENGGARA,93954.0,Indonesia,,,,-3.2465949,121.0404547,https://maps.google.com/?cid=0x0:0x39081c2587f335f0,
restaurant,Sulawesi Selatan,WARUNG PANGKEP,"PX3X+5F3, Jl. Poros Lapai - Malili, Beringin, Kec. Ngapa, Kabupaten Kolaka Utara, Sulawesi Tenggara 93958","Jl. Poros Lapai - Malili, Beringin, Kec. Ngapa, Kabupaten Kolaka Utara",SULAWESI TENGGARA,93958.0,Indonesia,,,,-3.2971042,120.9986589,https://maps.google.com/?cid=0x0:0xc294dc5e488435a2,
restaurant,Sate,warung sate putra jawa,"P232+2F3, Beringin, Kec. Ngapa, Kabupaten Kolaka Utara, Sulawesi Tenggara 93958","Beringin, Kec. Ngapa, Kabupaten Kolaka Utara",SULAWESI TENGGARA,93958.0,Indonesia,8113443764.0,,,-3.297482,121.00118,https://maps.google.com/?cid=0x0:0xcc920b4d3b14f946,
restaurant,Dapur Umum,RM Berkah ALL,"Jl. Poros Lapai - Malili, Beringin, Kec. Ngapa, Kabupaten Kolaka Utara, Sulawesi Tenggara 93958","Beringin, Kec. Ngapa, Kabupaten Kolaka Utara",SULAWESI TENGGARA,93958.0,Indonesia,,,,-3.299164,121.0040777,https://maps.google.com/?cid=0x0:0x49bac8dbbe8d3884,
restaurant,Brunch,Crispy Geprek Kolut,"P2PJ+P32, Toaha, Kec. Pakue, Kabupaten Kolaka Utara, Sulawesi Tenggara 93954","Toaha, Kec. Pakue, Kabupaten Kolaka Utara",SULAWESI TENGGARA,93954.0,Indonesia,85399053550.0,,,-3.2632478,121.0301391,https://maps.google.com/?cid=0x0:0x175337260ea7a79a,
restaurant,Restoran,Teras Amour,"Jl. Abdullah Silondae, Beringin, Kec. Ngapa, Kabupaten Kolaka Utara, Sulawesi Tenggara 93958","Beringin, Kec. Ngapa, Kabupaten Kolaka Utara",SULAWESI TENGGARA,93958.0,Indonesia,,,,-3.2976744,121.0017801,https://maps.google.com/?cid=0x0:0xe250450426f7279b,
restaurant,Restoran,Dapur Mama Arianti,"Kasumeeto, Kec. Pakue, Kabupaten Kolaka Utara, Sulawesi Tenggara 93954","Kec. Pakue, Kabupaten Kolaka Utara",SULAWESI TENGGARA,93954.0,Indonesia,82259986115.0,,,-3.2418033,121.0397973,https://maps.google.com/?cid=0x0:0x509068f8e5034985,
restaurant,Kafe,Pencucian Aladin,"P263+HHJ, Jl. Poros Lapai - Malili, Samaturu, Kec. Watunohu, Kabupaten Kolaka Utara, Sulawesi Tenggara 93958","Jl. Poros Lapai - Malili, Samaturu, Kec. Watunohu, Kabupaten Kolaka Utara",SULAWESI TENGGARA,93958.0,Indonesia,,,,-3.2885292,121.0039014,https://maps.google.com/?cid=0x0:0x544141c1185b069e,
restaurant,Restoran,Faith Kitchen Cafe and BBQ,"Jalan Tomangera, Patowonua, Kec. Lasusua, Kabupaten Kolaka Utara, Sulawesi Tenggara 93911","Patowonua, Kec. Lasusua, Kabupaten Kolaka Utara",SULAWESI TENGGARA,93911.0,Indonesia,82195819030.0,,,-3.5058955,120.8853449,https://maps.google.com/?cid=0x0:0xbf63445af3ec07aa,
restaurant,Soto,"Warung Barru 01 menjual Coto kuda,Coto sapi,soto ayam dll","PX3X+W8V, Samaturu, Kec. Watunohu, Kabupaten Kolaka Utara, Sulawesi Tenggara 93958","Samaturu, Kec. Watunohu, Kabupaten Kolaka Utara",SULAWESI TENGGARA,93958.0,Indonesia,85399516859.0,,,-3.2951416,120.9983023,https://maps.google.com/?cid=0x0:0x6f00807007f27d5d,
restaurant,Kafe,B'Rasa#Rasainiuntukmusaja,"Jl.Trans Sulawesi, Kamisi, Kec. Kodeoha, Kabupaten Kolaka Utara, Sulawesi Tenggara","Kabupaten Kolaka Utara, Sulawesi Tenggara",SULAWESI TENGGARA,,Indonesia,82220222249.0,,,-3.3484636,120.9486204,https://maps.google.com/?cid=0x0:0xc73238ee8989c14f,
restaurant,Kedai Kopi,Momoyo lapai,"M2X4+564, Lapai, Kec. Ngapa, Kabupaten Kolaka Utara, Sulawesi Tenggara 93958","Lapai, Kec. Ngapa, Kabupaten Kolaka Utara",SULAWESI TENGGARA,93958.0,Indonesia,82237277356.0,,,-3.3021236,121.0055654,https://maps.google.com/?cid=0x0:0xf419072862d3214c,
restaurant,restaurant,Kec. Wawo,"Kabupaten Kolaka Utara, Sulawesi Tenggara","Kabupaten Kolaka Utara, Sulawesi Tenggara",SULAWESI TENGGARA,,Indonesia,,,,-3.6780928,121.0413713,https://maps.google.com/?cid=0x0:0x748e72d6124032b8,
restaurant,Brunch,Rest Area,"73RC+6X6, Walasiho, Kec. Wawo, Kabupaten Kolaka Utara, Sulawesi Tenggara 93956","Walasiho, Kec. Wawo, Kabupaten Kolaka Utara",SULAWESI TENGGARA,93956.0,Indonesia,,,,-3.7094575,121.072396,https://maps.google.com/?cid=0x0:0x48f9e20e3b702079,
restaurant,Kedai Kopi,Warung Pantai Indah,"73VC+545, Walasiho, Kec. Wawo, Kabupaten Kolaka Utara, Sulawesi Tenggara 93956","Walasiho, Kec. Wawo, Kabupaten Kolaka Utara",SULAWESI TENGGARA,93956.0,Indonesia,82291525471.0,,,-3.7071073,121.0703679,https://maps.google.com/?cid=0x0:0x564ec013f6af8d2c,
restaurant,Rumah Makan,Warung makan Barokah,"83V2+3X2, Jl. Poros Ranteangin - Kolaka, Salurengko, Kec. Wawo, Kabupaten Kolaka Utara, Sulawesi Tenggara 93956","Jl. Poros Ranteangin - Kolaka, Salurengko, Kec. Wawo, Kabupaten Kolaka Utara",SULAWESI TENGGARA,93956.0,Indonesia,,,,-3.6573736,121.0523984,https://maps.google.com/?cid=0x0:0x1166bd745370cfd7,
restaurant,Rumah Makan,WARUNG FIKHI WAWO,"826P+VWP, Wawo, Kec. Wawo, Kabupaten Kolaka Utara, Sulawesi Tenggara 93956","Wawo, Kec. Wawo, Kabupaten Kolaka Utara",SULAWESI TENGGARA,93956.0,Indonesia,,,,-3.6877811,121.0373375,https://maps.google.com/?cid=0x0:0x304515337d8738f6,
restaurant,restaurant,ISTO CAFE,"Ulu Wawo, Kec. Wawo, Kabupaten Kolaka Utara, Sulawesi Tenggara 93956","Kec. Wawo, Kabupaten Kolaka Utara",SULAWESI TENGGARA,93956.0,Indonesia,,,,-3.6890752,121.0352254,https://maps.google.com/?cid=0x0:0xf9d694120be627a,
restaurant,Padang,PENGINAPAN PARAIKATTE  Rumah Makan,"Jl. Poros Ranteangin - Kolaka, Tamborasi, Kec. Wolo, Kabupaten Kolaka, Sulawesi Tenggara 93552","Tamborasi, Kec. Wolo, Kabupaten Kolaka",SULAWESI TENGGARA,93552.0,Indonesia,85394565055.0,,,-3.760462,121.1226294,https://maps.google.com/?cid=0x0:0x395affafab94b50,
restaurant,Restoran,Warung palekko sidenreng / cek point DIS,"Jl. Poros Ranteangin - Kolaka, Walasiho, Kec. Wawo, Kabupaten Kolaka Utara, Sulawesi Tenggara 93956","Walasiho, Kec. Wawo, Kabupaten Kolaka Utara",SULAWESI TENGGARA,93956.0,Indonesia,,,,-3.7071101,121.0706323,https://maps.google.com/?cid=0x0:0xf72deb1f98d8056,
restaurant,Indonesia,Rumah Makan TAMBORA PUTRA,"82FR+6FX, Puumbolo, Kec. Wawo, Kabupaten Kolaka Utara, Sulawesi Tenggara 93956","Puumbolo, Kec. Wawo, Kabupaten Kolaka Utara",SULAWESI TENGGARA,93956.0,Indonesia,85394025833.0,,,-3.6768782,121.041225,https://maps.google.com/?cid=0x0:0xf26898cf8e72b7f2,
restaurant,Rumah Makan,RM. Wisata,"64QF+3R4, Jl. Poros Ranteangin - Kolaka, Tamborasi, Kec. Wolo, Kabupaten Kolaka, Sulawesi Tenggara 93552","Jl. Poros Ranteangin - Kolaka, Tamborasi, Kec. Wolo, Kabupaten Kolaka",SULAWESI TENGGARA,93552.0,Indonesia,,,,-3.7623705,121.1245819,https://maps.google.com/?cid=0x0:0x285b208c3fc097cc,
restaurant,Restoran,Bunda rara,"Jl. Poros Ranteangin - Kolaka, Walasiho, Kec. Wawo, Kabupaten Kolaka Utara, Sulawesi Tenggara 93956","Walasiho, Kec. Wawo, Kabupaten Kolaka Utara",SULAWESI TENGGARA,93956.0,Indonesia,82324460428.0,,,-3.7073279,121.0708256,https://maps.google.com/?cid=0x0:0xc1cd21d1f3f19664,
restaurant,Restoran,Rumah Makan Simpatig,"Jl. Poros Ranteangin - Kolaka No.17, Rante Angin, Kecamatan Rante Angin, Kabupaten Kolaka Utara, Sulawesi Tenggara 93956","Rante Angin, Kecamatan Rante Angin, Kabupaten Kolaka Utara",SULAWESI TENGGARA,93956.0,Indonesia,81341545850.0,,,-3.6658049,121.0360698,https://maps.google.com/?cid=0x0:0xcc272d3aa4fe4e36,
restaurant,Restoran,Faith Kitchen Cafe and BBQ,"Jalan Tomangera, Patowonua, Kec. Lasusua, Kabupaten Kolaka Utara, Sulawesi Tenggara 93911","Patowonua, Kec. Lasusua, Kabupaten Kolaka Utara",SULAWESI TENGGARA,93911.0,Indonesia,82195819030.0,,,-3.5058955,120.8853449,https://maps.google.com/?cid=0x0:0xbf63445af3ec07aa,
restaurant,Restoran,Rumah Makan Laura,"82WW+MQ8, Jl. Poros Ranteangin - Kolaka, Rante Baru, Kecamatan Rante Angin, Kabupaten Kolaka Utara, Sulawesi Tenggara 93956","Jl. Poros Ranteangin - Kolaka, Rante Baru, Kecamatan Rante Angin, Kabupaten Kolaka Utara",SULAWESI TENGGARA,93956.0,Indonesia,,,,-3.6533457,121.0469489,https://maps.google.com/?cid=0x0:0xac0bff6248e42736,
restaurant,Toko bahan makanan,Warung Fajar Alam,"82FR+RFW, Jl. Poros Ranteangin - Kolaka, Puumbolo, Kec. Wawo, Kabupaten Kolaka Utara, Sulawesi Tenggara 93956","Jl. Poros Ranteangin - Kolaka, Puumbolo, Kec. Wawo, Kabupaten Kolaka Utara",SULAWESI TENGGARA,93956.0,Indonesia,,,,-3.6753812,121.0411987,https://maps.google.com/?cid=0x0:0xb4985fa24525a927,
restaurant,Jepang,WAKI Japanese BBQ Dining,"One Belpark Mall, Lantai GF No 09  10, Jl. RS. Fatmawati Raya No.1, RT.1/RW.1, Pd. Labu, Kec. Cilandak, Kota Jakarta Selatan, Daerah Khusus Ibukota Jakarta 12450","Lantai GF No 09  10, Jl. RS. Fatmawati Raya No.1, RT.1/RW.1, Pd. Labu, Kec. Cilandak, Kota Jakarta Selatan",SULAWESI TENGGARA,12450.0,Indonesia,81294526299.0,,,-6.304592,106.7950165,https://maps.google.com/?cid=0x0:0xe9981cd402da6200,
restaurant,Restoran,Waki Signature SCBD,"Equity Tower, Jl. Jend. Sudirman Kav 52-53, G Floor, RT.5/RW.3, Senayan Kebayoran Baru, South Jakarta City, Jakarta, South Jakarta City, Jawa Barat 12190","Jl. Jend. Sudirman Kav 52-53, G Floor, RT.5/RW.3, Senayan Kebayoran Baru, South Jakarta City, Jakarta, South Jakarta City",SULAWESI TENGGARA,12190.0,Indonesia,82299777985.0,,,-6.226834,106.8086037,https://maps.google.com/?cid=0x0:0x800090246b18e008,
restaurant,Nasi,Warung Asa Wawuh *WaW*,"54RQ+7VW, Jl. Pasirgede Raya, Bojongherang, Kec. Cianjur, Kabupaten Cianjur, Jawa Barat 43216","Jl. Pasirgede Raya, Bojongherang, Kec. Cianjur, Kabupaten Cianjur",SULAWESI TENGGARA,43216.0,Indonesia,81283115521.0,,,-6.8092662,107.1397166,https://maps.google.com/?cid=0x0:0x75a651e624cc2c7c,
restaurant,China,Ta Wan - Living World Alam Sutera,"Pakulonan, Kec. Serpong Utara, Kota Tangerang Selatan, Banten 15325","Kec. Serpong Utara, Kota Tangerang Selatan",SULAWESI TENGGARA,15325.0,Indonesia,2129211953.0,,,-6.2438825,106.65329,https://maps.google.com/?cid=0x0:0x4a9d229fabafacae,
restaurant,Pujasera,Waku,"Red R.22 Ruko Paramount, Blok R Dotcom, Curug Sangereng, Kelapa Dua, Tangerang Regency, Banten 15810","Blok R Dotcom, Curug Sangereng, Kelapa Dua, Tangerang Regency",SULAWESI TENGGARA,15810.0,Indonesia,8111738777.0,,,-6.2449938,106.6255306,https://maps.google.com/?cid=0x0:0x42325171e0a514e7,
restaurant,Rumah Makan,Warung makan Barokah,"83V2+3X2, Jl. Poros Ranteangin - Kolaka, Salurengko, Kec. Wawo, Kabupaten Kolaka Utara, Sulawesi Tenggara 93956","Jl. Poros Ranteangin - Kolaka, Salurengko, Kec. Wawo, Kabupaten Kolaka Utara",SULAWESI TENGGARA,93956.0,Indonesia,,,,-3.6573736,121.0523984,https://maps.google.com/?cid=0x0:0x1166bd745370cfd7,
restaurant,Restoran,Rumah Makan Kembar,"82RV+C42, Jl. Poros Ranteangin - Kolaka, Rante Baru, Kecamatan Rante Angin, Kabupaten Kolaka Utara, Sulawesi Tenggara 93956","Jl. Poros Ranteangin - Kolaka, Rante Baru, Kecamatan Rante Angin, Kabupaten Kolaka Utara",SULAWESI TENGGARA,93956.0,Indonesia,,,,-3.6589806,121.0427749,https://maps.google.com/?cid=0x0:0xca2b58c9bb6fd6a2,
restaurant,Brunch,Rest Area,"73RC+6X6, Walasiho, Kec. Wawo, Kabupaten Kolaka Utara, Sulawesi Tenggara 93956","Walasiho, Kec. Wawo, Kabupaten Kolaka Utara",SULAWESI TENGGARA,93956.0,Indonesia,,,,-3.7094575,121.072396,https://maps.google.com/?cid=0x0:0x48f9e20e3b702079,
restaurant,restaurant,Sulawesi Tenggara 93956,"Kabupaten Kolaka Utara, Sulawesi Tenggara","Kabupaten Kolaka Utara, Sulawesi Tenggara",SULAWESI TENGGARA,,Indonesia,,,,-3.5905204,121.1252135,https://maps.google.com/?cid=0x0:0x65e443ed518d4559,
restaurant,Restoran,Rumah Makan Laura,"82WW+MQ8, Jl. Poros Ranteangin - Kolaka, Rante Baru, Kecamatan Rante Angin, Kabupaten Kolaka Utara, Sulawesi Tenggara 93956","Jl. Poros Ranteangin - Kolaka, Rante Baru, Kecamatan Rante Angin, Kabupaten Kolaka Utara",SULAWESI TENGGARA,93956.0,Indonesia,,,,-3.6533457,121.0469489,https://maps.google.com/?cid=0x0:0xac0bff6248e42736,
restaurant,Restoran,Tempat istirahat kolaka utara,"73RF+37H, Jl. Poros Ranteangin - Kolaka, Walasiho, Kec. Wawo, Kabupaten Kolaka Utara, Sulawesi Tenggara 93956","Jl. Poros Ranteangin - Kolaka, Walasiho, Kec. Wawo, Kabupaten Kolaka Utara",SULAWESI TENGGARA,93956.0,Indonesia,,,,-3.7098081,121.0732292,https://maps.google.com/?cid=0x0:0x8754ce20ba8778b1,
restaurant,Kedai Kopi,Warung Pantai Indah,"73VC+545, Walasiho, Kec. Wawo, Kabupaten Kolaka Utara, Sulawesi Tenggara 93956","Walasiho, Kec. Wawo, Kabupaten Kolaka Utara",SULAWESI TENGGARA,93956.0,Indonesia,82291525471.0,,,-3.7071073,121.0703679,https://maps.google.com/?cid=0x0:0x564ec013f6af8d2c,
restaurant,Rumah Makan,WARUNG FIKHI WAWO,"826P+VWP, Wawo, Kec. Wawo, Kabupaten Kolaka Utara, Sulawesi Tenggara 93956","Wawo, Kec. Wawo, Kabupaten Kolaka Utara",SULAWESI TENGGARA,93956.0,Indonesia,,,,-3.6877811,121.0373375,https://maps.google.com/?cid=0x0:0x304515337d8738f6,
restaurant,Restoran,Warung palekko sidenreng / cek point DIS,"Jl. Poros Ranteangin - Kolaka, Walasiho, Kec. Wawo, Kabupaten Kolaka Utara, Sulawesi Tenggara 93956","Walasiho, Kec. Wawo, Kabupaten Kolaka Utara",SULAWESI TENGGARA,93956.0,Indonesia,,,,-3.7071101,121.0706323,https://maps.google.com/?cid=0x0:0xf72deb1f98d8056,
restaurant,restaurant,ISTO CAFE,"Ulu Wawo, Kec. Wawo, Kabupaten Kolaka Utara, Sulawesi Tenggara 93956","Kec. Wawo, Kabupaten Kolaka Utara",SULAWESI TENGGARA,93956.0,Indonesia,,,,-3.6890752,121.0352254,https://maps.google.com/?cid=0x0:0xf9d694120be627a,
restaurant,Indonesia,Rumah Makan TAMBORA PUTRA,"82FR+6FX, Puumbolo, Kec. Wawo, Kabupaten Kolaka Utara, Sulawesi Tenggara 93956","Puumbolo, Kec. Wawo, Kabupaten Kolaka Utara",SULAWESI TENGGARA,93956.0,Indonesia,85394025833.0,,,-3.6768782,121.041225,https://maps.google.com/?cid=0x0:0xf26898cf8e72b7f2,
restaurant,Padang,PENGINAPAN PARAIKATTE  Rumah Makan,"Jl. Poros Ranteangin - Kolaka, Tamborasi, Kec. Wolo, Kabupaten Kolaka, Sulawesi Tenggara 93552","Tamborasi, Kec. Wolo, Kabupaten Kolaka",SULAWESI TENGGARA,93552.0,Indonesia,85394565055.0,,,-3.760462,121.1226294,https://maps.google.com/?cid=0x0:0x395affafab94b50,
restaurant,Restoran,Rumah Makan Sido Mampir,"9X9P+7CG, Jl. Poros Ranteangin - Kolaka, Lapasi-Pasi, Kec. Lambai, Kabupaten Kolaka Utara, Sulawesi Tenggara 93956","Jl. Poros Ranteangin - Kolaka, Lapasi-Pasi, Kec. Lambai, Kabupaten Kolaka Utara",SULAWESI TENGGARA,93956.0,Indonesia,,,,-3.6318135,120.9860894,https://maps.google.com/?cid=0x0:0x9c1173b87cb739d8,
restaurant,Restoran,Rumah Makan Simpatig,"Jl. Poros Ranteangin - Kolaka No.17, Rante Angin, Kecamatan Rante Angin, Kabupaten Kolaka Utara, Sulawesi Tenggara 93956","Rante Angin, Kecamatan Rante Angin, Kabupaten Kolaka Utara",SULAWESI TENGGARA,93956.0,Indonesia,81341545850.0,,,-3.6658049,121.0360698,https://maps.google.com/?cid=0x0:0xcc272d3aa4fe4e36,
restaurant,Restoran,Bunda rara,"Jl. Poros Ranteangin - Kolaka, Walasiho, Kec. Wawo, Kabupaten Kolaka Utara, Sulawesi Tenggara 93956","Walasiho, Kec. Wawo, Kabupaten Kolaka Utara",SULAWESI TENGGARA,93956.0,Indonesia,82324460428.0,,,-3.7073279,121.0708256,https://maps.google.com/?cid=0x0:0xc1cd21d1f3f19664,
restaurant,Indonesia,DAPUR SHANUM,"Jl. Poros Lasusua - Ranteangin, Tojabi, Kec. Lasusua, Kabupaten Kolaka Utara, Sulawesi Tenggara 93916","Tojabi, Kec. Lasusua, Kabupaten Kolaka Utara",SULAWESI TENGGARA,93916.0,Indonesia,81342387888.0,,,-3.5159666,120.9050552,https://maps.google.com/?cid=0x0:0xad6a233ae8d4e922,
restaurant,Restoran,Bakso Mas Yono,"ke, Jl. Trans Sulawesi, Lambai, Kec. Lasusua, Kabupaten Kolaka Utara, Sulawesi Tenggara 93956","Jl. Trans Sulawesi, Lambai, Kec. Lasusua, Kabupaten Kolaka Utara",SULAWESI TENGGARA,93956.0,Indonesia,82195152078.0,,,-3.6286219,120.9817821,https://maps.google.com/?cid=0x0:0x8def3180afe6fcf3,
restaurant,Padang,RM Lesehan Arya,"FVVW+FCG, Tojabi, Kec. Lasusua, Kabupaten Kolaka Utara, Sulawesi Tenggara 93913","Tojabi, Kec. Lasusua, Kabupaten Kolaka Utara",SULAWESI TENGGARA,93913.0,Indonesia,85203296111.0,,,-3.5063182,120.8960927,https://maps.google.com/?cid=0x0:0xe1e03d30fabebb18,
restaurant,Rumah Makan,RM. Wisata,"64QF+3R4, Jl. Poros Ranteangin - Kolaka, Tamborasi, Kec. Wolo, Kabupaten Kolaka, Sulawesi Tenggara 93552","Jl. Poros Ranteangin - Kolaka, Tamborasi, Kec. Wolo, Kabupaten Kolaka",SULAWESI TENGGARA,93552.0,Indonesia,,,,-3.7623705,121.1245819,https://maps.google.com/?cid=0x0:0x285b208c3fc097cc,
restaurant,Brunch,Tripel M (Fast  Food),"8XRW+8PM, Unnamed Road, Lawekara, Kecamatan Rante Angin, Kabupaten Kolaka Utara, Sulawesi Tenggara 93956","Unnamed Road, Lawekara, Kecamatan Rante Angin, Kabupaten Kolaka Utara",SULAWESI TENGGARA,93956.0,Indonesia,82161035773.0,,,-3.6591502,120.9968053,https://maps.google.com/?cid=0x0:0x8a822346e35c1599,
restaurant,Toko bahan makanan,Warung Fajar Alam,"82FR+RFW, Jl. Poros Ranteangin - Kolaka, Puumbolo, Kec. Wawo, Kabupaten Kolaka Utara, Sulawesi Tenggara 93956","Jl. Poros Ranteangin - Kolaka, Puumbolo, Kec. Wawo, Kabupaten Kolaka Utara",SULAWESI TENGGARA,93956.0,Indonesia,,,,-3.6753812,121.0411987,https://maps.google.com/?cid=0x0:0xb4985fa24525a927,
restaurant,China,Restoran Walao-Eh,"Jl. Boulevard Raya Gading Serpong No.5 Blok M5, Curug Sangereng, Kec. Klp. Dua, Kabupaten Tangerang, Banten 15810","Curug Sangereng, Kec. Klp. Dua, Kabupaten Tangerang",SULAWESI TENGGARA,15810.0,Indonesia,81112203994.0,,,-6.2446743,106.6286314,https://maps.google.com/?cid=0x0:0xdde01ffc754c2506,
restaurant,Nasi,Warung Asa Wawuh *WaW*,"54RQ+7VW, Jl. Pasirgede Raya, Bojongherang, Kec. Cianjur, Kabupaten Cianjur, Jawa Barat 43216","Jl. Pasirgede Raya, Bojongherang, Kec. Cianjur, Kabupaten Cianjur",SULAWESI TENGGARA,43216.0,Indonesia,81283115521.0,,,-6.8092662,107.1397166,https://maps.google.com/?cid=0x0:0x75a651e624cc2c7c,
restaurant,China,Ta Wan - Living World Alam Sutera,"Pakulonan, Kec. Serpong Utara, Kota Tangerang Selatan, Banten 15325","Kec. Serpong Utara, Kota Tangerang Selatan",SULAWESI TENGGARA,15325.0,Indonesia,2129211953.0,,,-6.2438825,106.65329,https://maps.google.com/?cid=0x0:0x4a9d229fabafacae,
restaurant,restaurant,Waw Fast Food,"Jl. Celepuk 2 No.# 27, RT.007/RW.023, Jatimakmur, Kec. Pd. Gede, Kota Bks, Jawa Barat 17413","RT.007/RW.023, Jatimakmur, Kec. Pd. Gede, Kota Bks",SULAWESI TENGGARA,17413.0,Indonesia,81219167660.0,,,-6.2867842,106.9349195,https://maps.google.com/?cid=0x0:0xea35f8afdec444ae,
cafe,cafe,Kec. Batu Putih,"Kabupaten Kolaka Utara, Sulawesi Tenggara","Kabupaten Kolaka Utara, Sulawesi Tenggara",SULAWESI TENGGARA,,Indonesia,,,,-3.074246,121.082312,https://maps.google.com/?cid=0x0:0x212cea78674168b6,
cafe,Kedai Kopi,The rets cafe,"W3FX+GGC, Batu Putih, Kec. Batu Putih, Kabupaten Kolaka Utara, Sulawesi Tenggara","Kabupaten Kolaka Utara, Sulawesi Tenggara",SULAWESI TENGGARA,,Indonesia,,,,-3.0761962,121.0987516,https://maps.google.com/?cid=0x0:0xbeddbdcbe0fb3b58,
cafe,Kedai Kopi,Kedai zeatea2,"W3HM+V8J, Jl. Poros Malili - Batuputih, Latowu, Kec. Batu Putih, Kabupaten Kolaka Utara, Sulawesi Tenggara 93955","Jl. Poros Malili - Batuputih, Latowu, Kec. Batu Putih, Kabupaten Kolaka Utara",SULAWESI TENGGARA,93955.0,Indonesia,,,,-3.070341,121.083219,https://maps.google.com/?cid=0x0:0xbcb0131d369c17d7,
cafe,Dapur Umum,Warkop santuy,"W3FW+Q28, Jl. Poros Malili - Batuputih, Makkuaseng, Kec. Batu Putih, Kabupaten Kolaka Utara, Sulawesi Tenggara 93955","Jl. Poros Malili - Batuputih, Makkuaseng, Kec. Batu Putih, Kabupaten Kolaka Utara",SULAWESI TENGGARA,93955.0,Indonesia,81242709075.0,,,-3.0755988,121.0950792,https://maps.google.com/?cid=0x0:0xd6486f5b8d9fe5ce,
cafe,Kedai Kopi,The rets cafe,"W3GJ+8W3, Latowu, Kec. Batu Putih, Kabupaten Kolaka Utara, Sulawesi Tenggara","Kabupaten Kolaka Utara, Sulawesi Tenggara",SULAWESI TENGGARA,,Indonesia,,,,-3.074246,121.082312,https://maps.google.com/?cid=0x0:0xa2c58436adef6566,
cafe,Restoran,Warung Makan Prasmanan Lulu,"Batu Putih, Kec. Batu Putih, Kabupaten Kolaka Utara, Sulawesi Tenggara 93955","Kec. Batu Putih, Kabupaten Kolaka Utara",SULAWESI TENGGARA,93955.0,Indonesia,85335197333.0,,,-3.076006,121.0985977,https://maps.google.com/?cid=0x0:0x8abbaeac0e0fb24f,
cafe,Kafe,Cybermatic zone batuputih,"W3FW+Q24, Jl. Poros Malili - Batuputih, Makkuaseng, Kec. Batu Putih, Kabupaten Kolaka Utara, Sulawesi Tenggara 93955","Jl. Poros Malili - Batuputih, Makkuaseng, Kec. Batu Putih, Kabupaten Kolaka Utara",SULAWESI TENGGARA,93955.0,Indonesia,81242709075.0,,,-3.0756065,121.0950704,https://maps.google.com/?cid=0x0:0x5b5928d8c0859492,
cafe,Restoran,Warung Pangkep88,"W4F5+83R, Jl. Poros Batuputih - Olooloho, Batu Putih, Kec. Batu Putih, Kabupaten Kolaka Utara, Sulawesi Tenggara 93955","Jl. Poros Batuputih - Olooloho, Batu Putih, Kec. Batu Putih, Kabupaten Kolaka Utara",SULAWESI TENGGARA,93955.0,Indonesia,81242416697.0,,,-3.0766469,121.1076562,https://maps.google.com/?cid=0x0:0x80f77202d0455385,
cafe,Kedai Kopi,Efaals,"W3GP+5XJ, Latowu, Kec. Batu Putih, Kabupaten Kolaka Utara, Sulawesi Tenggara 93955","Latowu, Kec. Batu Putih, Kabupaten Kolaka Utara",SULAWESI TENGGARA,93955.0,Indonesia,,,,-3.0744966,121.0873517,https://maps.google.com/?cid=0x0:0xe2430184c898b8b5,
cafe,Restoran,Warung Bayuwangi,"W3FW+MHV, Jl. Poros Malili - Batuputih, Batu Putih, Kec. Batu Putih, Kabupaten Kolaka Utara, Sulawesi Tenggara 93955","Jl. Poros Malili - Batuputih, Batu Putih, Kec. Batu Putih, Kabupaten Kolaka Utara",SULAWESI TENGGARA,93955.0,Indonesia,,,,-3.0757528,121.0964246,https://maps.google.com/?cid=0x0:0x5b51a1addd579a8b,
cafe,Prasmanan,Rumah Makan ANNISA CATERING,"W3FX+MVG, Batu Putih, Kec. Batu Putih, Kabupaten Kolaka Utara, Sulawesi Tenggara 93955","Batu Putih, Kec. Batu Putih, Kabupaten Kolaka Utara",SULAWESI TENGGARA,93955.0,Indonesia,,,,-3.075824,121.0996912,https://maps.google.com/?cid=0x0:0xd04019c807f7e4c5,
cafe,Restoran,R.M. TIMUR NUSANTA,"W494+PHP, Jl. Poros Batuputih - Olooloho, Batu Putih, Kec. Batu Putih, Kabupaten Kolaka Utara, Sulawesi Tenggara 93955","Jl. Poros Batuputih - Olooloho, Batu Putih, Kec. Batu Putih, Kabupaten Kolaka Utara",SULAWESI TENGGARA,93955.0,Indonesia,,,,-3.0806742,121.1064397,https://maps.google.com/?cid=0x0:0x51005fd998cc58f3,
cafe,Indonesia,Ugiee Latali,"V36Q+FPV, Jl. Poros Batuputih - Olooloho, Latali, Kec. Pakue Tengah, Kabupaten Kolaka Utara, Sulawesi Tenggara 93954","Jl. Poros Batuputih - Olooloho, Latali, Kec. Pakue Tengah, Kabupaten Kolaka Utara",SULAWESI TENGGARA,93954.0,Indonesia,85315321878.0,,,-3.1387736,121.0892854,https://maps.google.com/?cid=0x0:0xc4c1ebd5d9e9e690,
cafe,Kedai Kopi,Warung  Teras Coffee Askadina,"W3FX+HJP, Jl. Poros Malili - Batuputih, Batu Putih, Kec. Batu Putih, Kabupaten Kolaka Utara, Sulawesi Tenggara 93955","Jl. Poros Malili - Batuputih, Batu Putih, Kec. Batu Putih, Kabupaten Kolaka Utara",SULAWESI TENGGARA,93955.0,Indonesia,,,,-3.0760332,121.0990753,https://maps.google.com/?cid=0x0:0x82c2907e81b450d,
cafe,Soto,Coto Sengkang,"W3FR+XFH, Jl. Poros Malili - Batuputih, Makkuaseng, Kec. Batu Putih, Kabupaten Kolaka Utara, Sulawesi Tenggara 93955","Jl. Poros Malili - Batuputih, Makkuaseng, Kec. Batu Putih, Kabupaten Kolaka Utara",SULAWESI TENGGARA,93955.0,Indonesia,,,,-3.0750035,121.0911538,https://maps.google.com/?cid=0x0:0xd4e6a6102a8ef0cb,
cafe,Restoran,Cafe Alula,"W334+GF3, Lawata, Kec. Pakue Utara, Kabupaten Kolaka Utara, Sulawesi Tenggara 93955","Lawata, Kec. Pakue Utara, Kabupaten Kolaka Utara",SULAWESI TENGGARA,93955.0,Indonesia,,,,-3.0962495,121.0561626,https://maps.google.com/?cid=0x0:0xda389a8a436fbaf1,
cafe,Restoran,WARUNG MAKAN 1 PUTRI,"X3CV+J9Q, Jl. Poros Malili - Batuputih, Lelewawo, Kec. Batu Putih, Kabupaten Kolaka Utara, Sulawesi Tenggara 93955","Jl. Poros Malili - Batuputih, Lelewawo, Kec. Batu Putih, Kabupaten Kolaka Utara",SULAWESI TENGGARA,93955.0,Indonesia,,,,-3.0284057,121.0934813,https://maps.google.com/?cid=0x0:0xcac97b9e72a3ba2f,
cafe,Kedai Kopi,Warung makan turatea,"W3JM+CQJ, Jl. Poros Malili - Batuputih, Latowu, Kec. Batu Putih, Kabupaten Kolaka Utara, Sulawesi Tenggara 93955","Jl. Poros Malili - Batuputih, Latowu, Kec. Batu Putih, Kabupaten Kolaka Utara",SULAWESI TENGGARA,93955.0,Indonesia,81343877192.0,,,-3.0688551,121.0843371,https://maps.google.com/?cid=0x0:0xae9012f01b670e92,
cafe,Kedai Kopi,Kedai Pojok Indah Lelewawo,"X3WV+X5J, Lelewawo, Kec. Batu Putih, Kabupaten Kolaka Utara, Sulawesi Tenggara 93955","Lelewawo, Kec. Batu Putih, Kabupaten Kolaka Utara",SULAWESI TENGGARA,93955.0,Indonesia,,,,-3.002543,121.0929045,https://maps.google.com/?cid=0x0:0xfdd845f8503779b9,
cafe,Restoran,Kedai RJ,"W3FX+MFX, Jl. Poros Malili - Batuputih, Batu Putih, Kec. Batu Putih, Kabupaten Kolaka Utara, Sulawesi Tenggara 93955","Jl. Poros Malili - Batuputih, Batu Putih, Kec. Batu Putih, Kabupaten Kolaka Utara",SULAWESI TENGGARA,93955.0,Indonesia,,,,-3.0757878,121.0987284,https://maps.google.com/?cid=0x0:0xb584b74eee4493c1,
cafe,Restoran,Warung Makan Tenda Biru,"W3FX+HJP, Jl. Poros Malili - Batuputih, Batu Putih, Kec. Batu Putih, Kabupaten Kolaka Utara, Sulawesi Tenggara 93955","Jl. Poros Malili - Batuputih, Batu Putih, Kec. Batu Putih, Kabupaten Kolaka Utara",SULAWESI TENGGARA,93955.0,Indonesia,85398790048.0,,,-3.0760259,121.0990776,https://maps.google.com/?cid=0x0:0xd652058fe770d80a,
cafe,Kedai Kopi,Guten MÃ¸rgen,"Jl. Mandala Utara No.29C 17, RT.17/RW.4, Tomang, Kec. Grogol petamburan, Kota Jakarta Barat, Daerah Khusus Ibukota Jakarta 11440","RT.17/RW.4, Tomang, Kec. Grogol petamburan, Kota Jakarta Barat",SULAWESI TENGGARA,11440.0,Indonesia,8119155545.0,,,-6.1732109,106.7978962,https://maps.google.com/?cid=0x0:0xa51e1404d1715909,
cafe,Mesin Sangrai Kopi,GUTEN MÃRGEN SENAYAN CITY,"Senayan City, Gelora, Kecamatan Tanah Abang, Kota Jakarta Pusat, Daerah Khusus Ibukota Jakarta","Kota Jakarta Pusat, Daerah Khusus Ibukota Jakarta",SULAWESI TENGGARA,,Indonesia,,,,-6.2271722,106.797085,https://maps.google.com/?cid=0x0:0x892d75fee70f9111,
cafe,Kedai Kopi,O'Good Coffee  Eatery,"Jl. Dr. Susilo Raya No.16, Grogol, Kec. Grogol petamburan, Kota Jakarta Barat, Daerah Khusus Ibukota Jakarta 11450","Grogol, Kec. Grogol petamburan, Kota Jakarta Barat",SULAWESI TENGGARA,11450.0,Indonesia,81284911292.0,,,-6.1658676,106.7946653,https://maps.google.com/?cid=0x0:0x30d3d8b434585bb1,
cafe,Kedai Kopi,Kopitagram - Tomang,"Jl. Kasturi No.22, RT.8/RW.1, Jatipulo, Kec. Palmerah, Kota Jakarta Barat, Daerah Khusus Ibukota Jakarta 11430","RT.8/RW.1, Jatipulo, Kec. Palmerah, Kota Jakarta Barat",SULAWESI TENGGARA,11430.0,Indonesia,,,,-6.1792196,106.8009981,https://maps.google.com/?cid=0x0:0x2d1137ace4a30d68,
cafe,cafe,,,,SULAWESI TENGGARA,,Indonesia,,,,,,https://maps.google.com/?cid=0x0:0xa51e1404d1715909u0026onu003dCappuccinou0026midu003d/g/11c5gvlth4,
cafe,cafe,,,,SULAWESI TENGGARA,,Indonesia,,,,,,https://maps.google.com/?cid=0x0:0xa51e1404d1715909u0026onu003dGuten+Morgen+Coffeeu0026midu003d/g/11c5gvlth4,
cafe,cafe,,,,SULAWESI TENGGARA,,Indonesia,,,,,,https://maps.google.com/?cid=0x0:0xa51e1404d1715909u0026onu003dKaffe+Cubesu0026midu003d/g/11c5gvlth4,
cafe,cafe,,,,SULAWESI TENGGARA,,Indonesia,,,,,,https://maps.google.com/?cid=0x0:0xa51e1404d1715909u0026onu003dSalmon+Butter+Shoyuu0026midu003d/g/11c5gvlth4,
cafe,cafe,Kec. Batu Putih,"Kabupaten Kolaka Utara, Sulawesi Tenggara","Kabupaten Kolaka Utara, Sulawesi Tenggara",SULAWESI TENGGARA,,Indonesia,,,,-3.074246,121.082312,https://maps.google.com/?cid=0x0:0x212cea78674168b6,
cafe,Kedai Kopi,The rets cafe,"W3FX+GGC, Batu Putih, Kec. Batu Putih, Kabupaten Kolaka Utara, Sulawesi Tenggara","Kabupaten Kolaka Utara, Sulawesi Tenggara",SULAWESI TENGGARA,,Indonesia,,,,-3.0761962,121.0987516,https://maps.google.com/?cid=0x0:0xbeddbdcbe0fb3b58,
cafe,Dapur Umum,Warkop santuy,"W3FW+Q28, Jl. Poros Malili - Batuputih, Makkuaseng, Kec. Batu Putih, Kabupaten Kolaka Utara, Sulawesi Tenggara 93955","Jl. Poros Malili - Batuputih, Makkuaseng, Kec. Batu Putih, Kabupaten Kolaka Utara",SULAWESI TENGGARA,93955.0,Indonesia,81242709075.0,,,-3.0755988,121.0950792,https://maps.google.com/?cid=0x0:0xd6486f5b8d9fe5ce,
cafe,Kafe,Cybermatic zone batuputih,"W3FW+Q24, Jl. Poros Malili - Batuputih, Makkuaseng, Kec. Batu Putih, Kabupaten Kolaka Utara, Sulawesi Tenggara 93955","Jl. Poros Malili - Batuputih, Makkuaseng, Kec. Batu Putih, Kabupaten Kolaka Utara",SULAWESI TENGGARA,93955.0,Indonesia,81242709075.0,,,-3.0756065,121.0950704,https://maps.google.com/?cid=0x0:0x5b5928d8c0859492,
cafe,Jus,Warung setia mampir,"X3RV+RGW, Lelewawo, Kec. Batu Putih, Kabupaten Kolaka Utara, Sulawesi Tenggara 93955","Lelewawo, Kec. Batu Putih, Kabupaten Kolaka Utara",SULAWESI TENGGARA,93955.0,Indonesia,,,,-3.0078889,121.0938244,https://maps.google.com/?cid=0x0:0x4ff5053a78121a15,
cafe,Restoran,Warung Makan Prasmanan Lulu,"Batu Putih, Kec. Batu Putih, Kabupaten Kolaka Utara, Sulawesi Tenggara 93955","Kec. Batu Putih, Kabupaten Kolaka Utara",SULAWESI TENGGARA,93955.0,Indonesia,85335197333.0,,,-3.076006,121.0985977,https://maps.google.com/?cid=0x0:0x8abbaeac0e0fb24f,
cafe,Kedai Kopi,Kedai zeatea2,"W3HM+V8J, Jl. Poros Malili - Batuputih, Latowu, Kec. Batu Putih, Kabupaten Kolaka Utara, Sulawesi Tenggara 93955","Jl. Poros Malili - Batuputih, Latowu, Kec. Batu Putih, Kabupaten Kolaka Utara",SULAWESI TENGGARA,93955.0,Indonesia,,,,-3.070341,121.083219,https://maps.google.com/?cid=0x0:0xbcb0131d369c17d7,
cafe,Kedai Kopi,Efaals,"W3GP+5XJ, Latowu, Kec. Batu Putih, Kabupaten Kolaka Utara, Sulawesi Tenggara 93955","Latowu, Kec. Batu Putih, Kabupaten Kolaka Utara",SULAWESI TENGGARA,93955.0,Indonesia,,,,-3.0744966,121.0873517,https://maps.google.com/?cid=0x0:0xe2430184c898b8b5,
cafe,Restoran,Warung Pangkep88,"W4F5+83R, Jl. Poros Batuputih - Olooloho, Batu Putih, Kec. Batu Putih, Kabupaten Kolaka Utara, Sulawesi Tenggara 93955","Jl. Poros Batuputih - Olooloho, Batu Putih, Kec. Batu Putih, Kabupaten Kolaka Utara",SULAWESI TENGGARA,93955.0,Indonesia,81242416697.0,,,-3.0766469,121.1076562,https://maps.google.com/?cid=0x0:0x80f77202d0455385,
cafe,Indonesia,Ugiee Latali,"V36Q+FPV, Jl. Poros Batuputih - Olooloho, Latali, Kec. Pakue Tengah, Kabupaten Kolaka Utara, Sulawesi Tenggara 93954","Jl. Poros Batuputih - Olooloho, Latali, Kec. Pakue Tengah, Kabupaten Kolaka Utara",SULAWESI TENGGARA,93954.0,Indonesia,85315321878.0,,,-3.1387736,121.0892854,https://maps.google.com/?cid=0x0:0xc4c1ebd5d9e9e690,
cafe,Restoran,R.M. TIMUR NUSANTA,"W494+PHP, Jl. Poros Batuputih - Olooloho, Batu Putih, Kec. Batu Putih, Kabupaten Kolaka Utara, Sulawesi Tenggara 93955","Jl. Poros Batuputih - Olooloho, Batu Putih, Kec. Batu Putih, Kabupaten Kolaka Utara",SULAWESI TENGGARA,93955.0,Indonesia,,,,-3.0806742,121.1064397,https://maps.google.com/?cid=0x0:0x51005fd998cc58f3,
cafe,Soto,Coto Sengkang,"W3FR+XFH, Jl. Poros Malili - Batuputih, Makkuaseng, Kec. Batu Putih, Kabupaten Kolaka Utara, Sulawesi Tenggara 93955","Jl. Poros Malili - Batuputih, Makkuaseng, Kec. Batu Putih, Kabupaten Kolaka Utara",SULAWESI TENGGARA,93955.0,Indonesia,,,,-3.0750035,121.0911538,https://maps.google.com/?cid=0x0:0xd4e6a6102a8ef0cb,
cafe,Restoran,Warung Bayuwangi,"W3FW+MHV, Jl. Poros Malili - Batuputih, Batu Putih, Kec. Batu Putih, Kabupaten Kolaka Utara, Sulawesi Tenggara 93955","Jl. Poros Malili - Batuputih, Batu Putih, Kec. Batu Putih, Kabupaten Kolaka Utara",SULAWESI TENGGARA,93955.0,Indonesia,,,,-3.0757528,121.0964246,https://maps.google.com/?cid=0x0:0x5b51a1addd579a8b,
cafe,Restoran,Cafe Alula,"W334+GF3, Lawata, Kec. Pakue Utara, Kabupaten Kolaka Utara, Sulawesi Tenggara 93955","Lawata, Kec. Pakue Utara, Kabupaten Kolaka Utara",SULAWESI TENGGARA,93955.0,Indonesia,,,,-3.0962495,121.0561626,https://maps.google.com/?cid=0x0:0xda389a8a436fbaf1,
cafe,Prasmanan,Rumah Makan ANNISA CATERING,"W3FX+MVG, Batu Putih, Kec. Batu Putih, Kabupaten Kolaka Utara, Sulawesi Tenggara 93955","Batu Putih, Kec. Batu Putih, Kabupaten Kolaka Utara",SULAWESI TENGGARA,93955.0,Indonesia,,,,-3.075824,121.0996912,https://maps.google.com/?cid=0x0:0xd04019c807f7e4c5,
cafe,Rumah Makan,RM Tiga Putri,"V34P+RWX, Latali, Kec. Pakue Tengah, Kabupaten Kolaka Utara, Sulawesi Tenggara 93954","Latali, Kec. Pakue Tengah, Kabupaten Kolaka Utara",SULAWESI TENGGARA,93954.0,Indonesia,81242142488.0,,,-3.142886,121.0873611,https://maps.google.com/?cid=0x0:0x6e2891f9904a6c6f,
cafe,Restoran,WARUNG MAKAN 1 PUTRI,"X3CV+J9Q, Jl. Poros Malili - Batuputih, Lelewawo, Kec. Batu Putih, Kabupaten Kolaka Utara, Sulawesi Tenggara 93955","Jl. Poros Malili - Batuputih, Lelewawo, Kec. Batu Putih, Kabupaten Kolaka Utara",SULAWESI TENGGARA,93955.0,Indonesia,,,,-3.0284057,121.0934813,https://maps.google.com/?cid=0x0:0xcac97b9e72a3ba2f,
cafe,Restoran,RM. PUTRA TUNGGAL,"W3GJ+8W3, Latowu, Kec. Batu Putih, Kabupaten Kolaka Utara, Sulawesi Tenggara","Kabupaten Kolaka Utara, Sulawesi Tenggara",SULAWESI TENGGARA,,Indonesia,,,,-3.074246,121.082312,https://maps.google.com/?cid=0x0:0x8cb5a3e22e3d8f7f,
cafe,Kedai Kopi,Warung  Teras Coffee Askadina,"W3FX+HJP, Jl. Poros Malili - Batuputih, Batu Putih, Kec. Batu Putih, Kabupaten Kolaka Utara, Sulawesi Tenggara 93955","Jl. Poros Malili - Batuputih, Batu Putih, Kec. Batu Putih, Kabupaten Kolaka Utara",SULAWESI TENGGARA,93955.0,Indonesia,,,,-3.0760332,121.0990753,https://maps.google.com/?cid=0x0:0x82c2907e81b450d,
cafe,Restoran,Kedai RJ,"W3FX+MFX, Jl. Poros Malili - Batuputih, Batu Putih, Kec. Batu Putih, Kabupaten Kolaka Utara, Sulawesi Tenggara 93955","Jl. Poros Malili - Batuputih, Batu Putih, Kec. Batu Putih, Kabupaten Kolaka Utara",SULAWESI TENGGARA,93955.0,Indonesia,,,,-3.0757878,121.0987284,https://maps.google.com/?cid=0x0:0xb584b74eee4493c1,
cafe,Es Krim,Giarti,"W5R8+F96, Tobela, Kec. Porehu, Kabupaten Kolaka Utara, Sulawesi Tenggara 93955","Tobela, Kec. Porehu, Kabupaten Kolaka Utara",SULAWESI TENGGARA,93955.0,Indonesia,,,,-3.0588401,121.1658948,https://maps.google.com/?cid=0x0:0x4c96983d43be1d59,
cafe,Pembangunan Perumahan,Puncak Mikuasi,"Q364+MXF, Mikuasi, Kec. Pakue, Kabupaten Kolaka Utara, Sulawesi Tenggara 93954","Mikuasi, Kec. Pakue, Kabupaten Kolaka Utara",SULAWESI TENGGARA,93954.0,Indonesia,,,,-3.2383089,121.0574343,https://maps.google.com/?cid=0x0:0xf230a35cbc5c6af1,
cafe,Kafe,Es Kepal Milo Nyam-Nyam,"W3FX+PP3 Depan Butik Ibu Jl. Trans, Jl. Poros Malili - Batuputih, Batu Putih, Kec. Batu Putih, Kabupaten Kolaka Utara, Sulawesi Tenggara 93955","Jl. Poros Malili - Batuputih, Batu Putih, Kec. Batu Putih, Kabupaten Kolaka Utara",SULAWESI TENGGARA,93955.0,Indonesia,85242606183.0,,,-3.0757492,121.0993026,https://maps.google.com/?cid=0x0:0x5c3ccecd470025a5,
cafe,Komplek perumahan,QN Salsa Cafe  Resto,"339P+7MJ, Unnamed Road, Tolala, Kec. Tolala, Kabupaten Kolaka Utara, Sulawesi Tenggara 93955","Unnamed Road, Tolala, Kec. Tolala, Kabupaten Kolaka Utara",SULAWESI TENGGARA,93955.0,Indonesia,85255631200.0,,,-2.9317822,121.086626,https://maps.google.com/?cid=0x0:0x72297e57661687d8,
cafe,cafe,At.Cafe Didi,"Jl. Batu Zamrut I No.7, RT.7/RW.10, Kayu Putih, Kec. Pulo Gadung, Kota Jakarta Timur, Daerah Khusus Ibukota Jakarta 13210","RT.7/RW.10, Kayu Putih, Kec. Pulo Gadung, Kota Jakarta Timur",SULAWESI TENGGARA,13210.0,Indonesia,,,,-6.184248,106.8828937,https://maps.google.com/?cid=0x0:0x42101451a3cfdb53,
cafe,cafe,Kec. Batu Putih,"Kabupaten Kolaka Utara, Sulawesi Tenggara","Kabupaten Kolaka Utara, Sulawesi Tenggara",SULAWESI TENGGARA,,Indonesia,,,,-3.074246,121.082312,https://maps.google.com/?cid=0x0:0x212cea78674168b6,
cafe,Kedai Kopi,The rets cafe,"W3FX+GGC, Batu Putih, Kec. Batu Putih, Kabupaten Kolaka Utara, Sulawesi Tenggara","Kabupaten Kolaka Utara, Sulawesi Tenggara",SULAWESI TENGGARA,,Indonesia,,,,-3.0761962,121.0987516,https://maps.google.com/?cid=0x0:0xbeddbdcbe0fb3b58,
cafe,Kedai Kopi,Kedai zeatea2,"W3HM+V8J, Jl. Poros Malili - Batuputih, Latowu, Kec. Batu Putih, Kabupaten Kolaka Utara, Sulawesi Tenggara 93955","Jl. Poros Malili - Batuputih, Latowu, Kec. Batu Putih, Kabupaten Kolaka Utara",SULAWESI TENGGARA,93955.0,Indonesia,,,,-3.070341,121.083219,https://maps.google.com/?cid=0x0:0xbcb0131d369c17d7,
cafe,Restoran,Warung Makan Prasmanan Lulu,"Batu Putih, Kec. Batu Putih, Kabupaten Kolaka Utara, Sulawesi Tenggara 93955","Kec. Batu Putih, Kabupaten Kolaka Utara",SULAWESI TENGGARA,93955.0,Indonesia,85335197333.0,,,-3.076006,121.0985977,https://maps.google.com/?cid=0x0:0x8abbaeac0e0fb24f,
cafe,Jus,Warung setia mampir,"X3RV+RGW, Lelewawo, Kec. Batu Putih, Kabupaten Kolaka Utara, Sulawesi Tenggara 93955","Lelewawo, Kec. Batu Putih, Kabupaten Kolaka Utara",SULAWESI TENGGARA,93955.0,Indonesia,,,,-3.0078889,121.0938244,https://maps.google.com/?cid=0x0:0x4ff5053a78121a15,
cafe,Kedai Kopi,The rets cafe,"W3GJ+8W3, Latowu, Kec. Batu Putih, Kabupaten Kolaka Utara, Sulawesi Tenggara","Kabupaten Kolaka Utara, Sulawesi Tenggara",SULAWESI TENGGARA,,Indonesia,,,,-3.074246,121.082312,https://maps.google.com/?cid=0x0:0xa2c58436adef6566,
cafe,Restoran,Warung Pangkep88,"W4F5+83R, Jl. Poros Batuputih - Olooloho, Batu Putih, Kec. Batu Putih, Kabupaten Kolaka Utara, Sulawesi Tenggara 93955","Jl. Poros Batuputih - Olooloho, Batu Putih, Kec. Batu Putih, Kabupaten Kolaka Utara",SULAWESI TENGGARA,93955.0,Indonesia,81242416697.0,,,-3.0766469,121.1076562,https://maps.google.com/?cid=0x0:0x80f77202d0455385,
cafe,Kafe,Cybermatic zone batuputih,"W3FW+Q24, Jl. Poros Malili - Batuputih, Makkuaseng, Kec. Batu Putih, Kabupaten Kolaka Utara, Sulawesi Tenggara 93955","Jl. Poros Malili - Batuputih, Makkuaseng, Kec. Batu Putih, Kabupaten Kolaka Utara",SULAWESI TENGGARA,93955.0,Indonesia,81242709075.0,,,-3.0756065,121.0950704,https://maps.google.com/?cid=0x0:0x5b5928d8c0859492,
cafe,Prasmanan,Rumah Makan ANNISA CATERING,"W3FX+MVG, Batu Putih, Kec. Batu Putih, Kabupaten Kolaka Utara, Sulawesi Tenggara 93955","Batu Putih, Kec. Batu Putih, Kabupaten Kolaka Utara",SULAWESI TENGGARA,93955.0,Indonesia,,,,-3.075824,121.0996912,https://maps.google.com/?cid=0x0:0xd04019c807f7e4c5,
cafe,Restoran,Warung Bayuwangi,"W3FW+MHV, Jl. Poros Malili - Batuputih, Batu Putih, Kec. Batu Putih, Kabupaten Kolaka Utara, Sulawesi Tenggara 93955","Jl. Poros Malili - Batuputih, Batu Putih, Kec. Batu Putih, Kabupaten Kolaka Utara",SULAWESI TENGGARA,93955.0,Indonesia,,,,-3.0757528,121.0964246,https://maps.google.com/?cid=0x0:0x5b51a1addd579a8b,
cafe,Kedai Kopi,Warung makan turatea,"W3JM+CQJ, Jl. Poros Malili - Batuputih, Latowu, Kec. Batu Putih, Kabupaten Kolaka Utara, Sulawesi Tenggara 93955","Jl. Poros Malili - Batuputih, Latowu, Kec. Batu Putih, Kabupaten Kolaka Utara",SULAWESI TENGGARA,93955.0,Indonesia,81343877192.0,,,-3.0688551,121.0843371,https://maps.google.com/?cid=0x0:0xae9012f01b670e92,
cafe,Kedai Kopi,Warung  Teras Coffee Askadina,"W3FX+HJP, Jl. Poros Malili - Batuputih, Batu Putih, Kec. Batu Putih, Kabupaten Kolaka Utara, Sulawesi Tenggara 93955","Jl. Poros Malili - Batuputih, Batu Putih, Kec. Batu Putih, Kabupaten Kolaka Utara",SULAWESI TENGGARA,93955.0,Indonesia,,,,-3.0760332,121.0990753,https://maps.google.com/?cid=0x0:0x82c2907e81b450d,
cafe,Soto,Coto Sengkang,"W3FR+XFH, Jl. Poros Malili - Batuputih, Makkuaseng, Kec. Batu Putih, Kabupaten Kolaka Utara, Sulawesi Tenggara 93955","Jl. Poros Malili - Batuputih, Makkuaseng, Kec. Batu Putih, Kabupaten Kolaka Utara",SULAWESI TENGGARA,93955.0,Indonesia,,,,-3.0750035,121.0911538,https://maps.google.com/?cid=0x0:0xd4e6a6102a8ef0cb,
cafe,Kedai Kopi,Efaals,"W3GP+5XJ, Latowu, Kec. Batu Putih, Kabupaten Kolaka Utara, Sulawesi Tenggara 93955","Latowu, Kec. Batu Putih, Kabupaten Kolaka Utara",SULAWESI TENGGARA,93955.0,Indonesia,,,,-3.0744966,121.0873517,https://maps.google.com/?cid=0x0:0xe2430184c898b8b5,
cafe,Restoran,R.M. TIMUR NUSANTA,"W494+PHP, Jl. Poros Batuputih - Olooloho, Batu Putih, Kec. Batu Putih, Kabupaten Kolaka Utara, Sulawesi Tenggara 93955","Jl. Poros Batuputih - Olooloho, Batu Putih, Kec. Batu Putih, Kabupaten Kolaka Utara",SULAWESI TENGGARA,93955.0,Indonesia,,,,-3.0806742,121.1064397,https://maps.google.com/?cid=0x0:0x51005fd998cc58f3,
cafe,Restoran,RUMAH MAKAN RAMA,"W4F5+63C, Jl. Poros Batuputih - Olooloho, Batu Putih, Kec. Batu Putih, Kabupaten Kolaka Utara, Sulawesi Tenggara 93955","Jl. Poros Batuputih - Olooloho, Batu Putih, Kec. Batu Putih, Kabupaten Kolaka Utara",SULAWESI TENGGARA,93955.0,Indonesia,,,,-3.0769291,121.1076273,https://maps.google.com/?cid=0x0:0x7119d7971f13f9b0,
cafe,Restoran,Warung Makan Tenda Biru,"W3FX+HJP, Jl. Poros Malili - Batuputih, Batu Putih, Kec. Batu Putih, Kabupaten Kolaka Utara, Sulawesi Tenggara 93955","Jl. Poros Malili - Batuputih, Batu Putih, Kec. Batu Putih, Kabupaten Kolaka Utara",SULAWESI TENGGARA,93955.0,Indonesia,85398790048.0,,,-3.0760259,121.0990776,https://maps.google.com/?cid=0x0:0xd652058fe770d80a,
cafe,Restoran,Kedai RJ,"W3FX+MFX, Jl. Poros Malili - Batuputih, Batu Putih, Kec. Batu Putih, Kabupaten Kolaka Utara, Sulawesi Tenggara 93955","Jl. Poros Malili - Batuputih, Batu Putih, Kec. Batu Putih, Kabupaten Kolaka Utara",SULAWESI TENGGARA,93955.0,Indonesia,,,,-3.0757878,121.0987284,https://maps.google.com/?cid=0x0:0xb584b74eee4493c1,
cafe,Restoran,Cafe Alula,"W334+GF3, Lawata, Kec. Pakue Utara, Kabupaten Kolaka Utara, Sulawesi Tenggara 93955","Lawata, Kec. Pakue Utara, Kabupaten Kolaka Utara",SULAWESI TENGGARA,93955.0,Indonesia,,,,-3.0962495,121.0561626,https://maps.google.com/?cid=0x0:0xda389a8a436fbaf1,
cafe,Hotel,Rumah Makan DINI,"336P+GVH, Jl. Poros Malili - Batuputih, Bahari, Kec. Tolala, Kabupaten Kolaka Utara, Sulawesi Tenggara 93955","Jl. Poros Malili - Batuputih, Bahari, Kec. Tolala, Kabupaten Kolaka Utara",SULAWESI TENGGARA,93955.0,Indonesia,,,,-2.9386967,121.0872401,https://maps.google.com/?cid=0x0:0xf4aa52eff3fafdf,
cafe,Indonesia,Ugiee Latali,"V36Q+FPV, Jl. Poros Batuputih - Olooloho, Latali, Kec. Pakue Tengah, Kabupaten Kolaka Utara, Sulawesi Tenggara 93954","Jl. Poros Batuputih - Olooloho, Latali, Kec. Pakue Tengah, Kabupaten Kolaka Utara",SULAWESI TENGGARA,93954.0,Indonesia,85315321878.0,,,-3.1387736,121.0892854,https://maps.google.com/?cid=0x0:0xc4c1ebd5d9e9e690,
cafe,Kafe,Batu topas No.6A,"Jl. Batu Topas No.6 4, RT.5/RW.10, Kayu Putih, Kec. Pulo Gadung, Kota Jakarta Timur, Daerah Khusus Ibukota Jakarta 13210","RT.5/RW.10, Kayu Putih, Kec. Pulo Gadung, Kota Jakarta Timur",SULAWESI TENGGARA,13210.0,Indonesia,,,,-6.1823459,106.8808354,https://maps.google.com/?cid=0x0:0x11e97bfe2e85e6e6,
cafe,Kedai Kopi,Wotish Coffee  Eatery,"Komplek Bulog I, Jl. Raya Pos Pengumben No.4, South Sukabumi, Kebonjeruk, West Jakarta City, Jakarta 11560","Jl. Raya Pos Pengumben No.4, South Sukabumi, Kebonjeruk, West Jakarta City",SULAWESI TENGGARA,11560.0,Indonesia,85176910007.0,,,-6.2166774,106.7711903,https://maps.google.com/?cid=0x0:0xeb15445cf73fc8d3,
cafe,Kedai Kopi,Kurasu Kissaten,"Jl. Iskandarsyah I No.9, Melawai, Kec. Kby. Baru, Kota Jakarta Selatan, Daerah Khusus Ibukota Jakarta 12160","Melawai, Kec. Kby. Baru, Kota Jakarta Selatan",SULAWESI TENGGARA,12160.0,Indonesia,81944280808.0,,,-6.2433904,106.8041722,https://maps.google.com/?cid=0x0:0xbd078fa7fc64f96a,
cafe,Kedai Kopi,myhallet. Coffee  Eatery,"Jl. Kemanggisan Raya No.56, RT.4/RW.9, Kemanggisan, Kec. Palmerah, Kota Jakarta Barat, Daerah Khusus Ibukota Jakarta 11480","RT.4/RW.9, Kemanggisan, Kec. Palmerah, Kota Jakarta Barat",SULAWESI TENGGARA,11480.0,Indonesia,8156565605.0,,,-6.190859,106.7856328,https://maps.google.com/?cid=0x0:0xcb6918354487ef3f,
cafe,Restoran,Serona Coffee Bintaro,"Emerald Club House, Parigi, Kec. Pd. Aren, Kota Tangerang Selatan, Banten 15227","Parigi, Kec. Pd. Aren, Kota Tangerang Selatan",SULAWESI TENGGARA,15227.0,Indonesia,81364527852.0,,,-6.2808121,106.7028206,https://maps.google.com/?cid=0x0:0x83a7983ca17aa370,
cafe,Kedai Kopi,Alaric Coffee,"Jl. Menteng Raya, Ruko Dian Plaza 3 Blok FG.1 26A, Bintaro Jaya., Pondok, Aren, Pd. Ranji, Kec. Ciputat Tim., Kota Tangerang Selatan, Banten 15223","Ruko Dian Plaza 3 Blok FG.1 26A, Bintaro Jaya., Pondok, Aren, Pd. Ranji, Kec. Ciputat Tim., Kota Tangerang Selatan",SULAWESI TENGGARA,15223.0,Indonesia,87871621420.0,,,-6.2721485,106.7265548,https://maps.google.com/?cid=0x0:0xcaec043b7a5c0479,
cafe,cafe,Crazy Steak by Pabrik Kopi - Resort Villa Spa Chapel Cafe Resto 24jam,"Torongrejo, Kec. Junrejo, Kota Batu, Jawa Timur 60242","Kec. Junrejo, Kota Batu",SULAWESI TENGGARA,60242.0,Indonesia,8990005500.0,,,-7.8860561,112.5633601,https://maps.google.com/?cid=0x0:0x3bdf892897246849,
cafe,cafe,Endah View  Villa,"4H76+F29, Torongrejo, Kec. Junrejo, Kota Batu, Jawa Timur 65325","Torongrejo, Kec. Junrejo, Kota Batu",SULAWESI TENGGARA,65325.0,Indonesia,81938482672.0,,,-7.886139,112.5600262,https://maps.google.com/?cid=0x0:0x6e81e8d954eb5d24,
cafe,cafe,Sulawesi Tenggara 93955,"Kabupaten Kolaka Utara, Sulawesi Tenggara","Kabupaten Kolaka Utara, Sulawesi Tenggara",SULAWESI TENGGARA,,Indonesia,,,,-3.0486929,121.1481284,https://maps.google.com/?cid=0x0:0xf1a9ea3d80230301,
cafe,Kedai Kopi,The rets cafe,"W3FX+GGC, Batu Putih, Kec. Batu Putih, Kabupaten Kolaka Utara, Sulawesi Tenggara","Kabupaten Kolaka Utara, Sulawesi Tenggara",SULAWESI TENGGARA,,Indonesia,,,,-3.0761962,121.0987516,https://maps.google.com/?cid=0x0:0xbeddbdcbe0fb3b58,
cafe,,Puncak Indah,"433F+VWW, Jl. Poros Malili - Batuputih, Patikala, Kec. Batu Putih, Kabupaten Kolaka Utara, Sulawesi Tenggara 93955","Jl. Poros Malili - Batuputih, Patikala, Kec. Batu Putih, Kabupaten Kolaka Utara",SULAWESI TENGGARA,93955.0,Indonesia,,,,-2.8952695,121.0748348,https://maps.google.com/?cid=0x0:0x443d0efa791cc694,
cafe,Kedai Kopi,The rets cafe,"W3GJ+8W3, Latowu, Kec. Batu Putih, Kabupaten Kolaka Utara, Sulawesi Tenggara","Kabupaten Kolaka Utara, Sulawesi Tenggara",SULAWESI TENGGARA,,Indonesia,,,,-3.074246,121.082312,https://maps.google.com/?cid=0x0:0xa2c58436adef6566,
cafe,Jus,Warung setia mampir,"X3RV+RGW, Lelewawo, Kec. Batu Putih, Kabupaten Kolaka Utara, Sulawesi Tenggara 93955","Lelewawo, Kec. Batu Putih, Kabupaten Kolaka Utara",SULAWESI TENGGARA,93955.0,Indonesia,,,,-3.0078889,121.0938244,https://maps.google.com/?cid=0x0:0x4ff5053a78121a15,
cafe,Restoran,Warung Pangkep88,"W4F5+83R, Jl. Poros Batuputih - Olooloho, Batu Putih, Kec. Batu Putih, Kabupaten Kolaka Utara, Sulawesi Tenggara 93955","Jl. Poros Batuputih - Olooloho, Batu Putih, Kec. Batu Putih, Kabupaten Kolaka Utara",SULAWESI TENGGARA,93955.0,Indonesia,81242416697.0,,,-3.0766469,121.1076562,https://maps.google.com/?cid=0x0:0x80f77202d0455385,
cafe,Kafe,Cybermatic zone batuputih,"W3FW+Q24, Jl. Poros Malili - Batuputih, Makkuaseng, Kec. Batu Putih, Kabupaten Kolaka Utara, Sulawesi Tenggara 93955","Jl. Poros Malili - Batuputih, Makkuaseng, Kec. Batu Putih, Kabupaten Kolaka Utara",SULAWESI TENGGARA,93955.0,Indonesia,81242709075.0,,,-3.0756065,121.0950704,https://maps.google.com/?cid=0x0:0x5b5928d8c0859492,
cafe,Kedai Kopi,Kedai zeatea2,"W3HM+V8J, Jl. Poros Malili - Batuputih, Latowu, Kec. Batu Putih, Kabupaten Kolaka Utara, Sulawesi Tenggara 93955","Jl. Poros Malili - Batuputih, Latowu, Kec. Batu Putih, Kabupaten Kolaka Utara",SULAWESI TENGGARA,93955.0,Indonesia,,,,-3.070341,121.083219,https://maps.google.com/?cid=0x0:0xbcb0131d369c17d7,
cafe,Dapur Umum,Warkop santuy,"W3FW+Q28, Jl. Poros Malili - Batuputih, Makkuaseng, Kec. Batu Putih, Kabupaten Kolaka Utara, Sulawesi Tenggara 93955","Jl. Poros Malili - Batuputih, Makkuaseng, Kec. Batu Putih, Kabupaten Kolaka Utara",SULAWESI TENGGARA,93955.0,Indonesia,81242709075.0,,,-3.0755988,121.0950792,https://maps.google.com/?cid=0x0:0xd6486f5b8d9fe5ce,
cafe,Kedai Kopi,Warung makan turatea,"W3JM+CQJ, Jl. Poros Malili - Batuputih, Latowu, Kec. Batu Putih, Kabupaten Kolaka Utara, Sulawesi Tenggara 93955","Jl. Poros Malili - Batuputih, Latowu, Kec. Batu Putih, Kabupaten Kolaka Utara",SULAWESI TENGGARA,93955.0,Indonesia,81343877192.0,,,-3.0688551,121.0843371,https://maps.google.com/?cid=0x0:0xae9012f01b670e92,
cafe,Kedai Kopi,Efaals,"W3GP+5XJ, Latowu, Kec. Batu Putih, Kabupaten Kolaka Utara, Sulawesi Tenggara 93955","Latowu, Kec. Batu Putih, Kabupaten Kolaka Utara",SULAWESI TENGGARA,93955.0,Indonesia,,,,-3.0744966,121.0873517,https://maps.google.com/?cid=0x0:0xe2430184c898b8b5,
cafe,Hotel,Rumah Makan DINI,"336P+GVH, Jl. Poros Malili - Batuputih, Bahari, Kec. Tolala, Kabupaten Kolaka Utara, Sulawesi Tenggara 93955","Jl. Poros Malili - Batuputih, Bahari, Kec. Tolala, Kabupaten Kolaka Utara",SULAWESI TENGGARA,93955.0,Indonesia,,,,-2.9386967,121.0872401,https://maps.google.com/?cid=0x0:0xf4aa52eff3fafdf,
cafe,Kedai Kopi,Warung  Teras Coffee Askadina,"W3FX+HJP, Jl. Poros Malili - Batuputih, Batu Putih, Kec. Batu Putih, Kabupaten Kolaka Utara, Sulawesi Tenggara 93955","Jl. Poros Malili - Batuputih, Batu Putih, Kec. Batu Putih, Kabupaten Kolaka Utara",SULAWESI TENGGARA,93955.0,Indonesia,,,,-3.0760332,121.0990753,https://maps.google.com/?cid=0x0:0x82c2907e81b450d,
cafe,Prasmanan,Rumah Makan ANNISA CATERING,"W3FX+MVG, Batu Putih, Kec. Batu Putih, Kabupaten Kolaka Utara, Sulawesi Tenggara 93955","Batu Putih, Kec. Batu Putih, Kabupaten Kolaka Utara",SULAWESI TENGGARA,93955.0,Indonesia,,,,-3.075824,121.0996912,https://maps.google.com/?cid=0x0:0xd04019c807f7e4c5,
cafe,Restoran,Cafe Alula,"W334+GF3, Lawata, Kec. Pakue Utara, Kabupaten Kolaka Utara, Sulawesi Tenggara 93955","Lawata, Kec. Pakue Utara, Kabupaten Kolaka Utara",SULAWESI TENGGARA,93955.0,Indonesia,,,,-3.0962495,121.0561626,https://maps.google.com/?cid=0x0:0xda389a8a436fbaf1,
cafe,Komplek perumahan,QN Salsa Cafe  Resto,"339P+7MJ, Unnamed Road, Tolala, Kec. Tolala, Kabupaten Kolaka Utara, Sulawesi Tenggara 93955","Unnamed Road, Tolala, Kec. Tolala, Kabupaten Kolaka Utara",SULAWESI TENGGARA,93955.0,Indonesia,85255631200.0,,,-2.9317822,121.086626,https://maps.google.com/?cid=0x0:0x72297e57661687d8,
cafe,Restoran,R.M. TIMUR NUSANTA,"W494+PHP, Jl. Poros Batuputih - Olooloho, Batu Putih, Kec. Batu Putih, Kabupaten Kolaka Utara, Sulawesi Tenggara 93955","Jl. Poros Batuputih - Olooloho, Batu Putih, Kec. Batu Putih, Kabupaten Kolaka Utara",SULAWESI TENGGARA,93955.0,Indonesia,,,,-3.0806742,121.1064397,https://maps.google.com/?cid=0x0:0x51005fd998cc58f3,
cafe,Hotel,Warung Makan Sari Laut,"33CQ+H8H, Jl. Poros Malili - Batuputih, Tolala, Kec. Batu Putih, Kabupaten Kolaka Utara, Sulawesi Tenggara 93955","Jl. Poros Malili - Batuputih, Tolala, Kec. Batu Putih, Kabupaten Kolaka Utara",SULAWESI TENGGARA,93955.0,Indonesia,,,,-2.9285672,121.0883532,https://maps.google.com/?cid=0x0:0x47e58962737e2ef1,
cafe,Indonesia,Ugiee Latali,"V36Q+FPV, Jl. Poros Batuputih - Olooloho, Latali, Kec. Pakue Tengah, Kabupaten Kolaka Utara, Sulawesi Tenggara 93954","Jl. Poros Batuputih - Olooloho, Latali, Kec. Pakue Tengah, Kabupaten Kolaka Utara",SULAWESI TENGGARA,93954.0,Indonesia,85315321878.0,,,-3.1387736,121.0892854,https://maps.google.com/?cid=0x0:0xc4c1ebd5d9e9e690,
cafe,Soto,Coto Sengkang,"W3FR+XFH, Jl. Poros Malili - Batuputih, Makkuaseng, Kec. Batu Putih, Kabupaten Kolaka Utara, Sulawesi Tenggara 93955","Jl. Poros Malili - Batuputih, Makkuaseng, Kec. Batu Putih, Kabupaten Kolaka Utara",SULAWESI TENGGARA,93955.0,Indonesia,,,,-3.0750035,121.0911538,https://maps.google.com/?cid=0x0:0xd4e6a6102a8ef0cb,
cafe,Restoran,Warung Bayuwangi,"W3FW+MHV, Jl. Poros Malili - Batuputih, Batu Putih, Kec. Batu Putih, Kabupaten Kolaka Utara, Sulawesi Tenggara 93955","Jl. Poros Malili - Batuputih, Batu Putih, Kec. Batu Putih, Kabupaten Kolaka Utara",SULAWESI TENGGARA,93955.0,Indonesia,,,,-3.0757528,121.0964246,https://maps.google.com/?cid=0x0:0x5b51a1addd579a8b,
cafe,Kafe,Batu topas No.6A,"Jl. Batu Topas No.6 4, RT.5/RW.10, Kayu Putih, Kec. Pulo Gadung, Kota Jakarta Timur, Daerah Khusus Ibukota Jakarta 13210","RT.5/RW.10, Kayu Putih, Kec. Pulo Gadung, Kota Jakarta Timur",SULAWESI TENGGARA,13210.0,Indonesia,,,,-6.1823459,106.8808354,https://maps.google.com/?cid=0x0:0x11e97bfe2e85e6e6,
cafe,Kedai Kopi,CAFE KUBU UNCU,"Jl. Batu Topas No.57, RT.2/RW.10, Kayu Putih, Kec. Pulo Gadung, Kota Jakarta Timur, Daerah Khusus Ibukota Jakarta 13210","RT.2/RW.10, Kayu Putih, Kec. Pulo Gadung, Kota Jakarta Timur",SULAWESI TENGGARA,13210.0,Indonesia,87864648349.0,,,-6.1820167,106.8817106,https://maps.google.com/?cid=0x0:0xd95d6e5126518a11,
cafe,cafe,Sulawesi Tenggara 93913,"Kabupaten Kolaka Utara, Sulawesi Tenggara","Kabupaten Kolaka Utara, Sulawesi Tenggara",SULAWESI TENGGARA,,Indonesia,,,,-3.4802612,120.9618181,https://maps.google.com/?cid=0x0:0x6689ca82f105e43,
cafe,Kafe,Kopi daerah cafe,"Lasusua, Kec. Lasusua, Kabupaten Kolaka Utara, Sulawesi Tenggara 93914","Kec. Lasusua, Kabupaten Kolaka Utara",SULAWESI TENGGARA,93914.0,Indonesia,8114053553.0,,,-3.5072341,120.8881014,https://maps.google.com/?cid=0x0:0xea0cef50091568c4,
cafe,Kafe,ARUMY CAFE  RESTO,"GV3P+428, Lasusua, Kec. Lasusua, Kabupaten Kolaka Utara, Sulawesi Tenggara","Kabupaten Kolaka Utara, Sulawesi Tenggara",SULAWESI TENGGARA,,Indonesia,,,,-3.49722,120.8850668,https://maps.google.com/?cid=0x0:0x4379c0a5da4f230d,
cafe,Kafe,Majestic coffee  Eatery,"GV2P+PXC, Lasusua, Kec. Lasusua, Kabupaten Kolaka Utara, Sulawesi Tenggara 93914","Lasusua, Kec. Lasusua, Kabupaten Kolaka Utara",SULAWESI TENGGARA,93914.0,Indonesia,811401174.0,,,-3.49807,120.8872901,https://maps.google.com/?cid=0x0:0x13e4aa36a16c1775,
cafe,Kedai Kopi,Cafe Ayomi By Pass Lasusua Kolaka Utara,"FVWG+5J5 cafe ayomi bypass, Kec. Lasusua, Kabupaten Kolaka Utara, Sulawesi Tenggara 93914","Kec. Lasusua, Kabupaten Kolaka Utara",SULAWESI TENGGARA,93914.0,Indonesia,82393202606.0,,,-3.5046104,120.8766236,https://maps.google.com/?cid=0x0:0x86c0e119233db921,
cafe,Kafe,Coffee shop teras kopi kolut,"FVWQ+QGM, Jl. Poros Lasusua - Ranteangin, Patowonua, Kec. Lasusua, Kabupaten Kolaka Utara, Sulawesi Tenggara 93913","Jl. Poros Lasusua - Ranteangin, Patowonua, Kec. Lasusua, Kabupaten Kolaka Utara",SULAWESI TENGGARA,93913.0,Indonesia,82296022564.0,,,-3.503046,120.8887961,https://maps.google.com/?cid=0x0:0xf1a322b40df67e63,
cafe,Kafe,Warkop Atiah277,"GV3M+4GF, Lasusua, Kec. Lasusua, Kabupaten Kolaka Utara, Sulawesi Tenggara 93914","Lasusua, Kec. Lasusua, Kabupaten Kolaka Utara",SULAWESI TENGGARA,93914.0,Indonesia,,,,-3.4971829,120.8838015,https://maps.google.com/?cid=0x0:0xda0b1ffb0964e903,
cafe,Restoran,Faith Kitchen Cafe and BBQ,"Jalan Tomangera, Patowonua, Kec. Lasusua, Kabupaten Kolaka Utara, Sulawesi Tenggara 93911","Patowonua, Kec. Lasusua, Kabupaten Kolaka Utara",SULAWESI TENGGARA,93911.0,Indonesia,82195819030.0,,,-3.5058955,120.8853449,https://maps.google.com/?cid=0x0:0xbf63445af3ec07aa,
cafe,Kafe,Chocolate Cafe and Gallery,"FVWG+38G, samping, pasar central, bypas, North Kolaka Regency, South East Sulawesi 93914","samping, pasar central, bypas, North Kolaka Regency",SULAWESI TENGGARA,93914.0,Indonesia,,,,-3.5046121,120.8757609,https://maps.google.com/?cid=0x0:0x35ee181e97f633d9,
cafe,Kafe,Warkop Teras The ONe Community,"GV2P+35J, Lasusua, Kec. Lasusua, Kabupaten Kolaka Utara, Sulawesi Tenggara 93914","Lasusua, Kec. Lasusua, Kabupaten Kolaka Utara",SULAWESI TENGGARA,93914.0,Indonesia,,,,-3.4997898,120.8853799,https://maps.google.com/?cid=0x0:0x3ae8a27f875d36e6,
cafe,Kafe,cafe D'bust,"FVWG+6PP, by pass, Kec. Lasusua, Kabupaten Kolaka Utara, Sulawesi Tenggara 93914","by pass, Kec. Lasusua, Kabupaten Kolaka Utara",SULAWESI TENGGARA,93914.0,Indonesia,822912349123.0,,,-3.5044241,120.8768314,https://maps.google.com/?cid=0x0:0xeb032bd989fd05d9,
cafe,Kafe,Cafe Macawa,"GV2J+MMR, Unnamed Road, Lasusua, Kec. Lasusua, Kabupaten Kolaka Utara, Sulawesi Tenggara 93914","Unnamed Road, Lasusua, Kec. Lasusua, Kabupaten Kolaka Utara",SULAWESI TENGGARA,93914.0,Indonesia,,,,-3.4982508,120.8816469,https://maps.google.com/?cid=0x0:0x40e34c92352bfd9,
cafe,Kafe,Cafe Tetta Pisang epe KoLut,"FVWG+2QM Jl.Cafe Community, Puncak Monapa, Kec. Lasusua, Kabupaten Kolaka Utara, Sulawesi Tenggara 93915","Puncak Monapa, Kec. Lasusua, Kabupaten Kolaka Utara",SULAWESI TENGGARA,93915.0,Indonesia,82349997388.0,,,-3.5049183,120.876924,https://maps.google.com/?cid=0x0:0x741b13cc1223e130,
cafe,Kafe,Suawindu Resto  Cafe,"GV4J+CG4, Lasusua, Kec. Lasusua, Kabupaten Kolaka Utara, Sulawesi Tenggara 93914","Lasusua, Kec. Lasusua, Kabupaten Kolaka Utara",SULAWESI TENGGARA,93914.0,Indonesia,,,,-3.4939996,120.8813182,https://maps.google.com/?cid=0x0:0x2d58dcf3917f00a5,
cafe,cafe,Cafe Anjungan,"FVMH+CQM, Jl. Cakalang, Pitulua, Kec. Lasusua, Kabupaten Kolaka Utara, Sulawesi Tenggara 93913","Jl. Cakalang, Pitulua, Kec. Lasusua, Kabupaten Kolaka Utara",SULAWESI TENGGARA,93913.0,Indonesia,,,,-3.5164024,120.8794258,https://maps.google.com/?cid=0x0:0x2815510a9621998b,
cafe,Kafe,GTA STAR CAFE,"FVVG+WF2, by pass, Kec. Lasusua, Kabupaten Kolaka Utara, Sulawesi Tenggara 93914","by pass, Kec. Lasusua, Kabupaten Kolaka Utara",SULAWESI TENGGARA,93914.0,Indonesia,82187111709.0,,,-3.505249,120.8761274,https://maps.google.com/?cid=0x0:0x49611db197374df9,
cafe,cafe,za/na Coffee,"HVPQ+532, Katoi, Kec. Katoi, Kabupaten Kolaka Utara, Sulawesi Tenggara","Kabupaten Kolaka Utara, Sulawesi Tenggara",SULAWESI TENGGARA,,Indonesia,,,,-3.414622,120.8876515,https://maps.google.com/?cid=0x0:0x7e9efbc614d20885,
cafe,Kafe,TWENTY FOUR _ Coffee^Eatery,"WHRX+CJ7, Lamokato, Kec. Kolaka, Kabupaten Kolaka, Sulawesi Tenggara","Kabupaten Kolaka, Sulawesi Tenggara",SULAWESI TENGGARA,,Indonesia,81243204012.0,,,-4.0589734,121.5990454,https://maps.google.com/?cid=0x0:0x777ac407e5044923,
cafe,Restoran,Warung Makan Surabaya,"HVMQ+CCV, Jl. Poros Olooloho - Lasusua, Katoi, Kec. Katoi, Kabupaten Kolaka Utara, Sulawesi Tenggara 93957","Jl. Poros Olooloho - Lasusua, Katoi, Kec. Katoi, Kabupaten Kolaka Utara",SULAWESI TENGGARA,93957.0,Indonesia,,,,-3.4163797,120.8885449,https://maps.google.com/?cid=0x0:0xa8a941a3ab4d7d3a,
cafe,Kafe,In's Truck Cafe  Resto,"Lasusua, Kec. Lasusua, Kabupaten Kolaka Utara, Sulawesi Tenggara 93911","Kec. Lasusua, Kabupaten Kolaka Utara",SULAWESI TENGGARA,93911.0,Indonesia,82399466660.0,,,-3.4967929,120.8817567,https://maps.google.com/?cid=0x0:0xb8b7ba358cefd851,
cafe,Brunch,Foodies Kolut,"FVWP+5JX, Jl. Poros Lasusua - Ranteangin, Watuliu, Kec. Lasusua, Kabupaten Kolaka Utara, Sulawesi Tenggara 93913","Jl. Poros Lasusua - Ranteangin, Watuliu, Kec. Lasusua, Kabupaten Kolaka Utara",SULAWESI TENGGARA,93913.0,Indonesia,85281997239.0,,,-3.5045349,120.8866302,https://maps.google.com/?cid=0x0:0xb41468c456f40d5a,
cafe,Kafe,Jln.KH ABD RASYAD Desa Patowonua Kec.Lasusua Kab.Kolaka Utara,"FVRQ+PFJ, Jln KH.ABD RASYAD, Patowonua, Kec. Lasusua, Kabupaten Kolaka Utara, Sulawesi Tenggara 93913","Jln KH.ABD RASYAD, Patowonua, Kec. Lasusua, Kabupaten Kolaka Utara",SULAWESI TENGGARA,93913.0,Indonesia,,,,-3.50817,120.8886488,https://maps.google.com/?cid=0x0:0xf4a4a4e7836b9504,
cafe,Kedai Kopi,Kedai Kato.Hita,"Jl. Lap. Tembak No.12 blok B1, RT.1/RW.11, Cibubur, Kec. Ciracas, Kota Jakarta Timur, Daerah Khusus Ibukota Jakarta 13720","RT.1/RW.11, Cibubur, Kec. Ciracas, Kota Jakarta Timur",SULAWESI TENGGARA,13720.0,Indonesia,82238393719.0,,,-6.3523817,106.8873509,https://maps.google.com/?cid=0x0:0x902d06b404a99759,
cafe,Kedai Kopi,Kataloji Coffee and Eatery,"Ruko Puri Cipayung, Jl. Setu Cipayung No.09, RT.9/RW.4, Cipayung, Kec. Cipayung, Kota Jakarta Timur, Daerah Khusus Ibukota Jakarta 13840","Jl. Setu Cipayung No.09, RT.9/RW.4, Cipayung, Kec. Cipayung, Kota Jakarta Timur",SULAWESI TENGGARA,13840.0,Indonesia,87765653747.0,,,-6.3261316,106.9037941,https://maps.google.com/?cid=0x0:0xbb7845b7ac0628cb,
cafe,Kedai Kopi,Kato Coffee,"Jl. Prepedan Dalam No.8, RT.8/RW.7, Kamal, Kec. Kalideres, Kota Jakarta Barat, Daerah Khusus Ibukota Jakarta 11820","RT.8/RW.7, Kamal, Kec. Kalideres, Kota Jakarta Barat",SULAWESI TENGGARA,11820.0,Indonesia,,,,-6.109505,106.701765,https://maps.google.com/?cid=0x0:0xfe85469ee9dd0e88,
cafe,Kafe,Cath's Coffee Corner,"The Kensington Commercial, Jl. Boulevard Raya No.A09, Klp. Gading Tim., Kec. Klp. Gading, Jkt Utara, Daerah Khusus Ibukota Jakarta 14240","Jl. Boulevard Raya No.A09, Klp. Gading Tim., Kec. Klp. Gading, Jkt Utara",SULAWESI TENGGARA,14240.0,Indonesia,81212677567.0,,,-6.1734226,106.8968809,https://maps.google.com/?cid=0x0:0xb7ab536b888cadbd,
cafe,Kafe,Kopi Katob,"Jl. Perumahan Kb. Jeruk Baru No.9, RT.8/RW.8, Kb. Jeruk, Kec. Kb. Jeruk, Kota Jakarta Barat, Daerah Khusus Ibukota Jakarta 11530","RT.8/RW.8, Kb. Jeruk, Kec. Kb. Jeruk, Kota Jakarta Barat",SULAWESI TENGGARA,11530.0,Indonesia,,,,-6.1903202,106.7737794,https://maps.google.com/?cid=0x0:0xdf73c2a2d186570d,
cafe,Kedai Kopi,Cafe Toko CATO,"Jl. Karet Pedurenan No.57 2, RT.2/RW.7, Kuningan, Karet Kuningan, Kecamatan Setiabudi, Kota Jakarta Selatan, Daerah Khusus Ibukota Jakarta 12940","RT.2/RW.7, Kuningan, Karet Kuningan, Kecamatan Setiabudi, Kota Jakarta Selatan",SULAWESI TENGGARA,12940.0,Indonesia,82210144571.0,,,-6.221048,106.826116,https://maps.google.com/?cid=0x0:0xc4bf9b78d10583b1,
cafe,Kedai Kopi,KyÅ Coffee,"Jl. Wirajasa Jl. Raya Jatiwaringin No.1 Blok ZN, Cipinang Melayu, Makasar, East Jakarta City, Jakarta 13620","Cipinang Melayu, Makasar, East Jakarta City",SULAWESI TENGGARA,13620.0,Indonesia,81212844322.0,,,-6.2552124,106.9098943,https://maps.google.com/?cid=0x0:0x2ed6a07d6281dad7,
cafe,cafe,Sulawesi Tenggara 93914,"Kabupaten Kolaka Utara, Sulawesi Tenggara","Kabupaten Kolaka Utara, Sulawesi Tenggara",SULAWESI TENGGARA,,Indonesia,,,,-3.4852698,120.8843434,https://maps.google.com/?cid=0x0:0x7054223535d63716,
cafe,Kafe,Kopi daerah cafe,"Lasusua, Kec. Lasusua, Kabupaten Kolaka Utara, Sulawesi Tenggara 93914","Kec. Lasusua, Kabupaten Kolaka Utara",SULAWESI TENGGARA,93914.0,Indonesia,8114053553.0,,,-3.5072341,120.8881014,https://maps.google.com/?cid=0x0:0xea0cef50091568c4,
cafe,Kafe,Majestic coffee  Eatery,"GV2P+PXC, Lasusua, Kec. Lasusua, Kabupaten Kolaka Utara, Sulawesi Tenggara 93914","Lasusua, Kec. Lasusua, Kabupaten Kolaka Utara",SULAWESI TENGGARA,93914.0,Indonesia,811401174.0,,,-3.49807,120.8872901,https://maps.google.com/?cid=0x0:0x13e4aa36a16c1775,
cafe,Kafe,The Balqon Cafe,"GV2M+W56, Lasusua, Kec. Lasusua, Kabupaten Kolaka Utara, Sulawesi Tenggara 93914","Lasusua, Kec. Lasusua, Kabupaten Kolaka Utara",SULAWESI TENGGARA,93914.0,Indonesia,,,,-3.4977166,120.8828853,https://maps.google.com/?cid=0x0:0x4b7b9d3f9c1dfbc,
cafe,Kafe,Chocolate Cafe and Gallery,"FVWG+38G, samping, pasar central, bypas, North Kolaka Regency, South East Sulawesi 93914","samping, pasar central, bypas, North Kolaka Regency",SULAWESI TENGGARA,93914.0,Indonesia,,,,-3.5046121,120.8757609,https://maps.google.com/?cid=0x0:0x35ee181e97f633d9,
cafe,Kafe,Cafe Senandung Lasusua,"Perempatan Lampu merah Lasusua, Lasusua, Kec. Lasusua, Kabupaten Kolaka Utara, Sulawesi Tenggara 93911","Lasusua, Kec. Lasusua, Kabupaten Kolaka Utara",SULAWESI TENGGARA,93911.0,Indonesia,,,,-3.4972999,120.8837745,https://maps.google.com/?cid=0x0:0xdf2d522c084b20e1,
cafe,Kedai Kopi,Cafe Ayomi By Pass Lasusua Kolaka Utara,"FVWG+5J5 cafe ayomi bypass, Kec. Lasusua, Kabupaten Kolaka Utara, Sulawesi Tenggara 93914","Kec. Lasusua, Kabupaten Kolaka Utara",SULAWESI TENGGARA,93914.0,Indonesia,82393202606.0,,,-3.5046104,120.8766236,https://maps.google.com/?cid=0x0:0x86c0e119233db921,
cafe,Kafe,Warkop Atiah277,"GV3M+4GF, Lasusua, Kec. Lasusua, Kabupaten Kolaka Utara, Sulawesi Tenggara 93914","Lasusua, Kec. Lasusua, Kabupaten Kolaka Utara",SULAWESI TENGGARA,93914.0,Indonesia,,,,-3.4971829,120.8838015,https://maps.google.com/?cid=0x0:0xda0b1ffb0964e903,
cafe,Kafe,Suawindu Resto  Cafe,"GV4J+CG4, Lasusua, Kec. Lasusua, Kabupaten Kolaka Utara, Sulawesi Tenggara 93914","Lasusua, Kec. Lasusua, Kabupaten Kolaka Utara",SULAWESI TENGGARA,93914.0,Indonesia,,,,-3.4939996,120.8813182,https://maps.google.com/?cid=0x0:0x2d58dcf3917f00a5,
cafe,Kafe,Nud's Coffee Park,"bundaran suawindu, Lasusua, Kec. Lasusua, Kabupaten Kolaka Utara, Sulawesi Tenggara 93911","Lasusua, Kec. Lasusua, Kabupaten Kolaka Utara",SULAWESI TENGGARA,93911.0,Indonesia,81342441659.0,,,-3.4940939,120.882336,https://maps.google.com/?cid=0x0:0x8ce866f01602c8b7,
cafe,Sulawesi Selatan,Coto Makassar Dg. Sangkala,"GV2P+JX6, Lasusua, Kec. Lasusua, Kabupaten Kolaka Utara, Sulawesi Tenggara 93914","Lasusua, Kec. Lasusua, Kabupaten Kolaka Utara",SULAWESI TENGGARA,93914.0,Indonesia,,,,-3.4984741,120.8874007,https://maps.google.com/?cid=0x0:0x5a8a27889eba2596,
cafe,Restoran,Faith Kitchen Cafe and BBQ,"Jalan Tomangera, Patowonua, Kec. Lasusua, Kabupaten Kolaka Utara, Sulawesi Tenggara 93911","Patowonua, Kec. Lasusua, Kabupaten Kolaka Utara",SULAWESI TENGGARA,93911.0,Indonesia,82195819030.0,,,-3.5058955,120.8853449,https://maps.google.com/?cid=0x0:0xbf63445af3ec07aa,
cafe,Brunch,Foodies Kolut,"FVWP+5JX, Jl. Poros Lasusua - Ranteangin, Watuliu, Kec. Lasusua, Kabupaten Kolaka Utara, Sulawesi Tenggara 93913","Jl. Poros Lasusua - Ranteangin, Watuliu, Kec. Lasusua, Kabupaten Kolaka Utara",SULAWESI TENGGARA,93913.0,Indonesia,85281997239.0,,,-3.5045349,120.8866302,https://maps.google.com/?cid=0x0:0xb41468c456f40d5a,
cafe,Kafe,ARUMY CAFE  RESTO,"GV3P+428, Lasusua, Kec. Lasusua, Kabupaten Kolaka Utara, Sulawesi Tenggara","Kabupaten Kolaka Utara, Sulawesi Tenggara",SULAWESI TENGGARA,,Indonesia,,,,-3.49722,120.8850668,https://maps.google.com/?cid=0x0:0x4379c0a5da4f230d,
cafe,Kafe,In's Truck Cafe  Resto,"Lasusua, Kec. Lasusua, Kabupaten Kolaka Utara, Sulawesi Tenggara 93911","Kec. Lasusua, Kabupaten Kolaka Utara",SULAWESI TENGGARA,93911.0,Indonesia,82399466660.0,,,-3.4967929,120.8817567,https://maps.google.com/?cid=0x0:0xb8b7ba358cefd851,
cafe,Kafe,Burger Four Lasusua,"Jl. Mesjid Raya, Patowonua, Kec. Lasusua, Kabupaten Kolaka Utara, Sulawesi Tenggara 93913","Patowonua, Kec. Lasusua, Kabupaten Kolaka Utara",SULAWESI TENGGARA,93913.0,Indonesia,,,,-3.5050665,120.8871443,https://maps.google.com/?cid=0x0:0xf329630392183035,
cafe,Kafe,Cafe Tetta Pisang epe KoLut,"FVWG+2QM Jl.Cafe Community, Puncak Monapa, Kec. Lasusua, Kabupaten Kolaka Utara, Sulawesi Tenggara 93915","Puncak Monapa, Kec. Lasusua, Kabupaten Kolaka Utara",SULAWESI TENGGARA,93915.0,Indonesia,82349997388.0,,,-3.5049183,120.876924,https://maps.google.com/?cid=0x0:0x741b13cc1223e130,
cafe,Kafe,GTA STAR CAFE,"FVVG+WF2, by pass, Kec. Lasusua, Kabupaten Kolaka Utara, Sulawesi Tenggara 93914","by pass, Kec. Lasusua, Kabupaten Kolaka Utara",SULAWESI TENGGARA,93914.0,Indonesia,82187111709.0,,,-3.505249,120.8761274,https://maps.google.com/?cid=0x0:0x49611db197374df9,
cafe,Kedai Kopi,SPINCOLO8 CAFE  RESTO,"GV4J+J24, Jl. Poros Olooloho - Lasusua, Ponggiha, Kec. Lasusua, Kabupaten Kolaka Utara, Sulawesi Tenggara 93914","Jl. Poros Olooloho - Lasusua, Ponggiha, Kec. Lasusua, Kabupaten Kolaka Utara",SULAWESI TENGGARA,93914.0,Indonesia,81241999149.0,,,-3.49349,120.8800717,https://maps.google.com/?cid=0x0:0x6c55d480b65da053,
cafe,Kafe,"Warkop Teras, Ponggiha, Lasusua","GV6M+C33, Ponggiha, Kec. Lasusua, Kabupaten Kolaka Utara, Sulawesi Tenggara 93914","Ponggiha, Kec. Lasusua, Kabupaten Kolaka Utara",SULAWESI TENGGARA,93914.0,Indonesia,8539804600.0,,,-3.4889826,120.882676,https://maps.google.com/?cid=0x0:0xa07fa7f0e0fdcc28,
cafe,Restoran,M'Truck Cafe Lasusua,"GV3M+H2Q, Lasusua, Kec. Lasusua, Kabupaten Kolaka Utara, Sulawesi Tenggara 93914","Lasusua, Kec. Lasusua, Kabupaten Kolaka Utara",SULAWESI TENGGARA,93914.0,Indonesia,,,,-3.496029,120.8825978,https://maps.google.com/?cid=0x0:0x3c06b1f1537cae58,
cafe,Kafe,cafe D'bust,"FVWG+6PP, by pass, Kec. Lasusua, Kabupaten Kolaka Utara, Sulawesi Tenggara 93914","by pass, Kec. Lasusua, Kabupaten Kolaka Utara",SULAWESI TENGGARA,93914.0,Indonesia,822912349123.0,,,-3.5044241,120.8768314,https://maps.google.com/?cid=0x0:0xeb032bd989fd05d9,
cafe,Kafe,AB Dessert,"FVWW+98C, Watuliu, Kec. Lasusua, Kabupaten Kolaka Utara, Sulawesi Tenggara 93913","Watuliu, Kec. Lasusua, Kabupaten Kolaka Utara",SULAWESI TENGGARA,93913.0,Indonesia,85397553134.0,,,-3.5040686,120.8957762,https://maps.google.com/?cid=0x0:0x53366cdb5ae3e121,
cafe,Kafe,Spot of Tea,"GV3M+P7X, Jl. Poros Lasusua - Ranteangin, Lasusua, Kec. Lasusua, Kabupaten Kolaka Utara, Sulawesi Tenggara 93914","Jl. Poros Lasusua - Ranteangin, Lasusua, Kec. Lasusua, Kabupaten Kolaka Utara",SULAWESI TENGGARA,93914.0,Indonesia,81240614100.0,,,-3.4956251,120.8832245,https://maps.google.com/?cid=0x0:0xbf90f111466c32a8,
cafe,Kedai Kopi,Kedai Kato.Hita,"Jl. Lap. Tembak No.12 blok B1, RT.1/RW.11, Cibubur, Kec. Ciracas, Kota Jakarta Timur, Daerah Khusus Ibukota Jakarta 13720","RT.1/RW.11, Cibubur, Kec. Ciracas, Kota Jakarta Timur",SULAWESI TENGGARA,13720.0,Indonesia,82238393719.0,,,-6.3523817,106.8873509,https://maps.google.com/?cid=0x0:0x902d06b404a99759,
cafe,Kedai Kopi,KyÅ Coffee,"Jl. Wirajasa Jl. Raya Jatiwaringin No.1 Blok ZN, Cipinang Melayu, Makasar, East Jakarta City, Jakarta 13620","Cipinang Melayu, Makasar, East Jakarta City",SULAWESI TENGGARA,13620.0,Indonesia,81212844322.0,,,-6.2552124,106.9098943,https://maps.google.com/?cid=0x0:0x2ed6a07d6281dad7,
cafe,Kafe,Cath's Coffee Corner,"The Kensington Commercial, Jl. Boulevard Raya No.A09, Klp. Gading Tim., Kec. Klp. Gading, Jkt Utara, Daerah Khusus Ibukota Jakarta 14240","Jl. Boulevard Raya No.A09, Klp. Gading Tim., Kec. Klp. Gading, Jkt Utara",SULAWESI TENGGARA,14240.0,Indonesia,81212677567.0,,,-6.1734226,106.8968809,https://maps.google.com/?cid=0x0:0xb7ab536b888cadbd,
cafe,Kafe,Kopi Katob,"Jl. Perumahan Kb. Jeruk Baru No.9, RT.8/RW.8, Kb. Jeruk, Kec. Kb. Jeruk, Kota Jakarta Barat, Daerah Khusus Ibukota Jakarta 11530","RT.8/RW.8, Kb. Jeruk, Kec. Kb. Jeruk, Kota Jakarta Barat",SULAWESI TENGGARA,11530.0,Indonesia,,,,-6.1903202,106.7737794,https://maps.google.com/?cid=0x0:0xdf73c2a2d186570d,
cafe,Kedai Kopi,Cattlea Cafe  Resto,"Jl. Batu Tulis Raya No.36, Kb. Klp., Kecamatan Gambir, Kota Jakarta Pusat, Daerah Khusus Ibukota Jakarta 10120","Kb. Klp., Kecamatan Gambir, Kota Jakarta Pusat",SULAWESI TENGGARA,10120.0,Indonesia,8176882400.0,,,-6.1632723,106.8247887,https://maps.google.com/?cid=0x0:0x3c7cba928c2e8a4c,
cafe,Kafe,Kopi daerah cafe,"Lasusua, Kec. Lasusua, Kabupaten Kolaka Utara, Sulawesi Tenggara 93914","Kec. Lasusua, Kabupaten Kolaka Utara",SULAWESI TENGGARA,93914.0,Indonesia,8114053553.0,,,-3.5072341,120.8881014,https://maps.google.com/?cid=0x0:0xea0cef50091568c4,
cafe,Kafe,Cafe Senandung Lasusua,"Perempatan Lampu merah Lasusua, Lasusua, Kec. Lasusua, Kabupaten Kolaka Utara, Sulawesi Tenggara 93911","Lasusua, Kec. Lasusua, Kabupaten Kolaka Utara",SULAWESI TENGGARA,93911.0,Indonesia,,,,-3.4972999,120.8837745,https://maps.google.com/?cid=0x0:0xdf2d522c084b20e1,
cafe,cafe,,,,SULAWESI TENGGARA,,Indonesia,,,,,,https://maps.google.com/?cid=0x0:0xea0cef50091568c4u0026onu003dCafe+Latteu0026midu003d/g/11cn97rsqg,
cafe,cafe,,,,SULAWESI TENGGARA,,Indonesia,,,,,,https://maps.google.com/?cid=0x0:0xea0cef50091568c4u0026onu003dFrench+Friesu0026midu003d/g/11cn97rsqg,
cafe,cafe,,,,SULAWESI TENGGARA,,Indonesia,,,,,,https://maps.google.com/?cid=0x0:0xea0cef50091568c4u0026onu003dGreen+Teau0026midu003d/g/11cn97rsqg,
cafe,cafe,,,,SULAWESI TENGGARA,,Indonesia,,,,,,https://maps.google.com/?cid=0x0:0xea0cef50091568c4u0026onu003dv60u0026midu003d/g/11cn97rsqg,
cafe,cafe,,,,SULAWESI TENGGARA,,Indonesia,,,,,,https://maps.google.com/?cid=0x0:0xea0cef50091568c4u0026onu003dCappucino+Latteu0026midu003d/g/11cn97rsqg,
cafe,cafe,,,,SULAWESI TENGGARA,,Indonesia,,,,,,https://maps.google.com/?cid=0x0:0xea0cef50091568c4u0026onu003dAyo+Guys+Mampir+Di+Kopidaerah+Mantulll+Cuyu0026midu003d/g/11cn97rsqg,
cafe,cafe,,,,SULAWESI TENGGARA,,Indonesia,,,,,,https://maps.google.com/?cid=0x0:0xea0cef50091568c4u0026onu003dCappucino+Hot+Regalu0026midu003d/g/11cn97rsqg,
cafe,cafe,,,,SULAWESI TENGGARA,,Indonesia,,,,,,https://maps.google.com/?cid=0x0:0xea0cef50091568c4u0026onu003dKentang+Gorengu0026midu003d/g/11cn97rsqg,
cafe,cafe,,,,SULAWESI TENGGARA,,Indonesia,,,,,,https://maps.google.com/?cid=0x0:0xea0cef50091568c4u0026onu0026midu003d/g/11cn97rsqg,
cafe,cafe,Sulawesi Tenggara 93916,"Kabupaten Kolaka Utara, Sulawesi Tenggara","Kabupaten Kolaka Utara, Sulawesi Tenggara",SULAWESI TENGGARA,,Indonesia,,,,-3.5053133,121.0564425,https://maps.google.com/?cid=0x0:0x7ea4f9c10374539b,
cafe,Kedai Kopi,Cafe Ayomi By Pass Lasusua Kolaka Utara,"FVWG+5J5 cafe ayomi bypass, Kec. Lasusua, Kabupaten Kolaka Utara, Sulawesi Tenggara 93914","Kec. Lasusua, Kabupaten Kolaka Utara",SULAWESI TENGGARA,93914.0,Indonesia,82393202606.0,,,-3.5046104,120.8766236,https://maps.google.com/?cid=0x0:0x86c0e119233db921,
cafe,Kafe,In's Truck Cafe  Resto,"Lasusua, Kec. Lasusua, Kabupaten Kolaka Utara, Sulawesi Tenggara 93911","Kec. Lasusua, Kabupaten Kolaka Utara",SULAWESI TENGGARA,93911.0,Indonesia,82399466660.0,,,-3.4967929,120.8817567,https://maps.google.com/?cid=0x0:0xb8b7ba358cefd851,
cafe,Kafe,MJD CAFE DESA LAWEKARA,"8XRW+7RX, Unnamed Road, Lawekara, Kecamatan Rante Angin, Kabupaten Kolaka Utara, Sulawesi Tenggara 93956","Unnamed Road, Lawekara, Kecamatan Rante Angin, Kabupaten Kolaka Utara",SULAWESI TENGGARA,93956.0,Indonesia,85255739927.0,,,-3.6592733,120.9970971,https://maps.google.com/?cid=0x0:0x2a6de74975ce1ce7,
cafe,Kafe,ARUMY CAFE  RESTO,"GV3P+428, Lasusua, Kec. Lasusua, Kabupaten Kolaka Utara, Sulawesi Tenggara","Kabupaten Kolaka Utara, Sulawesi Tenggara",SULAWESI TENGGARA,,Indonesia,,,,-3.49722,120.8850668,https://maps.google.com/?cid=0x0:0x4379c0a5da4f230d,
cafe,Kafe,The Balqon Cafe,"GV2M+W56, Lasusua, Kec. Lasusua, Kabupaten Kolaka Utara, Sulawesi Tenggara 93914","Lasusua, Kec. Lasusua, Kabupaten Kolaka Utara",SULAWESI TENGGARA,93914.0,Indonesia,,,,-3.4977166,120.8828853,https://maps.google.com/?cid=0x0:0x4b7b9d3f9c1dfbc,
cafe,Kafe,Chocolate Cafe and Gallery,"FVWG+38G, samping, pasar central, bypas, North Kolaka Regency, South East Sulawesi 93914","samping, pasar central, bypas, North Kolaka Regency",SULAWESI TENGGARA,93914.0,Indonesia,,,,-3.5046121,120.8757609,https://maps.google.com/?cid=0x0:0x35ee181e97f633d9,
cafe,Restoran,Warung Makan Surabaya,"HVMQ+CCV, Jl. Poros Olooloho - Lasusua, Katoi, Kec. Katoi, Kabupaten Kolaka Utara, Sulawesi Tenggara 93957","Jl. Poros Olooloho - Lasusua, Katoi, Kec. Katoi, Kabupaten Kolaka Utara",SULAWESI TENGGARA,93957.0,Indonesia,,,,-3.4163797,120.8885449,https://maps.google.com/?cid=0x0:0xa8a941a3ab4d7d3a,
cafe,cafe,za/na Coffee,"HVPQ+532, Katoi, Kec. Katoi, Kabupaten Kolaka Utara, Sulawesi Tenggara","Kabupaten Kolaka Utara, Sulawesi Tenggara",SULAWESI TENGGARA,,Indonesia,,,,-3.414622,120.8876515,https://maps.google.com/?cid=0x0:0x7e9efbc614d20885,
cafe,Restoran,Faith Kitchen Cafe and BBQ,"Jalan Tomangera, Patowonua, Kec. Lasusua, Kabupaten Kolaka Utara, Sulawesi Tenggara 93911","Patowonua, Kec. Lasusua, Kabupaten Kolaka Utara",SULAWESI TENGGARA,93911.0,Indonesia,82195819030.0,,,-3.5058955,120.8853449,https://maps.google.com/?cid=0x0:0xbf63445af3ec07aa,
cafe,Kafe,Cafe Macawa,"GV2J+MMR, Unnamed Road, Lasusua, Kec. Lasusua, Kabupaten Kolaka Utara, Sulawesi Tenggara 93914","Unnamed Road, Lasusua, Kec. Lasusua, Kabupaten Kolaka Utara",SULAWESI TENGGARA,93914.0,Indonesia,,,,-3.4982508,120.8816469,https://maps.google.com/?cid=0x0:0x40e34c92352bfd9,
cafe,Restoran,Cafe Alex,"9X7R+PRR, Lapasi-Pasi, Kec. Lambai, Kabupaten Kolaka Utara, Sulawesi Tenggara 93956","Lapasi-Pasi, Kec. Lambai, Kabupaten Kolaka Utara",SULAWESI TENGGARA,93956.0,Indonesia,,,,-3.6356339,120.9920214,https://maps.google.com/?cid=0x0:0x516f13328e03167c,
cafe,Kafe,Warkop Atiah277,"GV3M+4GF, Lasusua, Kec. Lasusua, Kabupaten Kolaka Utara, Sulawesi Tenggara 93914","Lasusua, Kec. Lasusua, Kabupaten Kolaka Utara",SULAWESI TENGGARA,93914.0,Indonesia,,,,-3.4971829,120.8838015,https://maps.google.com/?cid=0x0:0xda0b1ffb0964e903,
cafe,Kafe,Dya Project Coffee,"FVVP+P8C, Patowonua, Kec. Lasusua, Kabupaten Kolaka Utara, Sulawesi Tenggara 93913","Patowonua, Kec. Lasusua, Kabupaten Kolaka Utara",SULAWESI TENGGARA,93913.0,Indonesia,82219770769.0,,,-3.5056548,120.885762,https://maps.google.com/?cid=0x0:0xade329f4ceb4e446,
cafe,Kafe,Cafe suci,"Bay pas, Puncak Monapa, Kec. Lasusua, Kabupaten Kolaka Utara, Sulawesi Tenggara 93553","Puncak Monapa, Kec. Lasusua, Kabupaten Kolaka Utara",SULAWESI TENGGARA,93553.0,Indonesia,85398898685.0,,,-3.5440639,120.9618653,https://maps.google.com/?cid=0x0:0x66e54a68331ac9eb,
cafe,Kafe,Drinks House,"FWQ2+5CQ, Tojabi, Kec. Lasusua, Kabupaten Kolaka Utara, Sulawesi Tenggara 93916","Tojabi, Kec. Lasusua, Kabupaten Kolaka Utara",SULAWESI TENGGARA,93916.0,Indonesia,85158179885.0,,,-3.5120413,120.901096,https://maps.google.com/?cid=0x0:0xa548c3e0464b2710,
cafe,Kafe,Nine box cafe,"komplek SPBU, Stasiun mart, Watuliu, Kec. Lasusua, Sulawesi Tenggara 93995","Stasiun mart, Watuliu, Kec. Lasusua",SULAWESI TENGGARA,93995.0,Indonesia,8114668431.0,,,-3.5004301,120.894335,https://maps.google.com/?cid=0x0:0xb98ccb7691bebda0,
cafe,Kafe,Warkop Teras The ONe Community,"GV2P+35J, Lasusua, Kec. Lasusua, Kabupaten Kolaka Utara, Sulawesi Tenggara 93914","Lasusua, Kec. Lasusua, Kabupaten Kolaka Utara",SULAWESI TENGGARA,93914.0,Indonesia,,,,-3.4997898,120.8853799,https://maps.google.com/?cid=0x0:0x3ae8a27f875d36e6,
cafe,cafe,Sulawesi Tenggara 93957,"Kabupaten Kolaka Utara, Sulawesi Tenggara","Kabupaten Kolaka Utara, Sulawesi Tenggara",SULAWESI TENGGARA,,Indonesia,,,,-3.4034552,120.9646866,https://maps.google.com/?cid=0x0:0x6e86e0d42ab08184,
cafe,Kedai Kopi,nonaME Coffee,"JWRC+QHP, Mala - Mala, Kec. Kodeoha, Kabupaten Kolaka Utara, Sulawesi Tenggara 93957","Mala - Mala, Kec. Kodeoha, Kabupaten Kolaka Utara",SULAWESI TENGGARA,93957.0,Indonesia,82293270027.0,,,-3.3580303,120.9214391,https://maps.google.com/?cid=0x0:0x67f7bc9f2b7c61ac,
cafe,Kafe,Kopi daerah cafe,"Lasusua, Kec. Lasusua, Kabupaten Kolaka Utara, Sulawesi Tenggara 93914","Kec. Lasusua, Kabupaten Kolaka Utara",SULAWESI TENGGARA,93914.0,Indonesia,8114053553.0,,,-3.5072341,120.8881014,https://maps.google.com/?cid=0x0:0xea0cef50091568c4,
cafe,cafe,za/na Coffee,"HVPQ+532, Katoi, Kec. Katoi, Kabupaten Kolaka Utara, Sulawesi Tenggara","Kabupaten Kolaka Utara, Sulawesi Tenggara",SULAWESI TENGGARA,,Indonesia,,,,-3.414622,120.8876515,https://maps.google.com/?cid=0x0:0x7e9efbc614d20885,
cafe,Bakso,Warunk Mamiku (Warung Makan Minumku) Kodeoha Kolaka Utara,"Desa Jabal Nur, Mala-Mala, Kec. Kodeoha, Kabupaten Kolaka Utara, Sulawesi Tenggara 93957","Mala-Mala, Kec. Kodeoha, Kabupaten Kolaka Utara",SULAWESI TENGGARA,93957.0,Indonesia,85341353919.0,,,-3.3653924,120.9332901,https://maps.google.com/?cid=0x0:0xea101f4e2d35950,
cafe,Restoran,Warung kopi,"J275+RM6, Meeto, Kec. Kodeoha, Kabupaten Kolaka Utara, Sulawesi Tenggara 93957","Meeto, Kec. Kodeoha, Kabupaten Kolaka Utara",SULAWESI TENGGARA,93957.0,Indonesia,82271604808.0,,,-3.3854628,121.0091396,https://maps.google.com/?cid=0x0:0xc9e8ae52cf8dcbbd,
cafe,Kafe,Warkop NR,"MW2X+C73, Jl. Poros Olooloho - Lasusua, Meeto, Kec. Kodeoha, Kabupaten Kolaka Utara, Sulawesi Tenggara 93957","Jl. Poros Olooloho - Lasusua, Meeto, Kec. Kodeoha, Kabupaten Kolaka Utara",SULAWESI TENGGARA,93957.0,Indonesia,82271604808.0,,,-3.348994,120.948177,https://maps.google.com/?cid=0x0:0x195b63861824d2c6,
cafe,Kafe,Nud's Coffee Park,"bundaran suawindu, Lasusua, Kec. Lasusua, Kabupaten Kolaka Utara, Sulawesi Tenggara 93911","Lasusua, Kec. Lasusua, Kabupaten Kolaka Utara",SULAWESI TENGGARA,93911.0,Indonesia,81342441659.0,,,-3.4940939,120.882336,https://maps.google.com/?cid=0x0:0x8ce866f01602c8b7,
cafe,Kafe,Chocolate Cafe and Gallery,"FVWG+38G, samping, pasar central, bypas, North Kolaka Regency, South East Sulawesi 93914","samping, pasar central, bypas, North Kolaka Regency",SULAWESI TENGGARA,93914.0,Indonesia,,,,-3.5046121,120.8757609,https://maps.google.com/?cid=0x0:0x35ee181e97f633d9,
cafe,Kafe,Warkop Gugun / AhwalNET,"MW2X+8VG, Meeto, Kec. Kodeoha, Kabupaten Kolaka Utara, Sulawesi Tenggara 93957","Meeto, Kec. Kodeoha, Kabupaten Kolaka Utara",SULAWESI TENGGARA,93957.0,Indonesia,85399051664.0,,,-3.349189,120.9496949,https://maps.google.com/?cid=0x0:0x4c24af20c9227e2e,
cafe,Brunch,Cafe  Resto Family,"Jabal Nur, Kab, Kabupaten Kolaka Utara, Sulawesi Tenggara 93957","Kab, Kabupaten Kolaka Utara",SULAWESI TENGGARA,93957.0,Indonesia,,,,-3.3668795,120.9319644,https://maps.google.com/?cid=0x0:0x2c904f0842be4501,
cafe,Kafe,The Balqon Cafe,"GV2M+W56, Lasusua, Kec. Lasusua, Kabupaten Kolaka Utara, Sulawesi Tenggara 93914","Lasusua, Kec. Lasusua, Kabupaten Kolaka Utara",SULAWESI TENGGARA,93914.0,Indonesia,,,,-3.4977166,120.8828853,https://maps.google.com/?cid=0x0:0x4b7b9d3f9c1dfbc,
cafe,Restoran,Warung kopi,"MW3J+74Q, Koroha, Kec. Kodeoha, Kabupaten Kolaka Utara, Sulawesi Tenggara","Kabupaten Kolaka Utara, Sulawesi Tenggara",SULAWESI TENGGARA,,Indonesia,,,,-3.3467906,120.9303744,https://maps.google.com/?cid=0x0:0xcb9281a07f4ed382,
cafe,Restoran,Warung Makan Surabaya,"HVMQ+CCV, Jl. Poros Olooloho - Lasusua, Katoi, Kec. Katoi, Kabupaten Kolaka Utara, Sulawesi Tenggara 93957","Jl. Poros Olooloho - Lasusua, Katoi, Kec. Katoi, Kabupaten Kolaka Utara",SULAWESI TENGGARA,93957.0,Indonesia,,,,-3.4163797,120.8885449,https://maps.google.com/?cid=0x0:0xa8a941a3ab4d7d3a,
cafe,Makanan Kecil,DAPUR VIKDA,"JWMJ+HXG, Jl. Poros Olooloho - Lasusua, Jabal Nur, Kec. Kodeoha, Kabupaten Kolaka Utara, Sulawesi Tenggara 93957","Jl. Poros Olooloho - Lasusua, Jabal Nur, Kec. Kodeoha, Kabupaten Kolaka Utara",SULAWESI TENGGARA,93957.0,Indonesia,82292018998.0,,,-3.3660503,120.9324465,https://maps.google.com/?cid=0x0:0xbe5d6417ec1587b4,
cafe,Restoran,Warung Makan,"MXGH+296, Jl. Poros Olooloho - Lasusua, Lapolu, Kec. Kodeoha, Kabupaten Kolaka Utara, Sulawesi Tenggara 93958","Jl. Poros Olooloho - Lasusua, Lapolu, Kec. Kodeoha, Kabupaten Kolaka Utara",SULAWESI TENGGARA,93958.0,Indonesia,82292080404.0,,,-3.3249555,120.9783955,https://maps.google.com/?cid=0x0:0x38d5a6b5746126ba,
cafe,Restoran,Warung Coto Maros,"MW2X+GGX, Jl. Poros Olooloho - Lasusua, Meeto, Kec. Kodeoha, Kabupaten Kolaka Utara, Sulawesi Tenggara 93957","Jl. Poros Olooloho - Lasusua, Meeto, Kec. Kodeoha, Kabupaten Kolaka Utara",SULAWESI TENGGARA,93957.0,Indonesia,,,,-3.3486289,120.9488479,https://maps.google.com/?cid=0x0:0x643511065d66b8ac,
cafe,Ayam,LESEHANTA âAyam Kampung Bakar Tiup-Tiupâ,"JWRR+XG, Jabal Kubis, Kec. Kodeoha, Kabupaten Kolaka Utara, Sulawesi Tenggara 93957","Jabal Kubis, Kec. Kodeoha, Kabupaten Kolaka Utara",SULAWESI TENGGARA,93957.0,Indonesia,85397356780.0,,,-3.3575482,120.9413774,https://maps.google.com/?cid=0x0:0x8a57272ad2635f5f,
cafe,Kedai Kopi,Kedaya coffee,"Sea, Kec. Latambaga, Kabupaten Kolaka, Sulawesi Tenggara","Kabupaten Kolaka, Sulawesi Tenggara",SULAWESI TENGGARA,,Indonesia,85396346048.0,,,-4.052737,121.5881063,https://maps.google.com/?cid=0x0:0x537341e68f1f25bb,
cafe,Restoran,Warung LB,"Jl. Poros Olooloho - Lasusua, Lawadia, Kec. Kodeoha, Kabupaten Kolaka Utara, Sulawesi Tenggara 93957","Lawadia, Kec. Kodeoha, Kabupaten Kolaka Utara",SULAWESI TENGGARA,93957.0,Indonesia,,,,-3.3382859,120.9579056,https://maps.google.com/?cid=0x0:0x97138a4ba2ee909e,
cafe,Kedai Kopi,Bar,"Unnamed Road, Koroha, Kec. Kodeoha, Kabupaten Kolaka Utara, Sulawesi Tenggara 93957","Koroha, Kec. Kodeoha, Kabupaten Kolaka Utara",SULAWESI TENGGARA,93957.0,Indonesia,,,,-3.3495023,120.9382404,https://maps.google.com/?cid=0x0:0x7740acbee2975edd,
cafe,Restoran,Faith Kitchen Cafe and BBQ,"Jalan Tomangera, Patowonua, Kec. Lasusua, Kabupaten Kolaka Utara, Sulawesi Tenggara 93911","Patowonua, Kec. Lasusua, Kabupaten Kolaka Utara",SULAWESI TENGGARA,93911.0,Indonesia,82195819030.0,,,-3.5058955,120.8853449,https://maps.google.com/?cid=0x0:0xbf63445af3ec07aa,
cafe,Kafe,Cafe Senandung Lasusua,"Perempatan Lampu merah Lasusua, Lasusua, Kec. Lasusua, Kabupaten Kolaka Utara, Sulawesi Tenggara 93911","Lasusua, Kec. Lasusua, Kabupaten Kolaka Utara",SULAWESI TENGGARA,93911.0,Indonesia,,,,-3.4972999,120.8837745,https://maps.google.com/?cid=0x0:0xdf2d522c084b20e1,
cafe,Restoran,Warung Terapung Wajo Tobaku,"HVJJ+WPC, Jl. Poros Olooloho - Lasusua, Katoi, Kec. Katoi, Kabupaten Kolaka Utara, Sulawesi Tenggara 93957","Jl. Poros Olooloho - Lasusua, Katoi, Kec. Katoi, Kabupaten Kolaka Utara",SULAWESI TENGGARA,93957.0,Indonesia,,,,-3.417692,120.8817555,https://maps.google.com/?cid=0x0:0x55280519104344af,
cafe,Kafe,Cafe Tetta Pisang epe KoLut,"FVWG+2QM Jl.Cafe Community, Puncak Monapa, Kec. Lasusua, Kabupaten Kolaka Utara, Sulawesi Tenggara 93915","Puncak Monapa, Kec. Lasusua, Kabupaten Kolaka Utara",SULAWESI TENGGARA,93915.0,Indonesia,82349997388.0,,,-3.5049183,120.876924,https://maps.google.com/?cid=0x0:0x741b13cc1223e130,
cafe,Sulawesi Selatan,RUMAH MAKAN COTO CETAR,"JWMM+Q53, Jl. Poros Olooloho - Lasusua, Jabal Nur, Kec. Kodeoha, Kabupaten Kolaka Utara, Sulawesi Tenggara 93957","Jl. Poros Olooloho - Lasusua, Jabal Nur, Kec. Kodeoha, Kabupaten Kolaka Utara",SULAWESI TENGGARA,93957.0,Indonesia,81245777465.0,,,-3.3656195,120.9329294,https://maps.google.com/?cid=0x0:0xfd52364fa16aef1a,
cafe,Restoran,"Rumah Makan Rauk Bambu Ayam Bakar Tiup-Tiup""""","Jl. Poros Olooloho - Lasusua, Jabal Kubis, Kec. Kodeoha, Kabupaten Kolaka Utara, Sulawesi Tenggara 93957","Jabal Kubis, Kec. Kodeoha, Kabupaten Kolaka Utara",SULAWESI TENGGARA,93957.0,Indonesia,85145012431.0,,,-3.3578051,120.9411466,https://maps.google.com/?cid=0x0:0x3182a6d30f07fcd8,
cafe,Kedai Kopi,"Rumah Tua Kerja Ngopi Formalitas"" ""Rutinitas""""","JWMM+X8J, Jl. Poros Olooloho - Lasusua, Jabal Kubis, Kec. Kodeoha, Kabupaten Kolaka Utara, Sulawesi Tenggara 93957","Jl. Poros Olooloho - Lasusua, Jabal Kubis, Kec. Kodeoha, Kabupaten Kolaka Utara",SULAWESI TENGGARA,93957.0,Indonesia,,,,-3.365044,120.9332568,https://maps.google.com/?cid=0x0:0x1bd181b4bd3814d7,
cafe,cafe,Sulawesi Tenggara 93573,"Kabupaten Kolaka, Sulawesi Tenggara","Kabupaten Kolaka, Sulawesi Tenggara",SULAWESI TENGGARA,,Indonesia,,,,-4.2654072,121.856261,https://maps.google.com/?cid=0x0:0xeafafa5d78b5c179,
cafe,Kedai Teh,Padaidi Thaitea,"PW29+3QC, Jalan Poros, Lambandia, East Kolaka Regency, South East Sulawesi 93573","Jalan Poros, Lambandia, East Kolaka Regency",SULAWESI TENGGARA,93573.0,Indonesia,85254219007.0,,,-4.2998193,121.9194026,https://maps.google.com/?cid=0x0:0x927404aeabcc284a,
cafe,Kafe,Alvarados coffe,"MWXR+FJQ, Penanggo Jaya, Kec. Lambandia, Kabupaten Kolaka, Sulawesi Tenggara 93573","Penanggo Jaya, Kec. Lambandia, Kabupaten Kolaka",SULAWESI TENGGARA,93573.0,Indonesia,81242715260.0,,,-4.3012919,121.9416226,https://maps.google.com/?cid=0x0:0x43373d8ef756b051,
cafe,Kedai Kopi,Kedai PANKER,"MWWG+6RC, Depan Masjid Raya, Penanggo Jaya, Kec. Lambandia, Kabupaten Kolaka Timur, Sulawesi Tenggara 93573","Depan Masjid Raya, Penanggo Jaya, Kec. Lambandia, Kabupaten Kolaka Timur",SULAWESI TENGGARA,93573.0,Indonesia,82344306943.0,,,-4.3044496,121.9270092,https://maps.google.com/?cid=0x0:0xbf4dd1fba3120165,
cafe,Rumah Makan,Warung Pondok Bambu,"MRJM+595, Pekorea, Kec. Lambandia, Kabupaten Kolaka, Sulawesi Tenggara 93573","Pekorea, Kec. Lambandia, Kabupaten Kolaka",SULAWESI TENGGARA,93573.0,Indonesia,82293697646.0,,,-4.3196241,121.8334868,https://maps.google.com/?cid=0x0:0x482d1603cebca11,
cafe,cafe,Lambandia,"Kec. Lambandia, Kabupaten Kolaka Timur, Sulawesi Tenggara","Kabupaten Kolaka Timur, Sulawesi Tenggara",SULAWESI TENGGARA,,Indonesia,,,,-4.2846446,121.918866,https://maps.google.com/?cid=0x0:0x2af5ac7223784fa8,
cafe,cafe,Sulawesi Tenggara 93911,"Kec. Lasusua, Kabupaten Kolaka Utara, Sulawesi Tenggara","Kabupaten Kolaka Utara, Sulawesi Tenggara",SULAWESI TENGGARA,,Indonesia,,,,-3.5496944,120.9245216,https://maps.google.com/?cid=0x0:0xbfe038a1c761471a,
cafe,Kafe,Cafe Senandung Lasusua,"Perempatan Lampu merah Lasusua, Lasusua, Kec. Lasusua, Kabupaten Kolaka Utara, Sulawesi Tenggara 93911","Lasusua, Kec. Lasusua, Kabupaten Kolaka Utara",SULAWESI TENGGARA,93911.0,Indonesia,,,,-3.4972999,120.8837745,https://maps.google.com/?cid=0x0:0xdf2d522c084b20e1,
cafe,Kafe,Kopi daerah cafe,"Lasusua, Kec. Lasusua, Kabupaten Kolaka Utara, Sulawesi Tenggara 93914","Kec. Lasusua, Kabupaten Kolaka Utara",SULAWESI TENGGARA,93914.0,Indonesia,8114053553.0,,,-3.5072341,120.8881014,https://maps.google.com/?cid=0x0:0xea0cef50091568c4,
cafe,Kafe,The Balqon Cafe,"GV2M+W56, Lasusua, Kec. Lasusua, Kabupaten Kolaka Utara, Sulawesi Tenggara 93914","Lasusua, Kec. Lasusua, Kabupaten Kolaka Utara",SULAWESI TENGGARA,93914.0,Indonesia,,,,-3.4977166,120.8828853,https://maps.google.com/?cid=0x0:0x4b7b9d3f9c1dfbc,
cafe,Kafe,ARUMY CAFE  RESTO,"GV3P+428, Lasusua, Kec. Lasusua, Kabupaten Kolaka Utara, Sulawesi Tenggara","Kabupaten Kolaka Utara, Sulawesi Tenggara",SULAWESI TENGGARA,,Indonesia,,,,-3.49722,120.8850668,https://maps.google.com/?cid=0x0:0x4379c0a5da4f230d,
cafe,Kafe,Cafe Macawa,"GV2J+MMR, Unnamed Road, Lasusua, Kec. Lasusua, Kabupaten Kolaka Utara, Sulawesi Tenggara 93914","Unnamed Road, Lasusua, Kec. Lasusua, Kabupaten Kolaka Utara",SULAWESI TENGGARA,93914.0,Indonesia,,,,-3.4982508,120.8816469,https://maps.google.com/?cid=0x0:0x40e34c92352bfd9,
cafe,Restoran,M'Truck Cafe Lasusua,"GV3M+H2Q, Lasusua, Kec. Lasusua, Kabupaten Kolaka Utara, Sulawesi Tenggara 93914","Lasusua, Kec. Lasusua, Kabupaten Kolaka Utara",SULAWESI TENGGARA,93914.0,Indonesia,,,,-3.496029,120.8825978,https://maps.google.com/?cid=0x0:0x3c06b1f1537cae58,
cafe,Kedai Kopi,Cafe Ayomi By Pass Lasusua Kolaka Utara,"FVWG+5J5 cafe ayomi bypass, Kec. Lasusua, Kabupaten Kolaka Utara, Sulawesi Tenggara 93914","Kec. Lasusua, Kabupaten Kolaka Utara",SULAWESI TENGGARA,93914.0,Indonesia,82393202606.0,,,-3.5046104,120.8766236,https://maps.google.com/?cid=0x0:0x86c0e119233db921,
cafe,Kafe,Burger Four Lasusua,"Jl. Mesjid Raya, Patowonua, Kec. Lasusua, Kabupaten Kolaka Utara, Sulawesi Tenggara 93913","Patowonua, Kec. Lasusua, Kabupaten Kolaka Utara",SULAWESI TENGGARA,93913.0,Indonesia,,,,-3.5050665,120.8871443,https://maps.google.com/?cid=0x0:0xf329630392183035,
cafe,Restoran,Faith Kitchen Cafe and BBQ,"Jalan Tomangera, Patowonua, Kec. Lasusua, Kabupaten Kolaka Utara, Sulawesi Tenggara 93911","Patowonua, Kec. Lasusua, Kabupaten Kolaka Utara",SULAWESI TENGGARA,93911.0,Indonesia,82195819030.0,,,-3.5058955,120.8853449,https://maps.google.com/?cid=0x0:0xbf63445af3ec07aa,
cafe,Kedai Kopi,WAKE UP CAFE,"Jl. Pemuda No.210, Tahoa, Kec. Kolaka, Kabupaten Kolaka, Sulawesi Tenggara 93514","Tahoa, Kec. Kolaka, Kabupaten Kolaka",SULAWESI TENGGARA,93514.0,Indonesia,811407733.0,,,-4.0682621,121.6211435,https://maps.google.com/?cid=0x0:0x878ab502aa91df05,
