Category;Real Category;Business Name;Address;City;State;Postal Code;Country;Phone;Email;Website;Latitude;Longitude;Map Link;Details Link
"building materials";"Pemasok Bahan Bangunan";"Toko Jaya Abadi";"RJX5+Q8X, Jl. Hang Jebat, Kijang Kota, Kec. Bintan Tim., Kabupaten Bintan, Kepulauan Riau 29151";"Jl. Hang Jebat, Kijang Kota, Kec. Bintan Tim., Kabupaten Bintan";"KEPULAUAN RIAU";"29151";"Indonesia";" 0771463588";"";"";"0.8494855";"104.6083553";"https://maps.google.com/?cid=0x0:0xc8985da7ac95e5e3";""
"building materials";"Pemasok Bahan Bangunan";"Toko Bangunan Surya Utama";"WH48+936, Jl. Nusantara, Gn. Lengkuas, Kec. Bintan Tim., Kabupaten Bintan, Kepulauan Riau 29151";"Jl. Nusantara, Gn. Lengkuas, Kec. Bintan Tim., Kabupaten Bintan";"KEPULAUAN RIAU";"29151";"Indonesia";" 085264476259";"";"";"0.9059102";"104.5651533";"https://maps.google.com/?cid=0x0:0x3b9d93e685a0a83c";""
"building materials";"building materials";"Kec. Bintan Pesisir";"Kabupaten Bintan, Kepulauan Riau";"Kabupaten Bintan, Kepulauan Riau";"KEPULAUAN RIAU";"";"Indonesia";"";"";"";"0.8600336";"104.6523676";"https://maps.google.com/?cid=0x0:0x643833ba99f2235f";""
"building materials";"Toko Bahan Bangunan";"Toko Material Bangunan Isabella";"Jl. Semen Tokojo, Kijang Kota, simpang keke, Kabupaten Bintan, Kepulauan Riau 29151";"Kijang Kota, simpang keke, Kabupaten Bintan";"KEPULAUAN RIAU";"29151";"Indonesia";" 082173822022";"";"";"0.8330308";"104.6045985";"https://maps.google.com/?cid=0x0:0x657580ccbf644bcc";""
"building materials";"Toko Bahan Bangunan";"Duta Keramik";"VHX9+QXJ, Jl. Nusantara, Gn. Lengkuas, Kec. Bintan Tim., Kabupaten Bintan, Kepulauan Riau 29151";"Jl. Nusantara, Gn. Lengkuas, Kec. Bintan Tim., Kabupaten Bintan";"KEPULAUAN RIAU";"29151";"Indonesia";"";"";"";"0.8994512";"104.569883";"https://maps.google.com/?cid=0x0:0x795d3ac43f6a60f4";""
"building materials";"Toko Bahan Bangunan";"Bintan pratama jaya";"Jl. Sei Datuk, Kijang Kota, Kec. Bintan Tim., Kabupaten Bintan, Kepulauan Riau 29151";"Kijang Kota, Kec. Bintan Tim., Kabupaten Bintan";"KEPULAUAN RIAU";"29151";"Indonesia";"";"";"";"0.8565855";"104.6059235";"https://maps.google.com/?cid=0x0:0x153d6c39e5c38886";""
"building materials";"Toko Perlengkapan Rumah";"TOKO BANGUNAN LENGKUAS JAYA";"Jl. Nusantara No.3, Gn. Lengkuas, Kec. Bintan Tim., Kabupaten Bintan, Kepulauan Riau 29151";"Gn. Lengkuas, Kec. Bintan Tim., Kabupaten Bintan";"KEPULAUAN RIAU";"29151";"Indonesia";" 085356280066";"";"";"0.9059972";"104.5655366";"https://maps.google.com/?cid=0x0:0x30d7327484a0394b";""
"building materials";"Toko Elektronik";"Toko SENTOSA";"Jl. Ps. Berdikari, Kijang Kota, Kec. Bintan Tim., KIJANG, Kepulauan Riau 29151";"Kijang Kota, Kec. Bintan Tim., KIJANG";"KEPULAUAN RIAU";"29151";"Indonesia";" 077161617";"";"";"0.8419785";"104.603393";"https://maps.google.com/?cid=0x0:0xc0522c352d75d119";""
"building materials";"Toko Bahan Bangunan";"TB.NUSANTARA";"WH56+64M, Jl. Nusantara, Gn. Lengkuas, Kec. Bintan Tim., Kabupaten Bintan, Kepulauan Riau 29151";"Jl. Nusantara, Gn. Lengkuas, Kec. Bintan Tim., Kabupaten Bintan";"KEPULAUAN RIAU";"29151";"Indonesia";"";"";"";"0.9080852";"104.5602851";"https://maps.google.com/?cid=0x0:0xaaed169f22bbd1c5";""
"building materials";"Toko Bahan Bangunan";"Toko Jati Luhur";"RJQ2+F9W, Kijang Kota, Kec. Bintan Tim., Kabupaten Bintan, Kepulauan Riau 29151";"Kijang Kota, Kec. Bintan Tim., Kabupaten Bintan";"KEPULAUAN RIAU";"29151";"Indonesia";"";"";"";"0.8387456";"104.6009517";"https://maps.google.com/?cid=0x0:0x57e0a8f450fb18eb";""
"building materials";"Pasar bahan bangunan";"Rhema Bintan Jaya";"Air Raja, Kec. Tanjungpinang Tim., Kota Tanjung Pinang, Kepulauan Riau";"Kota Tanjung Pinang, Kepulauan Riau";"KEPULAUAN RIAU";"";"Indonesia";" 082382852024";"";"";"0.9247099";"104.5030953";"https://maps.google.com/?cid=0x0:0xb455aa671e6dcc5";""
"building materials";"Toko Bahan Bangunan";"TB Jaya makmur";"Jl. Tanjung Uban, KM.18, KP. Mantrust Gesek, Toapaya Sel., Kabupaten, Kabupaten Bintan, Kepulauan Riau 29157";"KM.18, KP. Mantrust Gesek, Toapaya Sel., Kabupaten, Kabupaten Bintan";"KEPULAUAN RIAU";"29157";"Indonesia";" 081364388888";"";"";"0.9616698";"104.5391798";"https://maps.google.com/?cid=0x0:0xb6f59ae7f6d19f09";""
"building materials";"Toko Bahan Bangunan";"Toko Bangunan Bandung Jaya";"Jl. Trikora No.33, Kijang Kota, Kec. Bintan Tim., Kabupaten Bintan, Kepulauan Riau 29151";"Kijang Kota, Kec. Bintan Tim., Kabupaten Bintan";"KEPULAUAN RIAU";"29151";"Indonesia";"";"";"";"0.849283";"104.6074897";"https://maps.google.com/?cid=0x0:0x5900766a32d792d5";""
"building materials";"Toko Bahan Bangunan";"CLINTONINDO CAHAYA CEMERLANG (MITON)";"Kampung Galang Batang Desa Gunung Kijang, RT.006/RW.003, Kecamatan Gunung, Kijang, Kabupaten Bintan, Kepulauan Riau 29155";"RT.006/RW.003, Kecamatan Gunung, Kijang, Kabupaten Bintan";"KEPULAUAN RIAU";"29155";"Indonesia";" 085374298881";"";"";"0.9378735";"104.6474336";"https://maps.google.com/?cid=0x0:0x85502d792e575540";""
"building materials";"Toko Bahan Bangunan";"Toko Ragam Bangunan";"Jl. Nusantara No.Km 17, Gn. Lengkuas, Kec. Bintan Tim., Kabupaten Bintan, Kepulauan Riau 29150";"Gn. Lengkuas, Kec. Bintan Tim., Kabupaten Bintan";"KEPULAUAN RIAU";"29150";"Indonesia";"";"";"";"0.9078802";"104.5621284";"https://maps.google.com/?cid=0x0:0x11ade6a3900f585d";""
"building materials";"Kantor Perusahaan";"Batako sungai lekop";"Sungai Lekop, Kec. Bintan Tim., Kabupaten Bintan, Kepulauan Riau 29151";"Kec. Bintan Tim., Kabupaten Bintan";"KEPULAUAN RIAU";"29151";"Indonesia";" 081372507795";"";"";"0.8995828";"104.5830082";"https://maps.google.com/?cid=0x0:0x6317761fe7c8020e";""
"building materials";"Toko Bahan Bangunan";"Bintan Cahaya Perdana";"WFCX+H65 Indonusa Lestari Blok D10, Jl. W.R. Supratman, Air Raja, Kec. Tanjungpinang Tim., Kota Tanjung Pinang, Kepulauan Riau";"Kota Tanjung Pinang, Kepulauan Riau";"KEPULAUAN RIAU";"";"Indonesia";" 082173895392";"";"";"0.9213875";"104.4981103";"https://maps.google.com/?cid=0x0:0xd7a75f1f56e3542f";""
"building materials";"building materials";"Budi Jaya";"RJR3+H7H, Kijang Kota, Kec. Bintan Tim., Kabupaten Bintan, Kepulauan Riau 29151";"Kijang Kota, Kec. Bintan Tim., Kabupaten Bintan";"KEPULAUAN RIAU";"29151";"Indonesia";"";"";"";"0.8414293";"104.6032276";"https://maps.google.com/?cid=0x0:0x357b90cdc028b928";""
"building materials";"Toko Bahan Bangunan";"Wibik Jaya";"Jl. Handjoyo Putro, Batu IX, Kec. Tanjungpinang Tim., Kota Tanjung Pinang, Kepulauan Riau 29125";"Batu IX, Kec. Tanjungpinang Tim., Kota Tanjung Pinang";"KEPULAUAN RIAU";"29125";"Indonesia";"";"";"";"0.9150355";"104.5063196";"https://maps.google.com/?cid=0x0:0xbbb85f950ef0d4be";""
"building materials";"Toko Bahan Bangunan";"Lestari makmur";"XG6F+6GG, Jl. W.R. Supratman, Toapaya Sel., Kec. Toapaya, Kabupaten Bintan, Kepulauan Riau 29132";"Jl. W.R. Supratman, Toapaya Sel., Kec. Toapaya, Kabupaten Bintan";"KEPULAUAN RIAU";"29132";"Indonesia";"";"";"";"0.9605664";"104.5238249";"https://maps.google.com/?cid=0x0:0xf55fc938a6071fb3";""
"building materials";"Pemasok Bahan Bangunan";"Toko Bangunan Surya Utama";"WH48+936, Jl. Nusantara, Gn. Lengkuas, Kec. Bintan Tim., Kabupaten Bintan, Kepulauan Riau 29151";"Jl. Nusantara, Gn. Lengkuas, Kec. Bintan Tim., Kabupaten Bintan";"KEPULAUAN RIAU";"29151";"Indonesia";" 085264476259";"";"";"0.9059102";"104.5651533";"https://maps.google.com/?cid=0x0:0x3b9d93e685a0a83c";""
"building materials";"building materials";"Kec. Bintan Tim.";"Kabupaten Bintan, Kepulauan Riau";"Kabupaten Bintan, Kepulauan Riau";"KEPULAUAN RIAU";"";"Indonesia";"";"";"";"0.8540493";"104.6077647";"https://maps.google.com/?cid=0x0:0x95699890ad044101";""
"building materials";"Pemasok Bahan Bangunan";"Toko Jaya Abadi";"RJX5+Q8X, Jl. Hang Jebat, Kijang Kota, Kec. Bintan Tim., Kabupaten Bintan, Kepulauan Riau 29151";"Jl. Hang Jebat, Kijang Kota, Kec. Bintan Tim., Kabupaten Bintan";"KEPULAUAN RIAU";"29151";"Indonesia";" 0771463588";"";"";"0.8494855";"104.6083553";"https://maps.google.com/?cid=0x0:0xc8985da7ac95e5e3";""
"building materials";"Toko Bahan Bangunan";"Duta Keramik";"VHX9+QXJ, Jl. Nusantara, Gn. Lengkuas, Kec. Bintan Tim., Kabupaten Bintan, Kepulauan Riau 29151";"Jl. Nusantara, Gn. Lengkuas, Kec. Bintan Tim., Kabupaten Bintan";"KEPULAUAN RIAU";"29151";"Indonesia";"";"";"";"0.8994512";"104.569883";"https://maps.google.com/?cid=0x0:0x795d3ac43f6a60f4";""
"building materials";"Toko Elektronik";"Toko SENTOSA";"Jl. Ps. Berdikari, Kijang Kota, Kec. Bintan Tim., KIJANG, Kepulauan Riau 29151";"Kijang Kota, Kec. Bintan Tim., KIJANG";"KEPULAUAN RIAU";"29151";"Indonesia";" 077161617";"";"";"0.8419785";"104.603393";"https://maps.google.com/?cid=0x0:0xc0522c352d75d119";""
"building materials";"Toko Perlengkapan Rumah";"Toko Aneka Bangunan";"VJ64+C53, Jl. Sei Datuk, Kijang Kota, Kec. Bintan Tim., Kabupaten Bintan, Kepulauan Riau 29151";"Jl. Sei Datuk, Kijang Kota, Kec. Bintan Tim., Kabupaten Bintan";"KEPULAUAN RIAU";"29151";"Indonesia";" 082387400327";"";"";"0.8610144";"104.6054314";"https://maps.google.com/?cid=0x0:0xa4d2cac99c2a04ba";""
"building materials";"Toko Bahan Bangunan";"TB.NUSANTARA";"WH56+64M, Jl. Nusantara, Gn. Lengkuas, Kec. Bintan Tim., Kabupaten Bintan, Kepulauan Riau 29151";"Jl. Nusantara, Gn. Lengkuas, Kec. Bintan Tim., Kabupaten Bintan";"KEPULAUAN RIAU";"29151";"Indonesia";"";"";"";"0.9080852";"104.5602851";"https://maps.google.com/?cid=0x0:0xaaed169f22bbd1c5";""
"building materials";"Toko Bahan Bangunan";"Toko Material Bangunan Isabella";"Jl. Semen Tokojo, Kijang Kota, simpang keke, Kabupaten Bintan, Kepulauan Riau 29151";"Kijang Kota, simpang keke, Kabupaten Bintan";"KEPULAUAN RIAU";"29151";"Indonesia";" 082173822022";"";"";"0.8330308";"104.6045985";"https://maps.google.com/?cid=0x0:0x657580ccbf644bcc";""
"building materials";"Toko Bahan Bangunan";"Bintan pratama jaya";"Jl. Sei Datuk, Kijang Kota, Kec. Bintan Tim., Kabupaten Bintan, Kepulauan Riau 29151";"Kijang Kota, Kec. Bintan Tim., Kabupaten Bintan";"KEPULAUAN RIAU";"29151";"Indonesia";"";"";"";"0.8565855";"104.6059235";"https://maps.google.com/?cid=0x0:0x153d6c39e5c38886";""
"building materials";"Toko Bahan Bangunan";"Toko Jati Luhur";"RJQ2+F9W, Kijang Kota, Kec. Bintan Tim., Kabupaten Bintan, Kepulauan Riau 29151";"Kijang Kota, Kec. Bintan Tim., Kabupaten Bintan";"KEPULAUAN RIAU";"29151";"Indonesia";"";"";"";"0.8387456";"104.6009517";"https://maps.google.com/?cid=0x0:0x57e0a8f450fb18eb";""
"building materials";"Toko Bahan Bangunan";"Toko Ragam Bangunan";"Jl. Nusantara No.Km 17, Gn. Lengkuas, Kec. Bintan Tim., Kabupaten Bintan, Kepulauan Riau 29150";"Gn. Lengkuas, Kec. Bintan Tim., Kabupaten Bintan";"KEPULAUAN RIAU";"29150";"Indonesia";"";"";"";"0.9078802";"104.5621284";"https://maps.google.com/?cid=0x0:0x11ade6a3900f585d";""
"building materials";"Kantor Perusahaan";"Batako sungai lekop";"Sungai Lekop, Kec. Bintan Tim., Kabupaten Bintan, Kepulauan Riau 29151";"Kec. Bintan Tim., Kabupaten Bintan";"KEPULAUAN RIAU";"29151";"Indonesia";" 081372507795";"";"";"0.8995828";"104.5830082";"https://maps.google.com/?cid=0x0:0x6317761fe7c8020e";""
"building materials";"Toko Perlengkapan Rumah";"Toko Bangunan BISON";"WH38+7XQ, Jl. Nusantara, Sungai Lekop, Kec. Bintan Tim., Kabupaten Bintan, Kepulauan Riau 29151";"Jl. Nusantara, Sungai Lekop, Kec. Bintan Tim., Kabupaten Bintan";"KEPULAUAN RIAU";"29151";"Indonesia";"";"";"";"0.9032122";"104.5674721";"https://maps.google.com/?cid=0x0:0x53ff2b607e376579";""
"building materials";"Pasar bahan bangunan";"Rhema Bintan Jaya";"Air Raja, Kec. Tanjungpinang Tim., Kota Tanjung Pinang, Kepulauan Riau";"Kota Tanjung Pinang, Kepulauan Riau";"KEPULAUAN RIAU";"";"Indonesia";" 082382852024";"";"";"0.9247099";"104.5030953";"https://maps.google.com/?cid=0x0:0xb455aa671e6dcc5";""
"building materials";"Toko Bahan Bangunan";"Bintan Cahaya Perdana";"WFCX+H65 Indonusa Lestari Blok D10, Jl. W.R. Supratman, Air Raja, Kec. Tanjungpinang Tim., Kota Tanjung Pinang, Kepulauan Riau";"Kota Tanjung Pinang, Kepulauan Riau";"KEPULAUAN RIAU";"";"Indonesia";" 082173895392";"";"";"0.9213875";"104.4981103";"https://maps.google.com/?cid=0x0:0xd7a75f1f56e3542f";""
"building materials";"Toko Bahan Bangunan";"Toko Bangunan Bandung Jaya";"Jl. Trikora No.33, Kijang Kota, Kec. Bintan Tim., Kabupaten Bintan, Kepulauan Riau 29151";"Kijang Kota, Kec. Bintan Tim., Kabupaten Bintan";"KEPULAUAN RIAU";"29151";"Indonesia";"";"";"";"0.849283";"104.6074897";"https://maps.google.com/?cid=0x0:0x5900766a32d792d5";""
"building materials";"Toko Perlengkapan Rumah";"MR. DIY";"Jl. Sei Datuk No.64-66, Kijang Kota, Kec. Bintan Tim., Kabupaten Bintan, Kepulauan Riau 29150";"Kijang Kota, Kec. Bintan Tim., Kabupaten Bintan";"KEPULAUAN RIAU";"29150";"Indonesia";"";"";"";"0.857023";"104.6055595";"https://maps.google.com/?cid=0x0:0xbd55e8ca5c7494ae";""
"building materials";"Toko Bahan Bangunan";"Wibik Jaya";"Jl. Handjoyo Putro, Batu IX, Kec. Tanjungpinang Tim., Kota Tanjung Pinang, Kepulauan Riau 29125";"Batu IX, Kec. Tanjungpinang Tim., Kota Tanjung Pinang";"KEPULAUAN RIAU";"29125";"Indonesia";"";"";"";"0.9150355";"104.5063196";"https://maps.google.com/?cid=0x0:0xbbb85f950ef0d4be";""
"building materials";"Toko Bahan Bangunan";"CLINTONINDO CAHAYA CEMERLANG (MITON)";"Kampung Galang Batang Desa Gunung Kijang, RT.006/RW.003, Kecamatan Gunung, Kijang, Kabupaten Bintan, Kepulauan Riau 29155";"RT.006/RW.003, Kecamatan Gunung, Kijang, Kabupaten Bintan";"KEPULAUAN RIAU";"29155";"Indonesia";" 085374298881";"";"";"0.9378735";"104.6474336";"https://maps.google.com/?cid=0x0:0x85502d792e575540";""
"building materials";"Toko Bahan Bangunan";"Toko Bintan Sukses";"Jl. Raya Dompak No.6, Batu IX, Kec. Tanjungpinang Tim., Kota Tanjung Pinang, Kepulauan Riau 29124";"Batu IX, Kec. Tanjungpinang Tim., Kota Tanjung Pinang";"KEPULAUAN RIAU";"29124";"Indonesia";" 07714443070";"";"";"0.8824328";"104.4893918";"https://maps.google.com/?cid=0x0:0x325cd6c4453205b6";""
"building materials";"Toko Bahan Bangunan";"Toko bangunan 899";"WG46+XH6, Jl. Hang Lekir, Batu IX, Kec. Tanjungpinang Tim., Kota Tanjung Pinang, Kepulauan Riau 29125";"Jl. Hang Lekir, Batu IX, Kec. Tanjungpinang Tim., Kota Tanjung Pinang";"KEPULAUAN RIAU";"29125";"Indonesia";" 08117731899";"";"";"0.9074147";"104.5113787";"https://maps.google.com/?cid=0x0:0xcc999e2b2c2bf2d3";""
"building materials";"Toko Bahan Bangunan";"Toko HAN JAYA";"WG4G+HFC, KP. WONOSARI, RT.002/RW.011, Batu IX, Tanjungpinang Timur, Tanjung Pinang City, Riau Islands 29125";"KP. WONOSARI, RT.002/RW.011, Batu IX, Tanjungpinang Timur, Tanjung Pinang City";"KEPULAUAN RIAU";"29125";"Indonesia";" 081276425565";"";"";"0.9064417";"104.5261413";"https://maps.google.com/?cid=0x0:0x207a3983b275d834";""
"building materials";"building materials";"Budi Jaya";"RJR3+H7H, Kijang Kota, Kec. Bintan Tim., Kabupaten Bintan, Kepulauan Riau 29151";"Kijang Kota, Kec. Bintan Tim., Kabupaten Bintan";"KEPULAUAN RIAU";"29151";"Indonesia";"";"";"";"0.8414293";"104.6032276";"https://maps.google.com/?cid=0x0:0x357b90cdc028b928";""
"building materials";"building materials";"Kec. Bintan Utara";"Kabupaten Bintan, Kepulauan Riau";"Kabupaten Bintan, Kepulauan Riau";"KEPULAUAN RIAU";"";"Indonesia";"";"";"";"1.0699776";"104.229487";"https://maps.google.com/?cid=0x0:0xfe27b0e26765e552";""
"building materials";"Toko Bahan Bangunan";"Toko Usaha Harapan Baru";"366H+XHX, Jl. Bhakti Praja, Tj. Uban Sel., Kec. Bintan Utara, Kabupaten Bintan, Kepulauan Riau 29152";"Jl. Bhakti Praja, Tj. Uban Sel., Kec. Bintan Utara, Kabupaten Bintan";"KEPULAUAN RIAU";"29152";"Indonesia";" 0771483272";"";"";"1.0624849";"104.2289874";"https://maps.google.com/?cid=0x0:0xeace35887bceb771";""
"building materials";"Toko Bahan Bangunan";"Toko Mitra";"367F+QGG, Tj. Uban Kota, Kec. Bintan Utara, Kabupaten Bintan, Kepulauan Riau 29152";"Tj. Uban Kota, Kec. Bintan Utara, Kabupaten Bintan";"KEPULAUAN RIAU";"29152";"Indonesia";"";"";"";"1.0644262";"104.2238236";"https://maps.google.com/?cid=0x0:0xd42991f73e8a512a";""
"building materials";"Toko Bahan Bangunan";"Sisih";"Jl. Indunsuri, Tj. Uban Sel., Kec. Bintan Utara, Kabupaten Bintan, Kepulauan Riau 29152";"Tj. Uban Sel., Kec. Bintan Utara, Kabupaten Bintan";"KEPULAUAN RIAU";"29152";"Indonesia";" 082170602826";"";"";"1.0676049";"104.237545";"https://maps.google.com/?cid=0x0:0x62c1937957e69fed";""
"building materials";"Toko Bahan Bangunan";"Sung Mahkota";"Tj. Uban Sel., Kec. Bintan Utara, Kabupaten Bintan, Kepulauan Riau 29152";"Kec. Bintan Utara, Kabupaten Bintan";"KEPULAUAN RIAU";"29152";"Indonesia";" 0771483000";"";"";"1.0642035";"104.238122";"https://maps.google.com/?cid=0x0:0x79d5ec7ced560cc5";""
"building materials";"Toko Bahan Bangunan";"Toko Panca Bangunan";"367F+VGQ, Tj. Uban Kota, Kec. Bintan Utara, Kabupaten Bintan, Kepulauan Riau 29152";"Tj. Uban Kota, Kec. Bintan Utara, Kabupaten Bintan";"KEPULAUAN RIAU";"29152";"Indonesia";"";"";"";"1.0647235";"104.2238655";"https://maps.google.com/?cid=0x0:0x585c797011e3ee5a";""
"building materials";"Toko Bahan Bangunan";"TB. BINTAN JAYA";"26XR+824, Tj. Uban Sel., Kec. Bintan Utara, Kabupaten Bintan, Kepulauan Riau 29152";"Tj. Uban Sel., Kec. Bintan Utara, Kabupaten Bintan";"KEPULAUAN RIAU";"29152";"Indonesia";"";"";"";"1.0482625";"104.240078";"https://maps.google.com/?cid=0x0:0xe405e1309dd69300";""
"building materials";"Toko Bahan Bangunan";"Toko Bahagia";"3679+Q5P, Jl. Merdeka, Tj. Uban Kota, Kec. Bintan Utara, Kabupaten Bintan, Kepulauan Riau";"Kabupaten Bintan, Kepulauan Riau";"KEPULAUAN RIAU";"";"Indonesia";"";"";"";"1.064473";"104.2179473";"https://maps.google.com/?cid=0x0:0x9ed408181a559254";""
"building materials";"Toko Bahan Bangunan";"Semen Padang";"Jl. Bhakti Praja, Tj. Uban Sel., Kec. Bintan Utara, Kabupaten Bintan, Kepulauan Riau 29152";"Tj. Uban Sel., Kec. Bintan Utara, Kabupaten Bintan";"KEPULAUAN RIAU";"29152";"Indonesia";"";"";"";"1.0625607";"104.2289737";"https://maps.google.com/?cid=0x0:0x2b255bfb5096372f";""
"building materials";"Toko Bahan Bangunan";"Toko Bangunan "SEMANGAT BARU"";"488Q+4F8, Sebong Pereh, Kec. Tlk. Sebong, Kabupaten Bintan, Kepulauan Riau 29152";"Sebong Pereh, Kec. Tlk. Sebong, Kabupaten Bintan";"KEPULAUAN RIAU";"29152";"Indonesia";" 085364997436";"";"";"1.1152983";"104.3386994";"https://maps.google.com/?cid=0x0:0xf643097b4b77a305";""
"building materials";"Toko";"GIYONO SUKSES INDAH";"Tlk. Sasah, Kec. Seri Kuala Lobam, Kabupaten Bintan, Kepulauan Riau 29152";"Kec. Seri Kuala Lobam, Kabupaten Bintan";"KEPULAUAN RIAU";"29152";"Indonesia";"";"";"";"1.0367744";"104.2380969";"https://maps.google.com/?cid=0x0:0x69a3a67260253e6f";""
"building materials";"Toko Bahan Bangunan";"Toko Bintan Karya";"36CJ+334, Jl. Indunsuri, Tj. Uban Sel., Kec. Bintan Utara, Kabupaten Bintan, Kepulauan Riau 29152";"Jl. Indunsuri, Tj. Uban Sel., Kec. Bintan Utara, Kabupaten Bintan";"KEPULAUAN RIAU";"29152";"Indonesia";"";"";"";"1.0701492";"104.2302148";"https://maps.google.com/?cid=0x0:0xd659d6552f886750";""
"building materials";"Toko Bahan Bangunan";"Toko Matrial CITRA ABADI";"Sebong Pereh, Kec. Tlk. Sebong, Kabupaten Bintan, Kepulauan Riau 29152";"Kec. Tlk. Sebong, Kabupaten Bintan";"KEPULAUAN RIAU";"29152";"Indonesia";" 082171693932";"";"";"1.1131391";"104.3487529";"https://maps.google.com/?cid=0x0:0x4793895c5646ecc0";""
"building materials";"Tukang Cat";"Tri Putra Paint";"368G+9HM, Tj. Uban Kota, Kec. Bintan Utara, Kabupaten Bintan, Kepulauan Riau 29152";"Tj. Uban Kota, Kec. Bintan Utara, Kabupaten Bintan";"KEPULAUAN RIAU";"29152";"Indonesia";"";"";"";"1.0659651";"104.2264352";"https://maps.google.com/?cid=0x0:0x9ba8f9860854f7b";""
"building materials";"building materials";"w-EFaPWWMafb1sQPycnbsA0";"";"";"KEPULAUAN RIAU";"";"Indonesia";" 081276527079";"";"";"-2.44565";"117.8888";"https://maps.google.com/?cid=0x0:0x1ef3e325e500d696";""
"building materials";"Toko Bahan Bangunan";"Inti Bangunan";"4954+F9J, Kota Baru, Kec. Tlk. Sebong, Kabupaten Bintan, Kepulauan Riau 29151";"Kota Baru, Kec. Tlk. Sebong, Kabupaten Bintan";"KEPULAUAN RIAU";"29151";"Indonesia";" 081364927393";"";"";"1.1087202";"104.3558915";"https://maps.google.com/?cid=0x0:0xc374893aa0dc76b9";""
"building materials";"Toko Bahan Bangunan";"Toko Bintang Warna";"Jl. Permaisuri, Tj. Uban Kota, Kec. Bintan Utara, Kabupaten Bintan, Kepulauan Riau 29152";"Tj. Uban Kota, Kec. Bintan Utara, Kabupaten Bintan";"KEPULAUAN RIAU";"29152";"Indonesia";" 081313611970";"";"";"1.0648422";"104.224843";"https://maps.google.com/?cid=0x0:0xa2625e4c9cc6af77";""
"building materials";"Toko Bahan Bangunan";"Toko Bintan Jaya";"48GC+MXQ, Sebong Lagoi, Kec. Tlk. Sebong, Kabupaten Bintan, Kepulauan Riau";"Kabupaten Bintan, Kepulauan Riau";"KEPULAUAN RIAU";"";"Indonesia";"";"";"";"1.1267013";"104.3224718";"https://maps.google.com/?cid=0x0:0xbd17158f2ee4cf8c";""
"building materials";"building materials";"Kepulauan Riau 29151";"Kabupaten Bintan, Kepulauan Riau";"Kabupaten Bintan, Kepulauan Riau";"KEPULAUAN RIAU";"";"Indonesia";"";"";"";"0.9689163";"104.5888356";"https://maps.google.com/?cid=0x0:0x61d6e520af4a7f61";""
"building materials";"Pemasok Bahan Bangunan";"Toko Jaya Abadi";"RJX5+Q8X, Jl. Hang Jebat, Kijang Kota, Kec. Bintan Tim., Kabupaten Bintan, Kepulauan Riau 29151";"Jl. Hang Jebat, Kijang Kota, Kec. Bintan Tim., Kabupaten Bintan";"KEPULAUAN RIAU";"29151";"Indonesia";" 0771463588";"";"";"0.8494855";"104.6083553";"https://maps.google.com/?cid=0x0:0xc8985da7ac95e5e3";""
"building materials";"Kantor Perusahaan";"PT. Bintan Alumina indonesia";"Gn. Kijang, Kec. Gn. Kijang, Kabupaten Bintan, Kepulauan Riau 29151";"Kec. Gn. Kijang, Kabupaten Bintan";"KEPULAUAN RIAU";"29151";"Indonesia";"";"";"";"0.908844";"104.6515985";"https://maps.google.com/?cid=0x0:0xeadac5f3890ec4b6";""
"building materials";"Toko Perkakas";"KRISBOW Tanjungpinang";"Jalan D I Panjaitan KM 8 NO 6 - 7, Air Raja, Kec. Tanjungpinang Tim., Kota Tanjung Pinang, Kepulauan Riau 29123";"Air Raja, Kec. Tanjungpinang Tim., Kota Tanjung Pinang";"KEPULAUAN RIAU";"29123";"Indonesia";" 07717335215";"";"";"0.9149854";"104.4958104";"https://maps.google.com/?cid=0x0:0xae94061ce29f56a2";""
"building materials";"Toko Aksesori Ponsel";"PT BINTAN CELLULAR INDONESIA";"RT.06/RW.03, Gn. Kijang, Kec. Gn. Kijang, Kabupaten Bintan, Kepulauan Riau";"Kabupaten Bintan, Kepulauan Riau";"KEPULAUAN RIAU";"";"Indonesia";" 082287789609";"";"";"0.9402423";"104.619037";"https://maps.google.com/?cid=0x0:0x95ebfdb64d2f66ab";""
"building materials";"Toko Percetakan";"UD. Kim Kui";"VH3R+73H, Jl. Kp. Lengkuas, Kijang Kota, Kec. Bintan Tim., Kabupaten Bintan, Kepulauan Riau 29151";"Jl. Kp. Lengkuas, Kijang Kota, Kec. Bintan Tim., Kabupaten Bintan";"KEPULAUAN RIAU";"29151";"Indonesia";" 081372868588";"";"";"0.8531775";"104.5902337";"https://maps.google.com/?cid=0x0:0xd475b46bd69154b3";""
"building materials";"Toko Bahan Bangunan";"CLINTONINDO CAHAYA CEMERLANG (MITON)";"Kampung Galang Batang Desa Gunung Kijang, RT.006/RW.003, Kecamatan Gunung, Kijang, Kabupaten Bintan, Kepulauan Riau 29155";"RT.006/RW.003, Kecamatan Gunung, Kijang, Kabupaten Bintan";"KEPULAUAN RIAU";"29155";"Indonesia";" 085374298881";"";"";"0.9378735";"104.6474336";"https://maps.google.com/?cid=0x0:0x85502d792e575540";""
"building materials";"Pembangunan Perumahan";"Kp.Banjar Lama,Gunung Kijang";"WH7J+5J5, Kp.Banjar Lama, RT.009/RW.004, Gn. Kijang, Kec. Gn. Kijang, Kabupaten Bintan, Kepulauan Riau 29151";"Kp.Banjar Lama, RT.009/RW.004, Gn. Kijang, Kec. Gn. Kijang, Kabupaten Bintan";"KEPULAUAN RIAU";"29151";"Indonesia";"";"";"";"0.9128851";"104.5816124";"https://maps.google.com/?cid=0x0:0x7a5f4073a02a6978";""
"building materials";"Kantor Perusahaan";"PT. BAI";"Gn. Kijang, Kec. Gn. Kijang, Kabupaten Bintan, Kepulauan Riau 29151";"Kec. Gn. Kijang, Kabupaten Bintan";"KEPULAUAN RIAU";"29151";"Indonesia";"";"";"";"0.9174979";"104.6586689";"https://maps.google.com/?cid=0x0:0xf06b244193284e47";""
"building materials";"building materials";"N/A";"";"";"KEPULAUAN RIAU";"";"Indonesia";" 081277555222";"";"";"-2.44565";"117.8888";"https://maps.google.com/?cid=0x0:0x1aaa6fa474830af6";""
"building materials";"Bangunan Bersejarah";"Relief Antam Kijang";"postal code 29151, Kijang Kota, Kec. Bintan Tim., Kijang, Kepulauan Riau 29151";"Kijang Kota, Kec. Bintan Tim., Kijang";"KEPULAUAN RIAU";"29151";"Indonesia";"";"";"";"0.8501454";"104.6029716";"https://maps.google.com/?cid=0x0:0x287164214027b366";""
"building materials";"building materials";"Kec. Gn. Kijang";"Kabupaten Bintan, Kepulauan Riau";"Kabupaten Bintan, Kepulauan Riau";"KEPULAUAN RIAU";"";"Indonesia";"";"";"";"0.9924036";"104.6138848";"https://maps.google.com/?cid=0x0:0xf56badec8310a646";""
"building materials";"Toko Bahan Bangunan";"Duta Keramik";"VHX9+QXJ, Jl. Nusantara, Gn. Lengkuas, Kec. Bintan Tim., Kabupaten Bintan, Kepulauan Riau 29151";"Jl. Nusantara, Gn. Lengkuas, Kec. Bintan Tim., Kabupaten Bintan";"KEPULAUAN RIAU";"29151";"Indonesia";"";"";"";"0.8994512";"104.569883";"https://maps.google.com/?cid=0x0:0x795d3ac43f6a60f4";""
"building materials";"Pemasok Bahan Bangunan";"Toko Bangunan Surya Utama";"WH48+936, Jl. Nusantara, Gn. Lengkuas, Kec. Bintan Tim., Kabupaten Bintan, Kepulauan Riau 29151";"Jl. Nusantara, Gn. Lengkuas, Kec. Bintan Tim., Kabupaten Bintan";"KEPULAUAN RIAU";"29151";"Indonesia";" 085264476259";"";"";"0.9059102";"104.5651533";"https://maps.google.com/?cid=0x0:0x3b9d93e685a0a83c";""
"building materials";"Toko Perlengkapan Rumah";"TOKO BANGUNAN LENGKUAS JAYA";"Jl. Nusantara No.3, Gn. Lengkuas, Kec. Bintan Tim., Kabupaten Bintan, Kepulauan Riau 29151";"Gn. Lengkuas, Kec. Bintan Tim., Kabupaten Bintan";"KEPULAUAN RIAU";"29151";"Indonesia";" 085356280066";"";"";"0.9059972";"104.5655366";"https://maps.google.com/?cid=0x0:0x30d7327484a0394b";""
"building materials";"Toko Bahan Bangunan";"TB.NUSANTARA";"WH56+64M, Jl. Nusantara, Gn. Lengkuas, Kec. Bintan Tim., Kabupaten Bintan, Kepulauan Riau 29151";"Jl. Nusantara, Gn. Lengkuas, Kec. Bintan Tim., Kabupaten Bintan";"KEPULAUAN RIAU";"29151";"Indonesia";"";"";"";"0.9080852";"104.5602851";"https://maps.google.com/?cid=0x0:0xaaed169f22bbd1c5";""
"building materials";"Toko Bahan Bangunan";"Toko Material Bangunan Isabella";"Jl. Semen Tokojo, Kijang Kota, simpang keke, Kabupaten Bintan, Kepulauan Riau 29151";"Kijang Kota, simpang keke, Kabupaten Bintan";"KEPULAUAN RIAU";"29151";"Indonesia";" 082173822022";"";"";"0.8330308";"104.6045985";"https://maps.google.com/?cid=0x0:0x657580ccbf644bcc";""
"building materials";"Toko Elektronik";"Toko SENTOSA";"Jl. Ps. Berdikari, Kijang Kota, Kec. Bintan Tim., KIJANG, Kepulauan Riau 29151";"Kijang Kota, Kec. Bintan Tim., KIJANG";"KEPULAUAN RIAU";"29151";"Indonesia";" 077161617";"";"";"0.8419785";"104.603393";"https://maps.google.com/?cid=0x0:0xc0522c352d75d119";""
"building materials";"Kantor Perusahaan";"Batako sungai lekop";"Sungai Lekop, Kec. Bintan Tim., Kabupaten Bintan, Kepulauan Riau 29151";"Kec. Bintan Tim., Kabupaten Bintan";"KEPULAUAN RIAU";"29151";"Indonesia";" 081372507795";"";"";"0.8995828";"104.5830082";"https://maps.google.com/?cid=0x0:0x6317761fe7c8020e";""
"building materials";"Toko Bahan Bangunan";"Lestari makmur";"XG6F+6GG, Jl. W.R. Supratman, Toapaya Sel., Kec. Toapaya, Kabupaten Bintan, Kepulauan Riau 29132";"Jl. W.R. Supratman, Toapaya Sel., Kec. Toapaya, Kabupaten Bintan";"KEPULAUAN RIAU";"29132";"Indonesia";"";"";"";"0.9605664";"104.5238249";"https://maps.google.com/?cid=0x0:0xf55fc938a6071fb3";""
"building materials";"Toko Bahan Bangunan";"Bintan pratama jaya";"Jl. Sei Datuk, Kijang Kota, Kec. Bintan Tim., Kabupaten Bintan, Kepulauan Riau 29151";"Kijang Kota, Kec. Bintan Tim., Kabupaten Bintan";"KEPULAUAN RIAU";"29151";"Indonesia";"";"";"";"0.8565855";"104.6059235";"https://maps.google.com/?cid=0x0:0x153d6c39e5c38886";""
"building materials";"Toko Bahan Bangunan";"Toko Jati Luhur";"RJQ2+F9W, Kijang Kota, Kec. Bintan Tim., Kabupaten Bintan, Kepulauan Riau 29151";"Kijang Kota, Kec. Bintan Tim., Kabupaten Bintan";"KEPULAUAN RIAU";"29151";"Indonesia";"";"";"";"0.8387456";"104.6009517";"https://maps.google.com/?cid=0x0:0x57e0a8f450fb18eb";""
"building materials";"Toko Bahan Bangunan";"Toko Ragam Bangunan";"Jl. Nusantara No.Km 17, Gn. Lengkuas, Kec. Bintan Tim., Kabupaten Bintan, Kepulauan Riau 29150";"Gn. Lengkuas, Kec. Bintan Tim., Kabupaten Bintan";"KEPULAUAN RIAU";"29150";"Indonesia";"";"";"";"0.9078802";"104.5621284";"https://maps.google.com/?cid=0x0:0x11ade6a3900f585d";""
"building materials";"Toko Bahan Bangunan";"Bintan Cahaya Perdana";"WFCX+H65 Indonusa Lestari Blok D10, Jl. W.R. Supratman, Air Raja, Kec. Tanjungpinang Tim., Kota Tanjung Pinang, Kepulauan Riau";"Kota Tanjung Pinang, Kepulauan Riau";"KEPULAUAN RIAU";"";"Indonesia";" 082173895392";"";"";"0.9213875";"104.4981103";"https://maps.google.com/?cid=0x0:0xd7a75f1f56e3542f";""
"building materials";"Pasar bahan bangunan";"Rhema Bintan Jaya";"Air Raja, Kec. Tanjungpinang Tim., Kota Tanjung Pinang, Kepulauan Riau";"Kota Tanjung Pinang, Kepulauan Riau";"KEPULAUAN RIAU";"";"Indonesia";" 082382852024";"";"";"0.9247099";"104.5030953";"https://maps.google.com/?cid=0x0:0xb455aa671e6dcc5";""
"building materials";"Toko Bahan Bangunan";"TB Jaya makmur";"Jl. Tanjung Uban, KM.18, KP. Mantrust Gesek, Toapaya Sel., Kabupaten, Kabupaten Bintan, Kepulauan Riau 29157";"KM.18, KP. Mantrust Gesek, Toapaya Sel., Kabupaten, Kabupaten Bintan";"KEPULAUAN RIAU";"29157";"Indonesia";" 081364388888";"";"";"0.9616698";"104.5391798";"https://maps.google.com/?cid=0x0:0xb6f59ae7f6d19f09";""
"building materials";"Toko Bahan Bangunan";"Toko Bangunan Bandung Jaya";"Jl. Trikora No.33, Kijang Kota, Kec. Bintan Tim., Kabupaten Bintan, Kepulauan Riau 29151";"Kijang Kota, Kec. Bintan Tim., Kabupaten Bintan";"KEPULAUAN RIAU";"29151";"Indonesia";"";"";"";"0.849283";"104.6074897";"https://maps.google.com/?cid=0x0:0x5900766a32d792d5";""
"building materials";"Toko bahan makanan";"Toko Rezeki Bangunan";"5HRG+389, Berakit, Kec. Tlk. Sebong, Kabupaten Bintan, Kepulauan Riau 29151";"Berakit, Kec. Tlk. Sebong, Kabupaten Bintan";"KEPULAUAN RIAU";"29151";"Indonesia";"";"";"";"1.1901629";"104.5758522";"https://maps.google.com/?cid=0x0:0x45469283abf9e969";""
"building materials";"Pemasok Pipa";"Trakindo Utama. PT";"3FMM+W9M, Bintan Buyu, Kec. Tlk. Bintan, Kabupaten Bintan, Kepulauan Riau 29133";"Bintan Buyu, Kec. Tlk. Bintan, Kabupaten Bintan";"KEPULAUAN RIAU";"29133";"Indonesia";" 0771316633";"";"";"1.084835";"104.483414";"https://maps.google.com/?cid=0x0:0xd5d4e3c5d3e55992";""
"building materials";"building materials";"Mantang";"Kabupaten Bintan, Kepulauan Riau";"Kabupaten Bintan, Kepulauan Riau";"KEPULAUAN RIAU";"";"Indonesia";"";"";"";"0.7703962";"104.5946633";"https://maps.google.com/?cid=0x0:0x70fe1b79307213f2";""
"building materials";"Pemasok Bahan Bangunan";"Toko Jaya Abadi";"RJX5+Q8X, Jl. Hang Jebat, Kijang Kota, Kec. Bintan Tim., Kabupaten Bintan, Kepulauan Riau 29151";"Jl. Hang Jebat, Kijang Kota, Kec. Bintan Tim., Kabupaten Bintan";"KEPULAUAN RIAU";"29151";"Indonesia";" 0771463588";"";"";"0.8494855";"104.6083553";"https://maps.google.com/?cid=0x0:0xc8985da7ac95e5e3";""
"building materials";"Toko Bahan Bangunan";"Toko Material Bangunan Isabella";"Jl. Semen Tokojo, Kijang Kota, simpang keke, Kabupaten Bintan, Kepulauan Riau 29151";"Kijang Kota, simpang keke, Kabupaten Bintan";"KEPULAUAN RIAU";"29151";"Indonesia";" 082173822022";"";"";"0.8330308";"104.6045985";"https://maps.google.com/?cid=0x0:0x657580ccbf644bcc";""
"building materials";"Toko Perlengkapan Rumah";"Toko Aneka Bangunan";"VJ64+C53, Jl. Sei Datuk, Kijang Kota, Kec. Bintan Tim., Kabupaten Bintan, Kepulauan Riau 29151";"Jl. Sei Datuk, Kijang Kota, Kec. Bintan Tim., Kabupaten Bintan";"KEPULAUAN RIAU";"29151";"Indonesia";" 082387400327";"";"";"0.8610144";"104.6054314";"https://maps.google.com/?cid=0x0:0xa4d2cac99c2a04ba";""
"building materials";"Toko Bahan Bangunan";"Bintan pratama jaya";"Jl. Sei Datuk, Kijang Kota, Kec. Bintan Tim., Kabupaten Bintan, Kepulauan Riau 29151";"Kijang Kota, Kec. Bintan Tim., Kabupaten Bintan";"KEPULAUAN RIAU";"29151";"Indonesia";"";"";"";"0.8565855";"104.6059235";"https://maps.google.com/?cid=0x0:0x153d6c39e5c38886";""
"building materials";"Toko Bahan Bangunan";"Toko Bangunan Bandung Jaya";"Jl. Trikora No.33, Kijang Kota, Kec. Bintan Tim., Kabupaten Bintan, Kepulauan Riau 29151";"Kijang Kota, Kec. Bintan Tim., Kabupaten Bintan";"KEPULAUAN RIAU";"29151";"Indonesia";"";"";"";"0.849283";"104.6074897";"https://maps.google.com/?cid=0x0:0x5900766a32d792d5";""
"building materials";"Toko Bahan Bangunan";"Toko Jati Luhur";"RJQ2+F9W, Kijang Kota, Kec. Bintan Tim., Kabupaten Bintan, Kepulauan Riau 29151";"Kijang Kota, Kec. Bintan Tim., Kabupaten Bintan";"KEPULAUAN RIAU";"29151";"Indonesia";"";"";"";"0.8387456";"104.6009517";"https://maps.google.com/?cid=0x0:0x57e0a8f450fb18eb";""
"building materials";"building materials";"Budi Jaya";"RJR3+H7H, Kijang Kota, Kec. Bintan Tim., Kabupaten Bintan, Kepulauan Riau 29151";"Kijang Kota, Kec. Bintan Tim., Kabupaten Bintan";"KEPULAUAN RIAU";"29151";"Indonesia";"";"";"";"0.8414293";"104.6032276";"https://maps.google.com/?cid=0x0:0x357b90cdc028b928";""
"building materials";"Toko";"GIYONO SUKSES INDAH";"Tlk. Sasah, Kec. Seri Kuala Lobam, Kabupaten Bintan, Kepulauan Riau 29152";"Kec. Seri Kuala Lobam, Kabupaten Bintan";"KEPULAUAN RIAU";"29152";"Indonesia";"";"";"";"1.0367744";"104.2380969";"https://maps.google.com/?cid=0x0:0x69a3a67260253e6f";""
"building materials";"building materials";"Kepulauan Riau 29152";"Kabupaten Bintan, Kepulauan Riau";"Kabupaten Bintan, Kepulauan Riau";"KEPULAUAN RIAU";"";"Indonesia";"";"";"";"1.0445582";"104.262851";"https://maps.google.com/?cid=0x0:0xc41a06150b9829d3";""
"building materials";"Sekolah Dasar";"SD Negeri 005 Seri Kuala Lobam";"Perumnas, Jl. Tj. Permai No.Kelurahan, Tj. Permai, Kabupaten Bintan, Kepulauan Riau 29152";"Jl. Tj. Permai No.Kelurahan, Tj. Permai, Kabupaten Bintan";"KEPULAUAN RIAU";"29152";"Indonesia";" 0771484401";"";"";"1.0479229";"104.2390909";"https://maps.google.com/?cid=0x0:0xec1d622b1153ba21";""
"building materials";"building materials";"Kec. Seri Kuala Lobam";"Kabupaten Bintan, Kepulauan Riau";"Kabupaten Bintan, Kepulauan Riau";"KEPULAUAN RIAU";"";"Indonesia";"";"";"";"1.0388243";"104.2481584";"https://maps.google.com/?cid=0x0:0xb423e415633e0321";""
"building materials";"Toko Bahan Bangunan";"Lestari makmur";"XG6F+6GG, Jl. W.R. Supratman, Toapaya Sel., Kec. Toapaya, Kabupaten Bintan, Kepulauan Riau 29132";"Jl. W.R. Supratman, Toapaya Sel., Kec. Toapaya, Kabupaten Bintan";"KEPULAUAN RIAU";"29132";"Indonesia";"";"";"";"0.9605664";"104.5238249";"https://maps.google.com/?cid=0x0:0xf55fc938a6071fb3";""
"building materials";"building materials";"Kepulauan Riau 29193";"Kp. Melayu, Tambelan, Kabupaten Bintan, Kepulauan Riau";"Kabupaten Bintan, Kepulauan Riau";"KEPULAUAN RIAU";"";"Indonesia";"";"";"";"0.7809484";"107.728092";"https://maps.google.com/?cid=0x0:0x596b4788bb9cd0b7";""
"building materials";"Toko Bahan Bangunan";"Toko Matrial CITRA ABADI";"Sebong Pereh, Kec. Tlk. Sebong, Kabupaten Bintan, Kepulauan Riau 29152";"Kec. Tlk. Sebong, Kabupaten Bintan";"KEPULAUAN RIAU";"29152";"Indonesia";" 082171693932";"";"";"1.1131391";"104.3487529";"https://maps.google.com/?cid=0x0:0x4793895c5646ecc0";""
"building materials";"Toko Bahan Bangunan";"Semen Padang";"Jl. Bhakti Praja, Tj. Uban Sel., Kec. Bintan Utara, Kabupaten Bintan, Kepulauan Riau 29152";"Tj. Uban Sel., Kec. Bintan Utara, Kabupaten Bintan";"KEPULAUAN RIAU";"29152";"Indonesia";"";"";"";"1.0625607";"104.2289737";"https://maps.google.com/?cid=0x0:0x2b255bfb5096372f";""
"building materials";"Toko Bahan Bangunan";"Tb.Usaha Bangunan";"Jl. Mempawah-Sei Duri No.35, Sungai Duri I, Sungai Kunyit, Kab. Mempawah, Kalimantan Barat 79271";"Sungai Duri I, Sungai Kunyit, Kab. Mempawah";"KEPULAUAN RIAU";"79271";"Indonesia";" 083125319648";"";"";"0.559695";"108.927797";"https://maps.google.com/?cid=0x0:0x96d3f5bb016807e4";""
"building materials";"Toko Bahan Bangunan";"TB Sumber Bangunan";"3XR9+3Q5, Jl. Pembangunan, Parit Baru, Kec. Salatiga, Kabupaten Sambas, Kalimantan Barat 79453";"Jl. Pembangunan, Parit Baru, Kec. Salatiga, Kabupaten Sambas";"KEPULAUAN RIAU";"79453";"Indonesia";"";"";"";"1.0901499";"108.9694865";"https://maps.google.com/?cid=0x0:0xa744f755179d4062";""
"building materials";"Toko Bahan Bangunan";"TB. Guna Bangunan";"Jl. Raya Sungai Kunyit No.93, Sungai Bundung Laut, Sungai Kunyit, Kab. Mempawah, Kalimantan Barat 78371";"Sungai Bundung Laut, Sungai Kunyit, Kab. Mempawah";"KEPULAUAN RIAU";"78371";"Indonesia";"";"";"";"0.5276761";"108.9154818";"https://maps.google.com/?cid=0x0:0x99a8784b1018b6e5";""
"building materials";"building materials";"Tb. Athat";"Sedau, Kec. Singkawang Sel., Kota Singkawang, Kalimantan Barat";"Kota Singkawang, Kalimantan Barat";"KEPULAUAN RIAU";"";"Indonesia";"";"";"";"0.8912501";"108.961949";"https://maps.google.com/?cid=0x0:0x80cbbfac4c7c9f1a";""
"building materials";"building materials";"Tambelan";"Kp. Melayu, Kabupaten Bintan, Kepulauan Riau";"Kabupaten Bintan, Kepulauan Riau";"KEPULAUAN RIAU";"";"Indonesia";"";"";"";"0.8793756";"108.024301";"https://maps.google.com/?cid=0x0:0xbbb42639ce80123c";""
"building materials";"Toko Bahan Bangunan";"Toko Bangunan "SEMANGAT BARU"";"488Q+4F8, Sebong Pereh, Kec. Tlk. Sebong, Kabupaten Bintan, Kepulauan Riau 29152";"Sebong Pereh, Kec. Tlk. Sebong, Kabupaten Bintan";"KEPULAUAN RIAU";"29152";"Indonesia";" 085364997436";"";"";"1.1152983";"104.3386994";"https://maps.google.com/?cid=0x0:0xf643097b4b77a305";""
"building materials";"building materials";"Kepulauan Riau 29152";"Kabupaten Bintan, Kepulauan Riau";"Kabupaten Bintan, Kepulauan Riau";"KEPULAUAN RIAU";"";"Indonesia";"";"";"";"1.0445582";"104.262851";"https://maps.google.com/?cid=0x0:0xc41a06150b9829d3";""
"building materials";"Toko Bahan Bangunan";"Toko Matrial CITRA ABADI";"Sebong Pereh, Kec. Tlk. Sebong, Kabupaten Bintan, Kepulauan Riau 29152";"Kec. Tlk. Sebong, Kabupaten Bintan";"KEPULAUAN RIAU";"29152";"Indonesia";" 082171693932";"";"";"1.1131391";"104.3487529";"https://maps.google.com/?cid=0x0:0x4793895c5646ecc0";""
"building materials";"Toko Bahan Bangunan";"Inti Bangunan";"4954+F9J, Kota Baru, Kec. Tlk. Sebong, Kabupaten Bintan, Kepulauan Riau 29151";"Kota Baru, Kec. Tlk. Sebong, Kabupaten Bintan";"KEPULAUAN RIAU";"29151";"Indonesia";" 081364927393";"";"";"1.1087202";"104.3558915";"https://maps.google.com/?cid=0x0:0xc374893aa0dc76b9";""
"building materials";"Toko Bahan Bangunan";"Sung Mahkota";"Tj. Uban Sel., Kec. Bintan Utara, Kabupaten Bintan, Kepulauan Riau 29152";"Kec. Bintan Utara, Kabupaten Bintan";"KEPULAUAN RIAU";"29152";"Indonesia";" 0771483000";"";"";"1.0642035";"104.238122";"https://maps.google.com/?cid=0x0:0x79d5ec7ced560cc5";""
"building materials";"Toko Bahan Bangunan";"Toko Usaha Harapan Baru";"366H+XHX, Jl. Bhakti Praja, Tj. Uban Sel., Kec. Bintan Utara, Kabupaten Bintan, Kepulauan Riau 29152";"Jl. Bhakti Praja, Tj. Uban Sel., Kec. Bintan Utara, Kabupaten Bintan";"KEPULAUAN RIAU";"29152";"Indonesia";" 0771483272";"";"";"1.0624849";"104.2289874";"https://maps.google.com/?cid=0x0:0xeace35887bceb771";""
"building materials";"Toko Bahan Bangunan";"TB.BERKAH JAYA MANDIRI";"Penaga, Kec. Tlk. Bintan, Kabupaten Bintan, Kepulauan Riau 29151";"Kec. Tlk. Bintan, Kabupaten Bintan";"KEPULAUAN RIAU";"29151";"Indonesia";"";"";"";"1.0490409";"104.3843194";"https://maps.google.com/?cid=0x0:0xea18d16774697503";""
"building materials";"Toko Bahan Bangunan";"Sisih";"Jl. Indunsuri, Tj. Uban Sel., Kec. Bintan Utara, Kabupaten Bintan, Kepulauan Riau 29152";"Tj. Uban Sel., Kec. Bintan Utara, Kabupaten Bintan";"KEPULAUAN RIAU";"29152";"Indonesia";" 082170602826";"";"";"1.0676049";"104.237545";"https://maps.google.com/?cid=0x0:0x62c1937957e69fed";""
"building materials";"Toko Bahan Bangunan";"Toko Bintan Jaya";"48GC+MXQ, Sebong Lagoi, Kec. Tlk. Sebong, Kabupaten Bintan, Kepulauan Riau";"Kabupaten Bintan, Kepulauan Riau";"KEPULAUAN RIAU";"";"Indonesia";"";"";"";"1.1267013";"104.3224718";"https://maps.google.com/?cid=0x0:0xbd17158f2ee4cf8c";""
"building materials";"Toko Bahan Bangunan";"Toko Mitra";"367F+QGG, Tj. Uban Kota, Kec. Bintan Utara, Kabupaten Bintan, Kepulauan Riau 29152";"Tj. Uban Kota, Kec. Bintan Utara, Kabupaten Bintan";"KEPULAUAN RIAU";"29152";"Indonesia";"";"";"";"1.0644262";"104.2238236";"https://maps.google.com/?cid=0x0:0xd42991f73e8a512a";""
"building materials";"Toko Bahan Bangunan";"Toko Panca Bangunan";"367F+VGQ, Tj. Uban Kota, Kec. Bintan Utara, Kabupaten Bintan, Kepulauan Riau 29152";"Tj. Uban Kota, Kec. Bintan Utara, Kabupaten Bintan";"KEPULAUAN RIAU";"29152";"Indonesia";"";"";"";"1.0647235";"104.2238655";"https://maps.google.com/?cid=0x0:0x585c797011e3ee5a";""
"building materials";"Toko Bahan Bangunan";"Toko Utama Bintan Jaya";"36CH+4RP, Tj. Uban Sel., Kec. Bintan Utara, Kabupaten Bintan, Kepulauan Riau 29152";"Tj. Uban Sel., Kec. Bintan Utara, Kabupaten Bintan";"KEPULAUAN RIAU";"29152";"Indonesia";" 0771482686";"";"";"1.0703495";"104.2295899";"https://maps.google.com/?cid=0x0:0xd115cecbdc3c5624";""
"building materials";"Toko Bahan Bangunan";"Semen Padang";"Jl. Bhakti Praja, Tj. Uban Sel., Kec. Bintan Utara, Kabupaten Bintan, Kepulauan Riau 29152";"Tj. Uban Sel., Kec. Bintan Utara, Kabupaten Bintan";"KEPULAUAN RIAU";"29152";"Indonesia";"";"";"";"1.0625607";"104.2289737";"https://maps.google.com/?cid=0x0:0x2b255bfb5096372f";""
"building materials";"Toko Bahan Bangunan";"TB. BINTAN JAYA";"26XR+824, Tj. Uban Sel., Kec. Bintan Utara, Kabupaten Bintan, Kepulauan Riau 29152";"Tj. Uban Sel., Kec. Bintan Utara, Kabupaten Bintan";"KEPULAUAN RIAU";"29152";"Indonesia";"";"";"";"1.0482625";"104.240078";"https://maps.google.com/?cid=0x0:0xe405e1309dd69300";""
"building materials";"Toko Bahan Bangunan";"Toko Bahagia";"3679+Q5P, Jl. Merdeka, Tj. Uban Kota, Kec. Bintan Utara, Kabupaten Bintan, Kepulauan Riau";"Kabupaten Bintan, Kepulauan Riau";"KEPULAUAN RIAU";"";"Indonesia";"";"";"";"1.064473";"104.2179473";"https://maps.google.com/?cid=0x0:0x9ed408181a559254";""
"building materials";"Toko Bahan Bangunan";"Toko Bintan Karya";"36CJ+334, Jl. Indunsuri, Tj. Uban Sel., Kec. Bintan Utara, Kabupaten Bintan, Kepulauan Riau 29152";"Jl. Indunsuri, Tj. Uban Sel., Kec. Bintan Utara, Kabupaten Bintan";"KEPULAUAN RIAU";"29152";"Indonesia";"";"";"";"1.0701492";"104.2302148";"https://maps.google.com/?cid=0x0:0xd659d6552f886750";""
"building materials";"building materials";"TuMFaKuNB6fU1sQP4_2ZgAs";"";"";"KEPULAUAN RIAU";"";"Indonesia";" 081276527079";"";"";"-2.44565";"117.8888";"https://maps.google.com/?cid=0x0:0x1ef3e325e500d696";""
"building materials";"Toko Bahan Bangunan";"Bauhous Toko Bangunan";"3FPM+GC8, Bintan Buyu, Kec. Tlk. Bintan, Kabupaten Bintan, Kepulauan Riau 29133";"Bintan Buyu, Kec. Tlk. Bintan, Kabupaten Bintan";"KEPULAUAN RIAU";"29133";"Indonesia";" 0771441351";"";"";"1.086294";"104.483585";"https://maps.google.com/?cid=0x0:0xcadfa1870c4b55fb";""
"building materials";"building materials";"Kepulauan Riau 29132";"Kabupaten Bintan, Kepulauan Riau";"Kabupaten Bintan, Kepulauan Riau";"KEPULAUAN RIAU";"";"Indonesia";"";"";"";"0.9970614";"104.5072722";"https://maps.google.com/?cid=0x0:0x9a3825ca2898adc7";""
"building materials";"Toko Bahan Bangunan";"Lestari makmur";"XG6F+6GG, Jl. W.R. Supratman, Toapaya Sel., Kec. Toapaya, Kabupaten Bintan, Kepulauan Riau 29132";"Jl. W.R. Supratman, Toapaya Sel., Kec. Toapaya, Kabupaten Bintan";"KEPULAUAN RIAU";"29132";"Indonesia";"";"";"";"0.9605664";"104.5238249";"https://maps.google.com/?cid=0x0:0xf55fc938a6071fb3";""
"building materials";"Toko Bahan Bangunan";"TB Jaya makmur";"Jl. Tanjung Uban, KM.18, KP. Mantrust Gesek, Toapaya Sel., Kabupaten, Kabupaten Bintan, Kepulauan Riau 29157";"KM.18, KP. Mantrust Gesek, Toapaya Sel., Kabupaten, Kabupaten Bintan";"KEPULAUAN RIAU";"29157";"Indonesia";" 081364388888";"";"";"0.9616698";"104.5391798";"https://maps.google.com/?cid=0x0:0xb6f59ae7f6d19f09";""
"building materials";"Pemasok Pipa";"Trakindo Utama. PT";"3FMM+W9M, Bintan Buyu, Kec. Tlk. Bintan, Kabupaten Bintan, Kepulauan Riau 29133";"Bintan Buyu, Kec. Tlk. Bintan, Kabupaten Bintan";"KEPULAUAN RIAU";"29133";"Indonesia";" 0771316633";"";"";"1.084835";"104.483414";"https://maps.google.com/?cid=0x0:0xd5d4e3c5d3e55992";""
"building materials";"Pasar bahan bangunan";"Rhema Bintan Jaya";"Air Raja, Kec. Tanjungpinang Tim., Kota Tanjung Pinang, Kepulauan Riau";"Kota Tanjung Pinang, Kepulauan Riau";"KEPULAUAN RIAU";"";"Indonesia";" 082382852024";"";"";"0.9247099";"104.5030953";"https://maps.google.com/?cid=0x0:0xb455aa671e6dcc5";""
"building materials";"Pemasok Bahan Bangunan";"Toko Bangunan Surya Utama";"WH48+936, Jl. Nusantara, Gn. Lengkuas, Kec. Bintan Tim., Kabupaten Bintan, Kepulauan Riau 29151";"Jl. Nusantara, Gn. Lengkuas, Kec. Bintan Tim., Kabupaten Bintan";"KEPULAUAN RIAU";"29151";"Indonesia";" 085264476259";"";"";"0.9059102";"104.5651533";"https://maps.google.com/?cid=0x0:0x3b9d93e685a0a83c";""
"building materials";"Toko bahan makanan";"Toko Istana Bata";"Kp simpangan km 16, RT.08/RW.02, Toapaya Sel., Kec. Toapaya, Kabupaten Bintan, Kepulauan Riau 29157";"RT.08/RW.02, Toapaya Sel., Kec. Toapaya, Kabupaten Bintan";"KEPULAUAN RIAU";"29157";"Indonesia";" 081298811313";"";"";"0.960788";"104.5259077";"https://maps.google.com/?cid=0x0:0x9657624be59d1531";""
"building materials";"Toko Perlengkapan Rumah";"Pt. Bintan Indo Banu";"Jalan gatot subroto km5 bawah no 1-2, Kp. Bulang, Kec. Tanjungpinang Tim., Kota Tanjung Pinang, Kepulauan Riau 29122";"Kp. Bulang, Kec. Tanjungpinang Tim., Kota Tanjung Pinang";"KEPULAUAN RIAU";"29122";"Indonesia";" 0771318989";"";"";"0.9166364";"104.4671985";"https://maps.google.com/?cid=0x0:0x291a1f8690d12a90";""
"building materials";"Toko Bahan Bangunan";"Bauhous Toko Bangunan";"3FPM+GC8, Bintan Buyu, Kec. Tlk. Bintan, Kabupaten Bintan, Kepulauan Riau 29133";"Bintan Buyu, Kec. Tlk. Bintan, Kabupaten Bintan";"KEPULAUAN RIAU";"29133";"Indonesia";" 0771441351";"";"";"1.086294";"104.483585";"https://maps.google.com/?cid=0x0:0xcadfa1870c4b55fb";""
"building materials";"Toko Bahan Bangunan";"Bintan Cahaya Perdana";"WFCX+H65 Indonusa Lestari Blok D10, Jl. W.R. Supratman, Air Raja, Kec. Tanjungpinang Tim., Kota Tanjung Pinang, Kepulauan Riau";"Kota Tanjung Pinang, Kepulauan Riau";"KEPULAUAN RIAU";"";"Indonesia";" 082173895392";"";"";"0.9213875";"104.4981103";"https://maps.google.com/?cid=0x0:0xd7a75f1f56e3542f";""
"building materials";"Toko Bahan Bangunan";"TB.NUSANTARA";"WH56+64M, Jl. Nusantara, Gn. Lengkuas, Kec. Bintan Tim., Kabupaten Bintan, Kepulauan Riau 29151";"Jl. Nusantara, Gn. Lengkuas, Kec. Bintan Tim., Kabupaten Bintan";"KEPULAUAN RIAU";"29151";"Indonesia";"";"";"";"0.9080852";"104.5602851";"https://maps.google.com/?cid=0x0:0xaaed169f22bbd1c5";""
"building materials";"Toko Bahan Bangunan";"Superjaya Toko";"Jl. Brigjen Katamso No.33, Bintan Buyu, Kec. Tlk. Bintan, Kabupaten Bintan, Kepulauan Riau 29133";"Bintan Buyu, Kec. Tlk. Bintan, Kabupaten Bintan";"KEPULAUAN RIAU";"29133";"Indonesia";" 077126704";"";"";"1.085693";"104.4839";"https://maps.google.com/?cid=0x0:0x6075afd915904429";""
"building materials";"Toko Bahan Bangunan";"Inti Bangunan";"4954+F9J, Kota Baru, Kec. Tlk. Sebong, Kabupaten Bintan, Kepulauan Riau 29151";"Kota Baru, Kec. Tlk. Sebong, Kabupaten Bintan";"KEPULAUAN RIAU";"29151";"Indonesia";" 081364927393";"";"";"1.1087202";"104.3558915";"https://maps.google.com/?cid=0x0:0xc374893aa0dc76b9";""
"building materials";"Toko Bahan Bangunan";"Toko Ragam Bangunan";"Jl. Nusantara No.Km 17, Gn. Lengkuas, Kec. Bintan Tim., Kabupaten Bintan, Kepulauan Riau 29150";"Gn. Lengkuas, Kec. Bintan Tim., Kabupaten Bintan";"KEPULAUAN RIAU";"29150";"Indonesia";"";"";"";"0.9078802";"104.5621284";"https://maps.google.com/?cid=0x0:0x11ade6a3900f585d";""
"building materials";"Toko Bahan Bangunan";"Bukit bintan jaya";"3C9J+V24, Jl. Lintas Bar., Bintan Buyu, Kec. Tlk. Bintan, Kabupaten Bintan, Kepulauan Riau 29134";"Jl. Lintas Bar., Bintan Buyu, Kec. Tlk. Bintan, Kabupaten Bintan";"KEPULAUAN RIAU";"29134";"Indonesia";" 082323228889";"";"";"1.069632";"104.4300891";"https://maps.google.com/?cid=0x0:0xa84e5e4119f5bfd5";""
"building materials";"Toko Perlengkapan Rumah";"Toko Bintan Baru";"North Toapaya km 42, North Toapaya, Toapaya, Bintan Regency, Riau Islands 29151";"North Toapaya, Toapaya, Bintan Regency";"KEPULAUAN RIAU";"29151";"Indonesia";"";"";"";"1.0850923";"104.5135822";"https://maps.google.com/?cid=0x0:0x3ca78370dd58809b";""
"building materials";"Toko Bahan Bangunan";"Wibik Jaya";"Jl. Handjoyo Putro, Batu IX, Kec. Tanjungpinang Tim., Kota Tanjung Pinang, Kepulauan Riau 29125";"Batu IX, Kec. Tanjungpinang Tim., Kota Tanjung Pinang";"KEPULAUAN RIAU";"29125";"Indonesia";"";"";"";"0.9150355";"104.5063196";"https://maps.google.com/?cid=0x0:0xbbb85f950ef0d4be";""
"building materials";"Toko Bahan Bangunan";"Toko Matrial CITRA ABADI";"Sebong Pereh, Kec. Tlk. Sebong, Kabupaten Bintan, Kepulauan Riau 29152";"Kec. Tlk. Sebong, Kabupaten Bintan";"KEPULAUAN RIAU";"29152";"Indonesia";" 082171693932";"";"";"1.1131391";"104.3487529";"https://maps.google.com/?cid=0x0:0x4793895c5646ecc0";""
"building materials";"Toko";"Bintan Sukses";"3FMR+3V3, Jl. Wan Seribeni, Bintan Buyu, Kec. Tlk. Bintan, Kabupaten Bintan, Kepulauan Riau 29133";"Jl. Wan Seribeni, Bintan Buyu, Kec. Tlk. Bintan, Kabupaten Bintan";"KEPULAUAN RIAU";"29133";"Indonesia";"";"";"";"1.0821852";"104.4920202";"https://maps.google.com/?cid=0x0:0xd5d3fffba1514a33";""
"building materials";"Toko";"Toko Sri Indah";"XF4J+4GJ, Kp. Bugis, Kec. Tj. Pinang Kota, Kota Tanjung Pinang, Kepulauan Riau 29125";"Kp. Bugis, Kec. Tj. Pinang Kota, Kota Tanjung Pinang";"KEPULAUAN RIAU";"29125";"Indonesia";" 077122248";"";"";"0.9553374";"104.4812537";"https://maps.google.com/?cid=0x0:0x7ac7db49c777ed7b";""
"building materials";"Toko Bahan Bangunan";"Toko Bangunan "SEMANGAT BARU"";"488Q+4F8, Sebong Pereh, Kec. Tlk. Sebong, Kabupaten Bintan, Kepulauan Riau 29152";"Sebong Pereh, Kec. Tlk. Sebong, Kabupaten Bintan";"KEPULAUAN RIAU";"29152";"Indonesia";" 085364997436";"";"";"1.1152983";"104.3386994";"https://maps.google.com/?cid=0x0:0xf643097b4b77a305";""
"building materials";"Toko Bahan Bangunan";"Toko Bangun Nusantara";"2GGR+8RJ, Toapaya, Kec. Toapaya, Kabupaten Bintan, Kepulauan Riau 29151";"Toapaya, Kec. Toapaya, Kabupaten Bintan";"KEPULAUAN RIAU";"29151";"Indonesia";"";"";"";"1.0258316";"104.5420156";"https://maps.google.com/?cid=0x0:0x51653964aed136b9";""
"building materials";"Toko Bahan Bangunan";"Toko Bintan Putra";"XG6C+678, Jl. W.R. Supratman, Toapaya Sel., Kec. Toapaya, Kabupaten Bintan, Kepulauan Riau 29125";"Jl. W.R. Supratman, Toapaya Sel., Kec. Toapaya, Kabupaten Bintan";"KEPULAUAN RIAU";"29125";"Indonesia";"";"";"";"0.9605308";"104.5207039";"https://maps.google.com/?cid=0x0:0x1d3fa017d2dd2658";""
"building materials";"Kontraktor";"Industri Penggergajian Kayu";"JL. Plantar 3 No.24, Bintan Buyu, Kec. Tlk. Bintan, Kabupaten Bintan, Kepulauan Riau 29133";"Bintan Buyu, Kec. Tlk. Bintan, Kabupaten Bintan";"KEPULAUAN RIAU";"29133";"Indonesia";" 077122461";"";"";"1.085522";"104.481926";"https://maps.google.com/?cid=0x0:0xc93a059105edd28d";""
"building materials";"building materials";"Kepulauan Riau 29133";"Kec. Tlk. Bintan, Kabupaten Bintan, Kepulauan Riau";"Kabupaten Bintan, Kepulauan Riau";"KEPULAUAN RIAU";"";"Indonesia";"";"";"";"1.0713675";"104.4839765";"https://maps.google.com/?cid=0x0:0x7de77a29c00a77ba";""
"building materials";"Pemasok Pipa";"Trakindo Utama. PT";"3FMM+W9M, Bintan Buyu, Kec. Tlk. Bintan, Kabupaten Bintan, Kepulauan Riau 29133";"Bintan Buyu, Kec. Tlk. Bintan, Kabupaten Bintan";"KEPULAUAN RIAU";"29133";"Indonesia";" 0771316633";"";"";"1.084835";"104.483414";"https://maps.google.com/?cid=0x0:0xd5d4e3c5d3e55992";""
"building materials";"Toko Bahan Bangunan";"Bauhous Toko Bangunan";"3FPM+GC8, Bintan Buyu, Kec. Tlk. Bintan, Kabupaten Bintan, Kepulauan Riau 29133";"Bintan Buyu, Kec. Tlk. Bintan, Kabupaten Bintan";"KEPULAUAN RIAU";"29133";"Indonesia";" 0771441351";"";"";"1.086294";"104.483585";"https://maps.google.com/?cid=0x0:0xcadfa1870c4b55fb";""
"building materials";"Toko Bahan Bangunan";"TB.BERKAH JAYA MANDIRI";"Penaga, Kec. Tlk. Bintan, Kabupaten Bintan, Kepulauan Riau 29151";"Kec. Tlk. Bintan, Kabupaten Bintan";"KEPULAUAN RIAU";"29151";"Indonesia";"";"";"";"1.0490409";"104.3843194";"https://maps.google.com/?cid=0x0:0xea18d16774697503";""
"building materials";"Toko";"Bintan Sukses";"3FMR+3V3, Jl. Wan Seribeni, Bintan Buyu, Kec. Tlk. Bintan, Kabupaten Bintan, Kepulauan Riau 29133";"Jl. Wan Seribeni, Bintan Buyu, Kec. Tlk. Bintan, Kabupaten Bintan";"KEPULAUAN RIAU";"29133";"Indonesia";"";"";"";"1.0821852";"104.4920202";"https://maps.google.com/?cid=0x0:0xd5d3fffba1514a33";""
"building materials";"Toko Bahan Bangunan";"Bukit bintan jaya";"3C9J+V24, Jl. Lintas Bar., Bintan Buyu, Kec. Tlk. Bintan, Kabupaten Bintan, Kepulauan Riau 29134";"Jl. Lintas Bar., Bintan Buyu, Kec. Tlk. Bintan, Kabupaten Bintan";"KEPULAUAN RIAU";"29134";"Indonesia";" 082323228889";"";"";"1.069632";"104.4300891";"https://maps.google.com/?cid=0x0:0xa84e5e4119f5bfd5";""
"building materials";"Kontraktor";"Industri Penggergajian Kayu";"JL. Plantar 3 No.24, Bintan Buyu, Kec. Tlk. Bintan, Kabupaten Bintan, Kepulauan Riau 29133";"Bintan Buyu, Kec. Tlk. Bintan, Kabupaten Bintan";"KEPULAUAN RIAU";"29133";"Indonesia";" 077122461";"";"";"1.085522";"104.481926";"https://maps.google.com/?cid=0x0:0xc93a059105edd28d";""
"building materials";"Toko Bahan Bangunan";"TB Jaya makmur";"Jl. Tanjung Uban, KM.18, KP. Mantrust Gesek, Toapaya Sel., Kabupaten, Kabupaten Bintan, Kepulauan Riau 29157";"KM.18, KP. Mantrust Gesek, Toapaya Sel., Kabupaten, Kabupaten Bintan";"KEPULAUAN RIAU";"29157";"Indonesia";" 081364388888";"";"";"0.9616698";"104.5391798";"https://maps.google.com/?cid=0x0:0xb6f59ae7f6d19f09";""
"building materials";"Toko Perlengkapan Rumah";"Toko Bintan Baru";"North Toapaya km 42, North Toapaya, Toapaya, Bintan Regency, Riau Islands 29151";"North Toapaya, Toapaya, Bintan Regency";"KEPULAUAN RIAU";"29151";"Indonesia";"";"";"";"1.0850923";"104.5135822";"https://maps.google.com/?cid=0x0:0x3ca78370dd58809b";""
"building materials";"Toko Bahan Bangunan";"Toko Aluminium";"Jl. Temiang No.18, Bintan Buyu, Kec. Tlk. Bintan, Kabupaten Bintan, Kepulauan Riau 29133";"Bintan Buyu, Kec. Tlk. Bintan, Kabupaten Bintan";"KEPULAUAN RIAU";"29133";"Indonesia";" 077122524";"";"";"1.084492";"104.4837";"https://maps.google.com/?cid=0x0:0xed7ab7ab5701b4fc";""
"building materials";"Toko Bahan Bangunan";"Lestari makmur";"XG6F+6GG, Jl. W.R. Supratman, Toapaya Sel., Kec. Toapaya, Kabupaten Bintan, Kepulauan Riau 29132";"Jl. W.R. Supratman, Toapaya Sel., Kec. Toapaya, Kabupaten Bintan";"KEPULAUAN RIAU";"29132";"Indonesia";"";"";"";"0.9605664";"104.5238249";"https://maps.google.com/?cid=0x0:0xf55fc938a6071fb3";""
"building materials";"Toko Bahan Bangunan";"TB.BERKAH JAYA MANDIRI";"Penaga, Kec. Tlk. Bintan, Kabupaten Bintan, Kepulauan Riau 29151";"Kec. Tlk. Bintan, Kabupaten Bintan";"KEPULAUAN RIAU";"29151";"Indonesia";"";"";"";"1.0490409";"104.3843194";"https://maps.google.com/?cid=0x0:0xea18d16774697503";""
"building materials";"building materials";"Kepulauan Riau 29134";"Kabupaten Bintan, Kepulauan Riau";"Kabupaten Bintan, Kepulauan Riau";"KEPULAUAN RIAU";"";"Indonesia";"";"";"";"1.0578041";"104.4082908";"https://maps.google.com/?cid=0x0:0x2eb4c2da71d21427";""
"building materials";"Toko Bahan Bangunan";"Inti Bangunan";"4954+F9J, Kota Baru, Kec. Tlk. Sebong, Kabupaten Bintan, Kepulauan Riau 29151";"Kota Baru, Kec. Tlk. Sebong, Kabupaten Bintan";"KEPULAUAN RIAU";"29151";"Indonesia";" 081364927393";"";"";"1.1087202";"104.3558915";"https://maps.google.com/?cid=0x0:0xc374893aa0dc76b9";""
"building materials";"Toko Bahan Bangunan";"Bukit bintan jaya";"3C9J+V24, Jl. Lintas Bar., Bintan Buyu, Kec. Tlk. Bintan, Kabupaten Bintan, Kepulauan Riau 29134";"Jl. Lintas Bar., Bintan Buyu, Kec. Tlk. Bintan, Kabupaten Bintan";"KEPULAUAN RIAU";"29134";"Indonesia";" 082323228889";"";"";"1.069632";"104.4300891";"https://maps.google.com/?cid=0x0:0xa84e5e4119f5bfd5";""
"building materials";"Toko Bahan Bangunan";"Toko Bangunan "SEMANGAT BARU"";"488Q+4F8, Sebong Pereh, Kec. Tlk. Sebong, Kabupaten Bintan, Kepulauan Riau 29152";"Sebong Pereh, Kec. Tlk. Sebong, Kabupaten Bintan";"KEPULAUAN RIAU";"29152";"Indonesia";" 085364997436";"";"";"1.1152983";"104.3386994";"https://maps.google.com/?cid=0x0:0xf643097b4b77a305";""
"building materials";"Toko Bahan Bangunan";"Toko Matrial CITRA ABADI";"Sebong Pereh, Kec. Tlk. Sebong, Kabupaten Bintan, Kepulauan Riau 29152";"Kec. Tlk. Sebong, Kabupaten Bintan";"KEPULAUAN RIAU";"29152";"Indonesia";" 082171693932";"";"";"1.1131391";"104.3487529";"https://maps.google.com/?cid=0x0:0x4793895c5646ecc0";""
"building materials";"Toko Bahan Bangunan";"Toko Bintan Jaya";"48GC+MXQ, Sebong Lagoi, Kec. Tlk. Sebong, Kabupaten Bintan, Kepulauan Riau";"Kabupaten Bintan, Kepulauan Riau";"KEPULAUAN RIAU";"";"Indonesia";"";"";"";"1.1267013";"104.3224718";"https://maps.google.com/?cid=0x0:0xbd17158f2ee4cf8c";""
"building materials";"Toko Bahan Bangunan";"Bauhous Toko Bangunan";"3FPM+GC8, Bintan Buyu, Kec. Tlk. Bintan, Kabupaten Bintan, Kepulauan Riau 29133";"Bintan Buyu, Kec. Tlk. Bintan, Kabupaten Bintan";"KEPULAUAN RIAU";"29133";"Indonesia";" 0771441351";"";"";"1.086294";"104.483585";"https://maps.google.com/?cid=0x0:0xcadfa1870c4b55fb";""
"building materials";"Toko Bahan Bangunan";"Superjaya Toko";"Jl. Brigjen Katamso No.33, Bintan Buyu, Kec. Tlk. Bintan, Kabupaten Bintan, Kepulauan Riau 29133";"Bintan Buyu, Kec. Tlk. Bintan, Kabupaten Bintan";"KEPULAUAN RIAU";"29133";"Indonesia";" 077126704";"";"";"1.085693";"104.4839";"https://maps.google.com/?cid=0x0:0x6075afd915904429";""
"building materials";"Toko";"Bintan Sukses";"3FMR+3V3, Jl. Wan Seribeni, Bintan Buyu, Kec. Tlk. Bintan, Kabupaten Bintan, Kepulauan Riau 29133";"Jl. Wan Seribeni, Bintan Buyu, Kec. Tlk. Bintan, Kabupaten Bintan";"KEPULAUAN RIAU";"29133";"Indonesia";"";"";"";"1.0821852";"104.4920202";"https://maps.google.com/?cid=0x0:0xd5d3fffba1514a33";""
"building materials";"Kontraktor";"Industri Penggergajian Kayu";"JL. Plantar 3 No.24, Bintan Buyu, Kec. Tlk. Bintan, Kabupaten Bintan, Kepulauan Riau 29133";"Bintan Buyu, Kec. Tlk. Bintan, Kabupaten Bintan";"KEPULAUAN RIAU";"29133";"Indonesia";" 077122461";"";"";"1.085522";"104.481926";"https://maps.google.com/?cid=0x0:0xc93a059105edd28d";""
"building materials";"Toko Perlengkapan Rumah";"Toko Bintan Baru";"North Toapaya km 42, North Toapaya, Toapaya, Bintan Regency, Riau Islands 29151";"North Toapaya, Toapaya, Bintan Regency";"KEPULAUAN RIAU";"29151";"Indonesia";"";"";"";"1.0850923";"104.5135822";"https://maps.google.com/?cid=0x0:0x3ca78370dd58809b";""
"building materials";"Toko Bahan Bangunan";"Toko Aluminium";"Jl. Temiang No.18, Bintan Buyu, Kec. Tlk. Bintan, Kabupaten Bintan, Kepulauan Riau 29133";"Bintan Buyu, Kec. Tlk. Bintan, Kabupaten Bintan";"KEPULAUAN RIAU";"29133";"Indonesia";" 077122524";"";"";"1.084492";"104.4837";"https://maps.google.com/?cid=0x0:0xed7ab7ab5701b4fc";""
"building materials";"building materials";"QeQFaKCWO8Tc5OUP5dWXKQ";"";"";"KEPULAUAN RIAU";"";"Indonesia";" 081276527079";"";"";"-2.44565";"117.8888";"https://maps.google.com/?cid=0x0:0x1ef3e325e500d696";""
"building materials";"building materials";"Kepulauan Riau 29135";"Kabupaten Bintan, Kepulauan Riau";"Kabupaten Bintan, Kepulauan Riau";"KEPULAUAN RIAU";"";"Indonesia";"";"";"";"1.0115706";"104.373372";"https://maps.google.com/?cid=0x0:0x907c8a9451befbdc";""
"building materials";"Toko Bahan Bangunan";"Inti Bangunan";"4954+F9J, Kota Baru, Kec. Tlk. Sebong, Kabupaten Bintan, Kepulauan Riau 29151";"Kota Baru, Kec. Tlk. Sebong, Kabupaten Bintan";"KEPULAUAN RIAU";"29151";"Indonesia";" 081364927393";"";"";"1.1087202";"104.3558915";"https://maps.google.com/?cid=0x0:0xc374893aa0dc76b9";""
"building materials";"Toko Bahan Bangunan";"Toko Matrial CITRA ABADI";"Sebong Pereh, Kec. Tlk. Sebong, Kabupaten Bintan, Kepulauan Riau 29152";"Kec. Tlk. Sebong, Kabupaten Bintan";"KEPULAUAN RIAU";"29152";"Indonesia";" 082171693932";"";"";"1.1131391";"104.3487529";"https://maps.google.com/?cid=0x0:0x4793895c5646ecc0";""
"building materials";"Toko Bahan Bangunan";"Toko Bangunan "SEMANGAT BARU"";"488Q+4F8, Sebong Pereh, Kec. Tlk. Sebong, Kabupaten Bintan, Kepulauan Riau 29152";"Sebong Pereh, Kec. Tlk. Sebong, Kabupaten Bintan";"KEPULAUAN RIAU";"29152";"Indonesia";" 085364997436";"";"";"1.1152983";"104.3386994";"https://maps.google.com/?cid=0x0:0xf643097b4b77a305";""
"building materials";"Toko Bahan Bangunan";"Semen Padang";"Jl. Bhakti Praja, Tj. Uban Sel., Kec. Bintan Utara, Kabupaten Bintan, Kepulauan Riau 29152";"Tj. Uban Sel., Kec. Bintan Utara, Kabupaten Bintan";"KEPULAUAN RIAU";"29152";"Indonesia";"";"";"";"1.0625607";"104.2289737";"https://maps.google.com/?cid=0x0:0x2b255bfb5096372f";""
"building materials";"Toko Bahan Bangunan";"Toko Bintan Jaya";"48GC+MXQ, Sebong Lagoi, Kec. Tlk. Sebong, Kabupaten Bintan, Kepulauan Riau";"Kabupaten Bintan, Kepulauan Riau";"KEPULAUAN RIAU";"";"Indonesia";"";"";"";"1.1267013";"104.3224718";"https://maps.google.com/?cid=0x0:0xbd17158f2ee4cf8c";""
"building materials";"Sekolah Menengah Atas";"SMAN 1 Teluk Sebong";"4C7P+XG6, Tlk, Sri Bintan, Kec. Tlk. Sebong, Kabupaten Bintan, Kepulauan Riau 29151";"Tlk, Sri Bintan, Kec. Tlk. Sebong, Kabupaten Bintan";"KEPULAUAN RIAU";"29151";"Indonesia";"";"";"";"1.1149023";"104.4362755";"https://maps.google.com/?cid=0x0:0xcdd51c6eb58d1382";""
"building materials";"Sekolah menengah";"SMA Negeri 1 Teluk Bintan";"Tembeling Tj., Kec. Tlk. Bintan, Kabupaten Bintan, Kepulauan Riau 29132";"Kec. Tlk. Bintan, Kabupaten Bintan";"KEPULAUAN RIAU";"29132";"Indonesia";" 08117770421";"";"";"1.0107501";"104.4702541";"https://maps.google.com/?cid=0x0:0x7fb7dd08b0af2433";""
"building materials";"building materials";"Kepulauan Riau 29136";"Pangkil, Kec. Tlk. Bintan, Kabupaten Bintan, Kepulauan Riau";"Kabupaten Bintan, Kepulauan Riau";"KEPULAUAN RIAU";"";"Indonesia";"";"";"";"0.8184532";"104.3690078";"https://maps.google.com/?cid=0x0:0x67789e6c3235a79b";""
"building materials";"Toko Bahan Bangunan";"Inti Bangunan";"4954+F9J, Kota Baru, Kec. Tlk. Sebong, Kabupaten Bintan, Kepulauan Riau 29151";"Kota Baru, Kec. Tlk. Sebong, Kabupaten Bintan";"KEPULAUAN RIAU";"29151";"Indonesia";" 081364927393";"";"";"1.1087202";"104.3558915";"https://maps.google.com/?cid=0x0:0xc374893aa0dc76b9";""
"building materials";"Toko Bahan Bangunan";"Toko Matrial CITRA ABADI";"Sebong Pereh, Kec. Tlk. Sebong, Kabupaten Bintan, Kepulauan Riau 29152";"Kec. Tlk. Sebong, Kabupaten Bintan";"KEPULAUAN RIAU";"29152";"Indonesia";" 082171693932";"";"";"1.1131391";"104.3487529";"https://maps.google.com/?cid=0x0:0x4793895c5646ecc0";""
"building materials";"Toko Bahan Bangunan";"Semen Padang";"Jl. Bhakti Praja, Tj. Uban Sel., Kec. Bintan Utara, Kabupaten Bintan, Kepulauan Riau 29152";"Tj. Uban Sel., Kec. Bintan Utara, Kabupaten Bintan";"KEPULAUAN RIAU";"29152";"Indonesia";"";"";"";"1.0625607";"104.2289737";"https://maps.google.com/?cid=0x0:0x2b255bfb5096372f";""
"building materials";"Produsen Elektronik";"BINTAN INDUSTRIAL ESTATE";"2755+G22, jalan tanjung Unnamed Road, Tlk. Lobam, Kec. Seri Kuala Lobam, Kabupaten Bintan, Kepulauan Riau 29152";"jalan tanjung Unnamed Road, Tlk. Lobam, Kec. Seri Kuala Lobam, Kabupaten Bintan";"KEPULAUAN RIAU";"29152";"Indonesia";" 0770696833";"";"";"1.0034204";"104.2560569";"https://maps.google.com/?cid=0x0:0x1255a0678c427a50";""
"building materials";"building materials";"s-QFaNf-KbGIxc8P1_qdwAc"-,null,null,1,null,"https://www.google.com/maps/preview/place/Showroom/@-2.44565,117.8888,3986a,13.1y/datau003d!4m2!3m1!1s0x6c5d6d127e58ffe1:0x85ffffdf25acfa0b";"";"";"KEPULAUAN RIAU";"";"Indonesia";" 081266779788";"";"";"-2.44565";"117.8888";"https://maps.google.com/?cid=0x0:0x85ffffdf25acfa0b";""
"building materials";"Toko Perlengkapan Rumah";"Pt. Bintan Indo Banu";"Jalan gatot subroto km5 bawah no 1-2, Kp. Bulang, Kec. Tanjungpinang Tim., Kota Tanjung Pinang, Kepulauan Riau 29122";"Kp. Bulang, Kec. Tanjungpinang Tim., Kota Tanjung Pinang";"KEPULAUAN RIAU";"29122";"Indonesia";" 0771318989";"";"";"0.9166364";"104.4671985";"https://maps.google.com/?cid=0x0:0x291a1f8690d12a90";""
"building materials";"Toko Bahan Bangunan";"Toko Bangunan "SEMANGAT BARU"";"488Q+4F8, Sebong Pereh, Kec. Tlk. Sebong, Kabupaten Bintan, Kepulauan Riau 29152";"Sebong Pereh, Kec. Tlk. Sebong, Kabupaten Bintan";"KEPULAUAN RIAU";"29152";"Indonesia";" 085364997436";"";"";"1.1152983";"104.3386994";"https://maps.google.com/?cid=0x0:0xf643097b4b77a305";""
"building materials";"Toko Bahan Bangunan";"Toko Bintan Jaya";"48GC+MXQ, Sebong Lagoi, Kec. Tlk. Sebong, Kabupaten Bintan, Kepulauan Riau";"Kabupaten Bintan, Kepulauan Riau";"KEPULAUAN RIAU";"";"Indonesia";"";"";"";"1.1267013";"104.3224718";"https://maps.google.com/?cid=0x0:0xbd17158f2ee4cf8c";""
"building materials";"Kantor Perusahaan";"Super Mega Perkasa";"Jl. Brigjen Katamso No.33/34, Tj. Unggat, Kec. Bukit Bestari, Kota Tanjung Pinang, Kepulauan Riau 29111";"Tj. Unggat, Kec. Bukit Bestari, Kota Tanjung Pinang";"KEPULAUAN RIAU";"29111";"Indonesia";" 077126704";"";"";"0.922243";"104.453825";"https://maps.google.com/?cid=0x0:0xe57c3c8835109a7f";""
"building materials";"Toko Bahan Bangunan";"BJT (BANGUNAN JAYA TRUSS)";"Jl. Arif Rahman Hakim No.41, Sei Jang, Kec. Bukit Bestari, Kota Tanjung Pinang, Kepulauan Riau 29113";"Sei Jang, Kec. Bukit Bestari, Kota Tanjung Pinang";"KEPULAUAN RIAU";"29113";"Indonesia";"";"";"";"0.9004112";"104.4659272";"https://maps.google.com/?cid=0x0:0xe66a86b5e7b7af66";""
"building materials";"Toko Perlengkapan Rumah";"Sentral Bangunan";"WC9X+9FH, Jl. DR. Sutomo, Bukit Cermin, Kec. Tanjungpinang Bar., Kota Tanjung Pinang, Kepulauan Riau";"Kota Tanjung Pinang, Kepulauan Riau";"KEPULAUAN RIAU";"";"Indonesia";"";"";"";"0.9184331";"104.4487379";"https://maps.google.com/?cid=0x0:0x130b2d34965fd526";""
"building materials";"Toko Bahan Bangunan";"Kembar Jaya Group Bangunan Winder";"No. 12, Jl. Wiratno, Kp. Baru, Kec. Tanjungpinang Bar., Kota Tanjung Pinang, Kepulauan Riau 29112";"Jl. Wiratno, Kp. Baru, Kec. Tanjungpinang Bar., Kota Tanjung Pinang";"KEPULAUAN RIAU";"29112";"Indonesia";"";"";"";"0.9069227";"104.4523041";"https://maps.google.com/?cid=0x0:0x936f4a3ef14779ce";""
"building materials";"Toko Bahan Bangunan";"Toko henly Jaya";"WCMW+P8H, South China Sea, Tanjung Pinang City, Riau Islands 29115";"South China Sea, Tanjung Pinang City";"KEPULAUAN RIAU";"29115";"Indonesia";" 087869881991";"";"";"0.9343125";"104.4458594";"https://maps.google.com/?cid=0x0:0xf6e11110a711dfa";""
"building materials";"Toko Bahan Bangunan";"Toko Harapan Hembas";"Jl. Usman Harun No.15 002/015, Kota Tanjung Pinang, Kepulauan Riau 29661";"Kota Tanjung Pinang";"KEPULAUAN RIAU";"29661";"Indonesia";" 0811779735";"";"";"0.9153481";"104.4385408";"https://maps.google.com/?cid=0x0:0xe8f05f7728cc9ba3";""
"building materials";"Toko Bahan Bangunan";"Toko Tek Steel";"Jl. MT Haryono No.63, Tj. Unggat, Kec. Bukit Bestari, Kota Tanjung Pinang, Kepulauan Riau 29122";"Tj. Unggat, Kec. Bukit Bestari, Kota Tanjung Pinang";"KEPULAUAN RIAU";"29122";"Indonesia";" 081277282569";"";"";"0.9139087";"104.4643062";"https://maps.google.com/?cid=0x0:0x428ce31bc714ee47";""
"building materials";"";"TOKO BINTANG JAYA";"WFG8+R72, Tj. Unggat, Kec. Bukit Bestari, Kota Tanjung Pinang, Kepulauan Riau";"Kota Tanjung Pinang, Kepulauan Riau";"KEPULAUAN RIAU";"";"Indonesia";"";"";"";"0.9270013";"104.4656399";"https://maps.google.com/?cid=0x0:0x58b02b31f20bd907";""
"building materials";"Toko Bahan Bangunan";"Toko Utama Tanjungpinang";"Jl. Mawar No.25, Kemboja, Kec. Tanjungpinang Bar., Kota Tanjung Pinang, Kepulauan Riau 29112";"Kemboja, Kec. Tanjungpinang Bar., Kota Tanjung Pinang";"KEPULAUAN RIAU";"29112";"Indonesia";" 085376106186";"";"";"0.9291744";"104.4444323";"https://maps.google.com/?cid=0x0:0x675f445e31ca1f91";""
"building materials";"Toko Bahan Bangunan";"Rifa Utama. CV";"Jl. Pemuda No.18, RT.002/RW.010, Tanjungpinang Bar., Kec. Tanjungpinang Bar., Kota Tanjung Pinang, Kepulauan Riau";"Kota Tanjung Pinang, Kepulauan Riau";"KEPULAUAN RIAU";"";"Indonesia";" 081277558069";"";"";"0.9102984";"104.4411594";"https://maps.google.com/?cid=0x0:0x9a0e180f8a0e85db";""
"building materials";"Jendela Aluminium";"Toko Bintan Kaca";"WF8C+C8F, Jl. Gatot Subroto, Kp. Bulang, Kec. Tanjungpinang Tim., Kota Tanjung Pinang, Kepulauan Riau 29122";"Jl. Gatot Subroto, Kp. Bulang, Kec. Tanjungpinang Tim., Kota Tanjung Pinang";"KEPULAUAN RIAU";"29122";"Indonesia";"";"";"";"0.9160713";"104.4707987";"https://maps.google.com/?cid=0x0:0x7a92b1b4dacb1f65";""
"building materials";"Pusat Perbelanjaan";"TB. GUNUNG AWAN";"WC7R+5QG, Jl. Bhayangkara, Tanjungpinang Bar., Kec. Tanjungpinang Bar., Kota Tanjung Pinang, Kepulauan Riau";"Kota Tanjung Pinang, Kepulauan Riau";"KEPULAUAN RIAU";"";"Indonesia";"";"";"";"0.9129303";"104.4419553";"https://maps.google.com/?cid=0x0:0xde61847502afb141";""
"building materials";"Toko Bahan Bangunan";"Indo Bangunan";"Jl. D.I. Panjaitan No.23, Melayu Kota Piring, Kec. Tanjungpinang Tim., Kota Tanjung Pinang, Kepulauan Riau 29123";"Melayu Kota Piring, Kec. Tanjungpinang Tim., Kota Tanjung Pinang";"KEPULAUAN RIAU";"29123";"Indonesia";" 082268601188";"";"";"0.9171415";"104.4869331";"https://maps.google.com/?cid=0x0:0xcacf56ccd84ba62d";""
"building materials";"Toko Bahan Bangunan";"Lestari makmur";"XG6F+6GG, Jl. W.R. Supratman, Toapaya Sel., Kec. Toapaya, Kabupaten Bintan, Kepulauan Riau 29132";"Jl. W.R. Supratman, Toapaya Sel., Kec. Toapaya, Kabupaten Bintan";"KEPULAUAN RIAU";"29132";"Indonesia";"";"";"";"0.9605664";"104.5238249";"https://maps.google.com/?cid=0x0:0xf55fc938a6071fb3";""
"building materials";"building materials";"Kepulauan Riau 29151";"Kabupaten Bintan, Kepulauan Riau";"Kabupaten Bintan, Kepulauan Riau";"KEPULAUAN RIAU";"";"Indonesia";"";"";"";"0.9689163";"104.5888356";"https://maps.google.com/?cid=0x0:0x61d6e520af4a7f61";""
"building materials";"Toko bahan makanan";"Toko Istana Bata";"Kp simpangan km 16, RT.08/RW.02, Toapaya Sel., Kec. Toapaya, Kabupaten Bintan, Kepulauan Riau 29157";"RT.08/RW.02, Toapaya Sel., Kec. Toapaya, Kabupaten Bintan";"KEPULAUAN RIAU";"29157";"Indonesia";" 081298811313";"";"";"0.960788";"104.5259077";"https://maps.google.com/?cid=0x0:0x9657624be59d1531";""
"building materials";"Toko Bahan Bangunan";"Toko Bangun Nusantara";"2GGR+8RJ, Toapaya, Kec. Toapaya, Kabupaten Bintan, Kepulauan Riau 29151";"Toapaya, Kec. Toapaya, Kabupaten Bintan";"KEPULAUAN RIAU";"29151";"Indonesia";"";"";"";"1.0258316";"104.5420156";"https://maps.google.com/?cid=0x0:0x51653964aed136b9";""
"building materials";"Toko Bahan Bangunan";"Inti Bangunan";"4954+F9J, Kota Baru, Kec. Tlk. Sebong, Kabupaten Bintan, Kepulauan Riau 29151";"Kota Baru, Kec. Tlk. Sebong, Kabupaten Bintan";"KEPULAUAN RIAU";"29151";"Indonesia";" 081364927393";"";"";"1.1087202";"104.3558915";"https://maps.google.com/?cid=0x0:0xc374893aa0dc76b9";""
"building materials";"Toko Bahan Bangunan";"Toko Matrial CITRA ABADI";"Sebong Pereh, Kec. Tlk. Sebong, Kabupaten Bintan, Kepulauan Riau 29152";"Kec. Tlk. Sebong, Kabupaten Bintan";"KEPULAUAN RIAU";"29152";"Indonesia";" 082171693932";"";"";"1.1131391";"104.3487529";"https://maps.google.com/?cid=0x0:0x4793895c5646ecc0";""
"building materials";"Jasa Konstruksi dan Bangunan";"BINTAN GLOSS";"XG6P+XV, Toapaya Sel., Kec. Toapaya, Kabupaten Bintan, Kepulauan Riau";"Kabupaten Bintan, Kepulauan Riau";"KEPULAUAN RIAU";"";"Indonesia";"";"";"";"0.9623849";"104.5371537";"https://maps.google.com/?cid=0x0:0xbad617316720ba3e";""
"building materials";"Toko Bahan Bangunan";"Bauhous Toko Bangunan";"3FPM+GC8, Bintan Buyu, Kec. Tlk. Bintan, Kabupaten Bintan, Kepulauan Riau 29133";"Bintan Buyu, Kec. Tlk. Bintan, Kabupaten Bintan";"KEPULAUAN RIAU";"29133";"Indonesia";" 0771441351";"";"";"1.086294";"104.483585";"https://maps.google.com/?cid=0x0:0xcadfa1870c4b55fb";""
"building materials";"Toko Bahan Bangunan";"Toko Bintan Putra";"XG6C+678, Jl. W.R. Supratman, Toapaya Sel., Kec. Toapaya, Kabupaten Bintan, Kepulauan Riau 29125";"Jl. W.R. Supratman, Toapaya Sel., Kec. Toapaya, Kabupaten Bintan";"KEPULAUAN RIAU";"29125";"Indonesia";"";"";"";"0.9605308";"104.5207039";"https://maps.google.com/?cid=0x0:0x1d3fa017d2dd2658";""
"building materials";"Pemasok Aluminium";"TOKO BINTAN KACA";"XG6P+XV, Toapaya Sel., Kec. Toapaya, Kabupaten Bintan, Kepulauan Riau";"Kabupaten Bintan, Kepulauan Riau";"KEPULAUAN RIAU";"";"Indonesia";"";"";"";"0.9623849";"104.5371538";"https://maps.google.com/?cid=0x0:0x97472e6b1272f3a8";""
"building materials";"Toko Bahan Bangunan";"TB Jaya makmur";"Jl. Tanjung Uban, KM.18, KP. Mantrust Gesek, Toapaya Sel., Kabupaten, Kabupaten Bintan, Kepulauan Riau 29157";"KM.18, KP. Mantrust Gesek, Toapaya Sel., Kabupaten, Kabupaten Bintan";"KEPULAUAN RIAU";"29157";"Indonesia";" 081364388888";"";"";"0.9616698";"104.5391798";"https://maps.google.com/?cid=0x0:0xb6f59ae7f6d19f09";""
"building materials";"Pusat Perbelanjaan";"Batu Bata Abs";"Jl. Karya Km.9, Kampung Lembah Rantau, Toapaya Utara, Kec. Toapaya, Kota Tanjung Pinang, Kepulauan Riau 29151";"Kampung Lembah Rantau, Toapaya Utara, Kec. Toapaya, Kota Tanjung Pinang";"KEPULAUAN RIAU";"29151";"Indonesia";" 081270065227";"";"";"1.0930733";"104.5239258";"https://maps.google.com/?cid=0x0:0xbadffb9e739f9e70";""
"building materials";"Toko Fotokopi";"Graha Baca";"Jl. Lintas Bar., Toapaya Asri, Kec. Toapaya, Kabupaten Bintan, Kepulauan Riau 29157";"Toapaya Asri, Kec. Toapaya, Kabupaten Bintan";"KEPULAUAN RIAU";"29157";"Indonesia";" 083183586296";"";"";"0.992428";"104.5204523";"https://maps.google.com/?cid=0x0:0x7e1687232407d005";""
"building materials";"Toko Perlengkapan Rumah";"MR. DIY";"Jl. Tanjung Uban No.KM 16, Toapaya Sel., Kec. Toapaya, Kabupaten Bintan, Kepulauan Riau 29157";"Toapaya Sel., Kec. Toapaya, Kabupaten Bintan";"KEPULAUAN RIAU";"29157";"Indonesia";"";"";"";"0.960556";"104.5235976";"https://maps.google.com/?cid=0x0:0x8e5e0e03ff9c89ce";""
"building materials";"Jasa Konstruksi dan Bangunan";"Pondok pak Asman";"XHMR+8PH, Unnamed Road, Toapaya Asri, Kec. Toapaya, Kabupaten Bintan, Kepulauan Riau 29151";"Unnamed Road, Toapaya Asri, Kec. Toapaya, Kabupaten Bintan";"KEPULAUAN RIAU";"29151";"Indonesia";"";"";"";"0.983322";"104.5918658";"https://maps.google.com/?cid=0x0:0x403351987830d4c3";""
"building materials";"Brunch";"Warung acai";"simpang empat, Toapaya Asri, Kec. Toapaya, Kabupaten Bintan, Kepulauan Riau 29132";"Toapaya Asri, Kec. Toapaya, Kabupaten Bintan";"KEPULAUAN RIAU";"29132";"Indonesia";"";"";"";"0.9912521";"104.5204453";"https://maps.google.com/?cid=0x0:0x6293847620a2b54a";""
"building materials";"Perusahaan automasi";"PT. Pepperl And Fuchs Bintan";"3G98+789, Toapaya Utara, Kec. Toapaya, Kabupaten Bintan, Kepulauan Riau 29151";"Toapaya Utara, Kec. Toapaya, Kabupaten Bintan";"KEPULAUAN RIAU";"29151";"Indonesia";" 0770696676";"";"";"1.068165";"104.515854";"https://maps.google.com/?cid=0x0:0x620a014fd8822a91";""
"building materials";"Pemasok Bahan Bangunan";"Toko Bangunan Surya Utama";"WH48+936, Jl. Nusantara, Gn. Lengkuas, Kec. Bintan Tim., Kabupaten Bintan, Kepulauan Riau 29151";"Jl. Nusantara, Gn. Lengkuas, Kec. Bintan Tim., Kabupaten Bintan";"KEPULAUAN RIAU";"29151";"Indonesia";" 085264476259";"";"";"0.9059102";"104.5651533";"https://maps.google.com/?cid=0x0:0x3b9d93e685a0a83c";""
"toko bangunan";"toko bangunan";"Kec. Bintan Pesisir";"Kabupaten Bintan, Kepulauan Riau";"Kabupaten Bintan, Kepulauan Riau";"KEPULAUAN RIAU";"";"Indonesia";"";"";"";"0.8600336";"104.6523676";"https://maps.google.com/?cid=0x0:0x643833ba99f2235f";""
"toko bangunan";"Pemasok Bahan Bangunan";"Toko Jaya Abadi";"RJX5+Q8X, Jl. Hang Jebat, Kijang Kota, Kec. Bintan Tim., Kabupaten Bintan, Kepulauan Riau 29151";"Jl. Hang Jebat, Kijang Kota, Kec. Bintan Tim., Kabupaten Bintan";"KEPULAUAN RIAU";"29151";"Indonesia";" 0771463588";"";"";"0.8494855";"104.6083553";"https://maps.google.com/?cid=0x0:0xc8985da7ac95e5e3";""
"toko bangunan";"Toko Bahan Bangunan";"Toko Material Bangunan Isabella";"Jl. Semen Tokojo, Kijang Kota, simpang keke, Kabupaten Bintan, Kepulauan Riau 29151";"Kijang Kota, simpang keke, Kabupaten Bintan";"KEPULAUAN RIAU";"29151";"Indonesia";" 082173822022";"";"";"0.8330308";"104.6045985";"https://maps.google.com/?cid=0x0:0x657580ccbf644bcc";""
"toko bangunan";"Toko Bahan Bangunan";"Toko Sentral Bangunan";"VHJJ+HQJ, Jl. Nusantara, Sungai Lekop, Kec. Bintan Tim., Kabupaten Bintan, Kepulauan Riau 29151";"Jl. Nusantara, Sungai Lekop, Kec. Bintan Tim., Kabupaten Bintan";"KEPULAUAN RIAU";"29151";"Indonesia";"";"";"";"0.8814671";"104.5818999";"https://maps.google.com/?cid=0x0:0x371848864f065ae7";""
"toko bangunan";"Pemasok Bahan Bangunan";"Toko Bangunan Surya Utama";"WH48+936, Jl. Nusantara, Gn. Lengkuas, Kec. Bintan Tim., Kabupaten Bintan, Kepulauan Riau 29151";"Jl. Nusantara, Gn. Lengkuas, Kec. Bintan Tim., Kabupaten Bintan";"KEPULAUAN RIAU";"29151";"Indonesia";" 085264476259";"";"";"0.9059102";"104.5651533";"https://maps.google.com/?cid=0x0:0x3b9d93e685a0a83c";""
"toko bangunan";"Toko Elektronik";"Toko SENTOSA";"Jl. Ps. Berdikari, Kijang Kota, Kec. Bintan Tim., KIJANG, Kepulauan Riau 29151";"Kijang Kota, Kec. Bintan Tim., KIJANG";"KEPULAUAN RIAU";"29151";"Indonesia";" 077161617";"";"";"0.8419785";"104.603393";"https://maps.google.com/?cid=0x0:0xc0522c352d75d119";""
"toko bangunan";"Toko Bahan Bangunan";"SUPER BANGUNAN";"VJ44+R74, Jl. Sei Datuk, Kijang Kota, Kec. Bintan Tim., Kabupaten Bintan, Kepulauan Riau 29151";"Jl. Sei Datuk, Kijang Kota, Kec. Bintan Tim., Kabupaten Bintan";"KEPULAUAN RIAU";"29151";"Indonesia";"";"";"";"0.8570087";"104.6057095";"https://maps.google.com/?cid=0x0:0x2ce80be91757ee3a";""
"toko bangunan";"Toko Perlengkapan Rumah";"TOKO BANGUNAN LENGKUAS JAYA";"Jl. Nusantara No.3, Gn. Lengkuas, Kec. Bintan Tim., Kabupaten Bintan, Kepulauan Riau 29151";"Gn. Lengkuas, Kec. Bintan Tim., Kabupaten Bintan";"KEPULAUAN RIAU";"29151";"Indonesia";" 085356280066";"";"";"0.9059972";"104.5655366";"https://maps.google.com/?cid=0x0:0x30d7327484a0394b";""
"toko bangunan";"Toko Bahan Bangunan";"Toko Bangunan Bandung Jaya";"Jl. Trikora No.33, Kijang Kota, Kec. Bintan Tim., Kabupaten Bintan, Kepulauan Riau 29151";"Kijang Kota, Kec. Bintan Tim., Kabupaten Bintan";"KEPULAUAN RIAU";"29151";"Indonesia";"";"";"";"0.849283";"104.6074897";"https://maps.google.com/?cid=0x0:0x5900766a32d792d5";""
"toko bangunan";"Toko Perlengkapan Rumah";"Toko Bangunan BISON";"WH38+7XQ, Jl. Nusantara, Sungai Lekop, Kec. Bintan Tim., Kabupaten Bintan, Kepulauan Riau 29151";"Jl. Nusantara, Sungai Lekop, Kec. Bintan Tim., Kabupaten Bintan";"KEPULAUAN RIAU";"29151";"Indonesia";"";"";"";"0.9032122";"104.5674721";"https://maps.google.com/?cid=0x0:0x53ff2b607e376579";""
"toko bangunan";"Toko Bahan Bangunan";"Toko Jati Luhur";"RJQ2+F9W, Kijang Kota, Kec. Bintan Tim., Kabupaten Bintan, Kepulauan Riau 29151";"Kijang Kota, Kec. Bintan Tim., Kabupaten Bintan";"KEPULAUAN RIAU";"29151";"Indonesia";"";"";"";"0.8387456";"104.6009517";"https://maps.google.com/?cid=0x0:0x57e0a8f450fb18eb";""
"toko bangunan";"Toko Bahan Bangunan";"Inti Bangunan";"4954+F9J, Kota Baru, Kec. Tlk. Sebong, Kabupaten Bintan, Kepulauan Riau 29151";"Kota Baru, Kec. Tlk. Sebong, Kabupaten Bintan";"KEPULAUAN RIAU";"29151";"Indonesia";" 081364927393";"";"";"1.1087202";"104.3558915";"https://maps.google.com/?cid=0x0:0xc374893aa0dc76b9";""
"toko bangunan";"Toko Bahan Bangunan";"Bintan pratama jaya";"Jl. Sei Datuk, Kijang Kota, Kec. Bintan Tim., Kabupaten Bintan, Kepulauan Riau 29151";"Kijang Kota, Kec. Bintan Tim., Kabupaten Bintan";"KEPULAUAN RIAU";"29151";"Indonesia";"";"";"";"0.8565855";"104.6059235";"https://maps.google.com/?cid=0x0:0x153d6c39e5c38886";""
"toko bangunan";"Toko Bahan Bangunan";"Toko Ragam Bangunan";"Jl. Nusantara No.Km 17, Gn. Lengkuas, Kec. Bintan Tim., Kabupaten Bintan, Kepulauan Riau 29150";"Gn. Lengkuas, Kec. Bintan Tim., Kabupaten Bintan";"KEPULAUAN RIAU";"29150";"Indonesia";"";"";"";"0.9078802";"104.5621284";"https://maps.google.com/?cid=0x0:0x11ade6a3900f585d";""
"toko bangunan";"Toko Bahan Bangunan";"Duta Keramik";"VHX9+QXJ, Jl. Nusantara, Gn. Lengkuas, Kec. Bintan Tim., Kabupaten Bintan, Kepulauan Riau 29151";"Jl. Nusantara, Gn. Lengkuas, Kec. Bintan Tim., Kabupaten Bintan";"KEPULAUAN RIAU";"29151";"Indonesia";"";"";"";"0.8994512";"104.569883";"https://maps.google.com/?cid=0x0:0x795d3ac43f6a60f4";""
"toko bangunan";"Toko Bahan Bangunan";"Toko Bangunan "SEMANGAT BARU"";"488Q+4F8, Sebong Pereh, Kec. Tlk. Sebong, Kabupaten Bintan, Kepulauan Riau 29152";"Sebong Pereh, Kec. Tlk. Sebong, Kabupaten Bintan";"KEPULAUAN RIAU";"29152";"Indonesia";" 085364997436";"";"";"1.1152983";"104.3386994";"https://maps.google.com/?cid=0x0:0xf643097b4b77a305";""
"toko bangunan";"Pasar bahan bangunan";"Rhema Bintan Jaya";"Air Raja, Kec. Tanjungpinang Tim., Kota Tanjung Pinang, Kepulauan Riau";"Kota Tanjung Pinang, Kepulauan Riau";"KEPULAUAN RIAU";"";"Indonesia";" 082382852024";"";"";"0.9247099";"104.5030953";"https://maps.google.com/?cid=0x0:0xb455aa671e6dcc5";""
"toko bangunan";"Toko Bahan Bangunan";"TB.NUSANTARA";"WH56+64M, Jl. Nusantara, Gn. Lengkuas, Kec. Bintan Tim., Kabupaten Bintan, Kepulauan Riau 29151";"Jl. Nusantara, Gn. Lengkuas, Kec. Bintan Tim., Kabupaten Bintan";"KEPULAUAN RIAU";"29151";"Indonesia";"";"";"";"0.9080852";"104.5602851";"https://maps.google.com/?cid=0x0:0xaaed169f22bbd1c5";""
"toko bangunan";"Toko Swalayan";"Toko Pasifik";"VJ35+G5M, Jl. Sei Datuk, Kijang Kota, Kec. Bintan Tim., Kabupaten Bintan, Kepulauan Riau 29151";"Jl. Sei Datuk, Kijang Kota, Kec. Bintan Tim., Kabupaten Bintan";"KEPULAUAN RIAU";"29151";"Indonesia";"";"";"";"0.8538476";"104.6079104";"https://maps.google.com/?cid=0x0:0x946f474b074c0ae7";""
"toko bangunan";"Toko bahan makanan";"Toko Istana Bata";"Kp simpangan km 16, RT.08/RW.02, Toapaya Sel., Kec. Toapaya, Kabupaten Bintan, Kepulauan Riau 29157";"RT.08/RW.02, Toapaya Sel., Kec. Toapaya, Kabupaten Bintan";"KEPULAUAN RIAU";"29157";"Indonesia";" 081298811313";"";"";"0.960788";"104.5259077";"https://maps.google.com/?cid=0x0:0x9657624be59d1531";""
"toko bangunan";"Toko Bahan Bangunan";"TB.BERKAH JAYA MANDIRI";"Penaga, Kec. Tlk. Bintan, Kabupaten Bintan, Kepulauan Riau 29151";"Kec. Tlk. Bintan, Kabupaten Bintan";"KEPULAUAN RIAU";"29151";"Indonesia";"";"";"";"1.0490409";"104.3843194";"https://maps.google.com/?cid=0x0:0xea18d16774697503";""
"toko bangunan";"Toko Bahan Bangunan";"Bintan Cahaya Perdana";"WFCX+H65 Indonusa Lestari Blok D10, Jl. W.R. Supratman, Air Raja, Kec. Tanjungpinang Tim., Kota Tanjung Pinang, Kepulauan Riau";"Kota Tanjung Pinang, Kepulauan Riau";"KEPULAUAN RIAU";"";"Indonesia";" 082173895392";"";"";"0.9213875";"104.4981103";"https://maps.google.com/?cid=0x0:0xd7a75f1f56e3542f";""
"toko bangunan";"Toko Bahan Bangunan";"Toko Sentral Bangunan";"VHJJ+HQJ, Jl. Nusantara, Sungai Lekop, Kec. Bintan Tim., Kabupaten Bintan, Kepulauan Riau 29151";"Jl. Nusantara, Sungai Lekop, Kec. Bintan Tim., Kabupaten Bintan";"KEPULAUAN RIAU";"29151";"Indonesia";"";"";"";"0.8814671";"104.5818999";"https://maps.google.com/?cid=0x0:0x371848864f065ae7";""
"toko bangunan";"toko bangunan";"Kec. Bintan Tim.";"Kabupaten Bintan, Kepulauan Riau";"Kabupaten Bintan, Kepulauan Riau";"KEPULAUAN RIAU";"";"Indonesia";"";"";"";"0.8540493";"104.6077647";"https://maps.google.com/?cid=0x0:0x95699890ad044101";""
"toko bangunan";"Toko Perlengkapan Rumah";"TOKO BANGUNAN LENGKUAS JAYA";"Jl. Nusantara No.3, Gn. Lengkuas, Kec. Bintan Tim., Kabupaten Bintan, Kepulauan Riau 29151";"Gn. Lengkuas, Kec. Bintan Tim., Kabupaten Bintan";"KEPULAUAN RIAU";"29151";"Indonesia";" 085356280066";"";"";"0.9059972";"104.5655366";"https://maps.google.com/?cid=0x0:0x30d7327484a0394b";""
"toko bangunan";"Toko Elektronik";"Toko SENTOSA";"Jl. Ps. Berdikari, Kijang Kota, Kec. Bintan Tim., KIJANG, Kepulauan Riau 29151";"Kijang Kota, Kec. Bintan Tim., KIJANG";"KEPULAUAN RIAU";"29151";"Indonesia";" 077161617";"";"";"0.8419785";"104.603393";"https://maps.google.com/?cid=0x0:0xc0522c352d75d119";""
"toko bangunan";"Toko Bahan Bangunan";"Toko Material Bangunan Isabella";"Jl. Semen Tokojo, Kijang Kota, simpang keke, Kabupaten Bintan, Kepulauan Riau 29151";"Kijang Kota, simpang keke, Kabupaten Bintan";"KEPULAUAN RIAU";"29151";"Indonesia";" 082173822022";"";"";"0.8330308";"104.6045985";"https://maps.google.com/?cid=0x0:0x657580ccbf644bcc";""
"toko bangunan";"Pemasok Bahan Bangunan";"Toko Jaya Abadi";"RJX5+Q8X, Jl. Hang Jebat, Kijang Kota, Kec. Bintan Tim., Kabupaten Bintan, Kepulauan Riau 29151";"Jl. Hang Jebat, Kijang Kota, Kec. Bintan Tim., Kabupaten Bintan";"KEPULAUAN RIAU";"29151";"Indonesia";" 0771463588";"";"";"0.8494855";"104.6083553";"https://maps.google.com/?cid=0x0:0xc8985da7ac95e5e3";""
"toko bangunan";"Toko Perlengkapan Rumah";"Toko Bangunan BISON";"WH38+7XQ, Jl. Nusantara, Sungai Lekop, Kec. Bintan Tim., Kabupaten Bintan, Kepulauan Riau 29151";"Jl. Nusantara, Sungai Lekop, Kec. Bintan Tim., Kabupaten Bintan";"KEPULAUAN RIAU";"29151";"Indonesia";"";"";"";"0.9032122";"104.5674721";"https://maps.google.com/?cid=0x0:0x53ff2b607e376579";""
"toko bangunan";"Toko Perlengkapan Rumah";"Toko Aneka Bangunan";"VJ64+C53, Jl. Sei Datuk, Kijang Kota, Kec. Bintan Tim., Kabupaten Bintan, Kepulauan Riau 29151";"Jl. Sei Datuk, Kijang Kota, Kec. Bintan Tim., Kabupaten Bintan";"KEPULAUAN RIAU";"29151";"Indonesia";" 082387400327";"";"";"0.8610144";"104.6054314";"https://maps.google.com/?cid=0x0:0xa4d2cac99c2a04ba";""
"toko bangunan";"Toko Bahan Bangunan";"Duta Keramik";"VHX9+QXJ, Jl. Nusantara, Gn. Lengkuas, Kec. Bintan Tim., Kabupaten Bintan, Kepulauan Riau 29151";"Jl. Nusantara, Gn. Lengkuas, Kec. Bintan Tim., Kabupaten Bintan";"KEPULAUAN RIAU";"29151";"Indonesia";"";"";"";"0.8994512";"104.569883";"https://maps.google.com/?cid=0x0:0x795d3ac43f6a60f4";""
"toko bangunan";"Toko Bahan Bangunan";"Toko Jati Luhur";"RJQ2+F9W, Kijang Kota, Kec. Bintan Tim., Kabupaten Bintan, Kepulauan Riau 29151";"Kijang Kota, Kec. Bintan Tim., Kabupaten Bintan";"KEPULAUAN RIAU";"29151";"Indonesia";"";"";"";"0.8387456";"104.6009517";"https://maps.google.com/?cid=0x0:0x57e0a8f450fb18eb";""
"toko bangunan";"Toko Bahan Bangunan";"Bintan pratama jaya";"Jl. Sei Datuk, Kijang Kota, Kec. Bintan Tim., Kabupaten Bintan, Kepulauan Riau 29151";"Kijang Kota, Kec. Bintan Tim., Kabupaten Bintan";"KEPULAUAN RIAU";"29151";"Indonesia";"";"";"";"0.8565855";"104.6059235";"https://maps.google.com/?cid=0x0:0x153d6c39e5c38886";""
"toko bangunan";"Toko Bahan Bangunan";"TB.NUSANTARA";"WH56+64M, Jl. Nusantara, Gn. Lengkuas, Kec. Bintan Tim., Kabupaten Bintan, Kepulauan Riau 29151";"Jl. Nusantara, Gn. Lengkuas, Kec. Bintan Tim., Kabupaten Bintan";"KEPULAUAN RIAU";"29151";"Indonesia";"";"";"";"0.9080852";"104.5602851";"https://maps.google.com/?cid=0x0:0xaaed169f22bbd1c5";""
"toko bangunan";"Toko Bahan Bangunan";"Toko Bangunan Bandung Jaya";"Jl. Trikora No.33, Kijang Kota, Kec. Bintan Tim., Kabupaten Bintan, Kepulauan Riau 29151";"Kijang Kota, Kec. Bintan Tim., Kabupaten Bintan";"KEPULAUAN RIAU";"29151";"Indonesia";"";"";"";"0.849283";"104.6074897";"https://maps.google.com/?cid=0x0:0x5900766a32d792d5";""
"toko bangunan";"Toko Bahan Bangunan";"SUPER BANGUNAN";"VJ44+R74, Jl. Sei Datuk, Kijang Kota, Kec. Bintan Tim., Kabupaten Bintan, Kepulauan Riau 29151";"Jl. Sei Datuk, Kijang Kota, Kec. Bintan Tim., Kabupaten Bintan";"KEPULAUAN RIAU";"29151";"Indonesia";"";"";"";"0.8570087";"104.6057095";"https://maps.google.com/?cid=0x0:0x2ce80be91757ee3a";""
"toko bangunan";"Kantor Perusahaan";"Batako sungai lekop";"Sungai Lekop, Kec. Bintan Tim., Kabupaten Bintan, Kepulauan Riau 29151";"Kec. Bintan Tim., Kabupaten Bintan";"KEPULAUAN RIAU";"29151";"Indonesia";" 081372507795";"";"";"0.8995828";"104.5830082";"https://maps.google.com/?cid=0x0:0x6317761fe7c8020e";""
"toko bangunan";"Pasar bahan bangunan";"Rhema Bintan Jaya";"Air Raja, Kec. Tanjungpinang Tim., Kota Tanjung Pinang, Kepulauan Riau";"Kota Tanjung Pinang, Kepulauan Riau";"KEPULAUAN RIAU";"";"Indonesia";" 082382852024";"";"";"0.9247099";"104.5030953";"https://maps.google.com/?cid=0x0:0xb455aa671e6dcc5";""
"toko bangunan";"Toko Bahan Bangunan";"Inti Bangunan";"4954+F9J, Kota Baru, Kec. Tlk. Sebong, Kabupaten Bintan, Kepulauan Riau 29151";"Kota Baru, Kec. Tlk. Sebong, Kabupaten Bintan";"KEPULAUAN RIAU";"29151";"Indonesia";" 081364927393";"";"";"1.1087202";"104.3558915";"https://maps.google.com/?cid=0x0:0xc374893aa0dc76b9";""
"toko bangunan";"Toko Bahan Bangunan";"Bintan Cahaya Perdana";"WFCX+H65 Indonusa Lestari Blok D10, Jl. W.R. Supratman, Air Raja, Kec. Tanjungpinang Tim., Kota Tanjung Pinang, Kepulauan Riau";"Kota Tanjung Pinang, Kepulauan Riau";"KEPULAUAN RIAU";"";"Indonesia";" 082173895392";"";"";"0.9213875";"104.4981103";"https://maps.google.com/?cid=0x0:0xd7a75f1f56e3542f";""
"toko bangunan";"Toko Bahan Bangunan";"Toko bangunan 899";"WG46+XH6, Jl. Hang Lekir, Batu IX, Kec. Tanjungpinang Tim., Kota Tanjung Pinang, Kepulauan Riau 29125";"Jl. Hang Lekir, Batu IX, Kec. Tanjungpinang Tim., Kota Tanjung Pinang";"KEPULAUAN RIAU";"29125";"Indonesia";" 08117731899";"";"";"0.9074147";"104.5113787";"https://maps.google.com/?cid=0x0:0xcc999e2b2c2bf2d3";""
"toko bangunan";"Toko Bahan Bangunan";"TB.BERKAH JAYA MANDIRI";"Penaga, Kec. Tlk. Bintan, Kabupaten Bintan, Kepulauan Riau 29151";"Kec. Tlk. Bintan, Kabupaten Bintan";"KEPULAUAN RIAU";"29151";"Indonesia";"";"";"";"1.0490409";"104.3843194";"https://maps.google.com/?cid=0x0:0xea18d16774697503";""
"toko bangunan";"Toko Bahan Bangunan";"Toko Ragam Bangunan";"Jl. Nusantara No.Km 17, Gn. Lengkuas, Kec. Bintan Tim., Kabupaten Bintan, Kepulauan Riau 29150";"Gn. Lengkuas, Kec. Bintan Tim., Kabupaten Bintan";"KEPULAUAN RIAU";"29150";"Indonesia";"";"";"";"0.9078802";"104.5621284";"https://maps.google.com/?cid=0x0:0x11ade6a3900f585d";""
"toko bangunan";"toko bangunan";"Kepulauan Riau 29152";"Kabupaten Bintan, Kepulauan Riau";"Kabupaten Bintan, Kepulauan Riau";"KEPULAUAN RIAU";"";"Indonesia";"";"";"";"1.0445582";"104.262851";"https://maps.google.com/?cid=0x0:0xc41a06150b9829d3";""
"toko bangunan";"Toko Bahan Bangunan";"Toko Usaha Harapan Baru";"366H+XHX, Jl. Bhakti Praja, Tj. Uban Sel., Kec. Bintan Utara, Kabupaten Bintan, Kepulauan Riau 29152";"Jl. Bhakti Praja, Tj. Uban Sel., Kec. Bintan Utara, Kabupaten Bintan";"KEPULAUAN RIAU";"29152";"Indonesia";" 0771483272";"";"";"1.0624849";"104.2289874";"https://maps.google.com/?cid=0x0:0xeace35887bceb771";""
"toko bangunan";"Toko Bahan Bangunan";"Toko Mitra";"367F+QGG, Tj. Uban Kota, Kec. Bintan Utara, Kabupaten Bintan, Kepulauan Riau 29152";"Tj. Uban Kota, Kec. Bintan Utara, Kabupaten Bintan";"KEPULAUAN RIAU";"29152";"Indonesia";"";"";"";"1.0644262";"104.2238236";"https://maps.google.com/?cid=0x0:0xd42991f73e8a512a";""
"toko bangunan";"Toko Bahan Bangunan";"Toko Panca Bangunan";"367F+VGQ, Tj. Uban Kota, Kec. Bintan Utara, Kabupaten Bintan, Kepulauan Riau 29152";"Tj. Uban Kota, Kec. Bintan Utara, Kabupaten Bintan";"KEPULAUAN RIAU";"29152";"Indonesia";"";"";"";"1.0647235";"104.2238655";"https://maps.google.com/?cid=0x0:0x585c797011e3ee5a";""
"toko bangunan";"Toko Bahan Bangunan";"TB. BINTAN JAYA";"26XR+824, Tj. Uban Sel., Kec. Bintan Utara, Kabupaten Bintan, Kepulauan Riau 29152";"Tj. Uban Sel., Kec. Bintan Utara, Kabupaten Bintan";"KEPULAUAN RIAU";"29152";"Indonesia";"";"";"";"1.0482625";"104.240078";"https://maps.google.com/?cid=0x0:0xe405e1309dd69300";""
"toko bangunan";"Toko Bahan Bangunan";"Sisih";"Jl. Indunsuri, Tj. Uban Sel., Kec. Bintan Utara, Kabupaten Bintan, Kepulauan Riau 29152";"Tj. Uban Sel., Kec. Bintan Utara, Kabupaten Bintan";"KEPULAUAN RIAU";"29152";"Indonesia";" 082170602826";"";"";"1.0676049";"104.237545";"https://maps.google.com/?cid=0x0:0x62c1937957e69fed";""
"toko bangunan";"Toko Bahan Bangunan";"Toko Bangunan "SEMANGAT BARU"";"488Q+4F8, Sebong Pereh, Kec. Tlk. Sebong, Kabupaten Bintan, Kepulauan Riau 29152";"Sebong Pereh, Kec. Tlk. Sebong, Kabupaten Bintan";"KEPULAUAN RIAU";"29152";"Indonesia";" 085364997436";"";"";"1.1152983";"104.3386994";"https://maps.google.com/?cid=0x0:0xf643097b4b77a305";""
"toko bangunan";"Toko Bahan Bangunan";"Toko Bintan Karya";"36CJ+334, Jl. Indunsuri, Tj. Uban Sel., Kec. Bintan Utara, Kabupaten Bintan, Kepulauan Riau 29152";"Jl. Indunsuri, Tj. Uban Sel., Kec. Bintan Utara, Kabupaten Bintan";"KEPULAUAN RIAU";"29152";"Indonesia";"";"";"";"1.0701492";"104.2302148";"https://maps.google.com/?cid=0x0:0xd659d6552f886750";""
"toko bangunan";"Toko Bahan Bangunan";"Inti Bangunan";"4954+F9J, Kota Baru, Kec. Tlk. Sebong, Kabupaten Bintan, Kepulauan Riau 29151";"Kota Baru, Kec. Tlk. Sebong, Kabupaten Bintan";"KEPULAUAN RIAU";"29151";"Indonesia";" 081364927393";"";"";"1.1087202";"104.3558915";"https://maps.google.com/?cid=0x0:0xc374893aa0dc76b9";""
"toko bangunan";"Toko Bahan Bangunan";"Toko Matrial CITRA ABADI";"Sebong Pereh, Kec. Tlk. Sebong, Kabupaten Bintan, Kepulauan Riau 29152";"Kec. Tlk. Sebong, Kabupaten Bintan";"KEPULAUAN RIAU";"29152";"Indonesia";" 082171693932";"";"";"1.1131391";"104.3487529";"https://maps.google.com/?cid=0x0:0x4793895c5646ecc0";""
"toko bangunan";"Toko Bahan Bangunan";"Toko Bintan Jaya";"48GC+MXQ, Sebong Lagoi, Kec. Tlk. Sebong, Kabupaten Bintan, Kepulauan Riau";"Kabupaten Bintan, Kepulauan Riau";"KEPULAUAN RIAU";"";"Indonesia";"";"";"";"1.1267013";"104.3224718";"https://maps.google.com/?cid=0x0:0xbd17158f2ee4cf8c";""
"toko bangunan";"Toko Bahan Bangunan";"Semen Padang";"Jl. Bhakti Praja, Tj. Uban Sel., Kec. Bintan Utara, Kabupaten Bintan, Kepulauan Riau 29152";"Tj. Uban Sel., Kec. Bintan Utara, Kabupaten Bintan";"KEPULAUAN RIAU";"29152";"Indonesia";"";"";"";"1.0625607";"104.2289737";"https://maps.google.com/?cid=0x0:0x2b255bfb5096372f";""
"toko bangunan";"Pemasok Bahan Bangunan";"Toko Bangunan Surya Utama";"WH48+936, Jl. Nusantara, Gn. Lengkuas, Kec. Bintan Tim., Kabupaten Bintan, Kepulauan Riau 29151";"Jl. Nusantara, Gn. Lengkuas, Kec. Bintan Tim., Kabupaten Bintan";"KEPULAUAN RIAU";"29151";"Indonesia";" 085264476259";"";"";"0.9059102";"104.5651533";"https://maps.google.com/?cid=0x0:0x3b9d93e685a0a83c";""
"toko bangunan";"Toko Bahan Bangunan";"Toko Bintang Warna";"Jl. Permaisuri, Tj. Uban Kota, Kec. Bintan Utara, Kabupaten Bintan, Kepulauan Riau 29152";"Tj. Uban Kota, Kec. Bintan Utara, Kabupaten Bintan";"KEPULAUAN RIAU";"29152";"Indonesia";" 081313611970";"";"";"1.0648422";"104.224843";"https://maps.google.com/?cid=0x0:0xa2625e4c9cc6af77";""
"toko bangunan";"Toko Bahan Bangunan";"Sung Mahkota";"Tj. Uban Sel., Kec. Bintan Utara, Kabupaten Bintan, Kepulauan Riau 29152";"Kec. Bintan Utara, Kabupaten Bintan";"KEPULAUAN RIAU";"29152";"Indonesia";" 0771483000";"";"";"1.0642035";"104.238122";"https://maps.google.com/?cid=0x0:0x79d5ec7ced560cc5";""
"toko bangunan";"Toko Bahan Bangunan";"Toko Bahagia";"3679+Q5P, Jl. Merdeka, Tj. Uban Kota, Kec. Bintan Utara, Kabupaten Bintan, Kepulauan Riau";"Kabupaten Bintan, Kepulauan Riau";"KEPULAUAN RIAU";"";"Indonesia";"";"";"";"1.064473";"104.2179473";"https://maps.google.com/?cid=0x0:0x9ed408181a559254";""
"toko bangunan";"toko bangunan";"yOYFaLr-LbDB5OUP2qmhwAI";"";"";"KEPULAUAN RIAU";"";"Indonesia";" 081276527079";"";"";"-2.44565";"117.8888";"https://maps.google.com/?cid=0x0:0x1ef3e325e500d696";""
"toko bangunan";"Tukang Cat";"Tri Putra Paint";"368G+9HM, Tj. Uban Kota, Kec. Bintan Utara, Kabupaten Bintan, Kepulauan Riau 29152";"Tj. Uban Kota, Kec. Bintan Utara, Kabupaten Bintan";"KEPULAUAN RIAU";"29152";"Indonesia";"";"";"";"1.0659651";"104.2264352";"https://maps.google.com/?cid=0x0:0x9ba8f9860854f7b";""
"toko bangunan";"toko bangunan";"Kec. Bintan Utara";"Kabupaten Bintan, Kepulauan Riau";"Kabupaten Bintan, Kepulauan Riau";"KEPULAUAN RIAU";"";"Indonesia";"";"";"";"1.0699776";"104.229487";"https://maps.google.com/?cid=0x0:0xfe27b0e26765e552";""
"toko bangunan";"toko bangunan";"Kepulauan Riau 29151";"Kabupaten Bintan, Kepulauan Riau";"Kabupaten Bintan, Kepulauan Riau";"KEPULAUAN RIAU";"";"Indonesia";"";"";"";"0.9689163";"104.5888356";"https://maps.google.com/?cid=0x0:0x61d6e520af4a7f61";""
"toko bangunan";"Toko Bahan Bangunan";"Toko Material Bangunan Isabella";"Jl. Semen Tokojo, Kijang Kota, simpang keke, Kabupaten Bintan, Kepulauan Riau 29151";"Kijang Kota, simpang keke, Kabupaten Bintan";"KEPULAUAN RIAU";"29151";"Indonesia";" 082173822022";"";"";"0.8330308";"104.6045985";"https://maps.google.com/?cid=0x0:0x657580ccbf644bcc";""
"toko bangunan";"Toko Perlengkapan Rumah";"TOKO BANGUNAN LENGKUAS JAYA";"Jl. Nusantara No.3, Gn. Lengkuas, Kec. Bintan Tim., Kabupaten Bintan, Kepulauan Riau 29151";"Gn. Lengkuas, Kec. Bintan Tim., Kabupaten Bintan";"KEPULAUAN RIAU";"29151";"Indonesia";" 085356280066";"";"";"0.9059972";"104.5655366";"https://maps.google.com/?cid=0x0:0x30d7327484a0394b";""
"toko bangunan";"Toko Bahan Bangunan";"Toko Mitra Bangunan";"WF88+6CW, Jl. Gatot Subroto, Kp. Bulang, Kec. Tanjungpinang Tim., Kota Tanjung Pinang, Kepulauan Riau";"Kota Tanjung Pinang, Kepulauan Riau";"KEPULAUAN RIAU";"";"Indonesia";" 077127576";"";"";"0.9156048";"104.4660762";"https://maps.google.com/?cid=0x0:0x22682ec6d1f2c5f3";""
"toko bangunan";"Toko Bahan Bangunan";"Toko Istana Gunung Bintan";"Komplek Centre view, Blok B No.19, Taman Baloi, Batam Kota, Batam City, Riau Islands 29444";"Blok B No.19, Taman Baloi, Batam Kota, Batam City";"KEPULAUAN RIAU";"29444";"Indonesia";" 08117773597";"";"";"1.1182996";"104.0317703";"https://maps.google.com/?cid=0x0:0x230ddcdd5a512799";""
"toko bangunan";"Toko Bahan Bangunan";"Toko bangunan 899";"WG46+XH6, Jl. Hang Lekir, Batu IX, Kec. Tanjungpinang Tim., Kota Tanjung Pinang, Kepulauan Riau 29125";"Jl. Hang Lekir, Batu IX, Kec. Tanjungpinang Tim., Kota Tanjung Pinang";"KEPULAUAN RIAU";"29125";"Indonesia";" 08117731899";"";"";"0.9074147";"104.5113787";"https://maps.google.com/?cid=0x0:0xcc999e2b2c2bf2d3";""
"toko bangunan";"Toko Bahan Bangunan";"Toko Bangunan "SEMANGAT BARU"";"488Q+4F8, Sebong Pereh, Kec. Tlk. Sebong, Kabupaten Bintan, Kepulauan Riau 29152";"Sebong Pereh, Kec. Tlk. Sebong, Kabupaten Bintan";"KEPULAUAN RIAU";"29152";"Indonesia";" 085364997436";"";"";"1.1152983";"104.3386994";"https://maps.google.com/?cid=0x0:0xf643097b4b77a305";""
"toko bangunan";"Toko Bahan Bangunan";"Indo Bangunan";"Jl. D.I. Panjaitan No.23, Melayu Kota Piring, Kec. Tanjungpinang Tim., Kota Tanjung Pinang, Kepulauan Riau 29123";"Melayu Kota Piring, Kec. Tanjungpinang Tim., Kota Tanjung Pinang";"KEPULAUAN RIAU";"29123";"Indonesia";" 082268601188";"";"";"0.9171415";"104.4869331";"https://maps.google.com/?cid=0x0:0xcacf56ccd84ba62d";""
"toko bangunan";"Toko Perlengkapan Rumah";"Multi Bintan";"XJRM+HP4, Jl. Raya Kawal, Toapaya Asri, Kec. Gn. Kijang, Kabupaten Bintan, Kepulauan Riau 29151";"Jl. Raya Kawal, Toapaya Asri, Kec. Gn. Kijang, Kabupaten Bintan";"KEPULAUAN RIAU";"29151";"Indonesia";" 082384684700";"";"";"0.9913984";"104.6343205";"https://maps.google.com/?cid=0x0:0x9826603a2e7c9dcf";""
"toko bangunan";"Toko Bahan Bangunan";"Toko IntiBangunan TanjungPinang";"Jl. Arif Rahman Hakim No.24, Tj. Ayun Sakti, Kec. Bukit Bestari, Kota Tanjung Pinang, Kepulauan Riau 29124";"Tj. Ayun Sakti, Kec. Bukit Bestari, Kota Tanjung Pinang";"KEPULAUAN RIAU";"29124";"Indonesia";" 0771888888";"";"";"0.8986725";"104.468617";"https://maps.google.com/?cid=0x0:0x9da9bd625256d641";""
"toko bangunan";"Toko";"Toko Kijang";"Jl. Barek Motor No.79, Kijang Kota, Kec. Bintan Tim., Kabupaten Bintan, Kepulauan Riau 29151";"Kijang Kota, Kec. Bintan Tim., Kabupaten Bintan";"KEPULAUAN RIAU";"29151";"Indonesia";" 085265627722";"";"";"0.8531649";"104.6079979";"https://maps.google.com/?cid=0x0:0x998e17c1dfb1a306";""
"toko bangunan";"Toko Elektronik";"Toko SENTOSA";"Jl. Ps. Berdikari, Kijang Kota, Kec. Bintan Tim., KIJANG, Kepulauan Riau 29151";"Kijang Kota, Kec. Bintan Tim., KIJANG";"KEPULAUAN RIAU";"29151";"Indonesia";" 077161617";"";"";"0.8419785";"104.603393";"https://maps.google.com/?cid=0x0:0xc0522c352d75d119";""
