Category;Real Category;Business Name;Address;City;State;Postal Code;Country;Phone;Email;Website;Latitude;Longitude;Map Link;Details Link
"komplek housing";"komplek housing";"Puskesmas Sei Lasi";"7QCR+2MX, Jl. Lintas Sei Lasi, Taratak Bancah, Kec. Silungkang, Kota Sawahlunto, Sumatera Barat 27416";"Jl. Lintas Sei Lasi, Taratak Bancah, Kec. Silungkang, Kota Sawahlunto";"SUMATERA BARAT";"27416";"Indonesia";" 075591431";"";"";"-0.729884";"100.791743";"https://maps.google.com/?cid=0x0:0x28b09d23d5182aaf";""
"komplek housing";"komplek housing";"Kec. Sembilan Koto";"Kabupaten Dharmasraya, Sumatera Barat";"Kabupaten Dharmasraya, Sumatera Barat";"SUMATERA BARAT";"";"Indonesia";"";"";"";"-0.9903782";"101.42712";"https://maps.google.com/?cid=0x0:0x77dde5759bdd1f8f";""
"komplek housing";"komplek housing";"Sumatera Barat 27355";"Kec. X Koto Diatas, Kabupaten Solok, Sumatera Barat";"Kabupaten Solok, Sumatera Barat";"SUMATERA BARAT";"";"Indonesia";"";"";"";"-0.6097459";"100.6421799";"https://maps.google.com/?cid=0x0:0x7a08730535108a2b";""
"komplek housing";"Pembangunan Perumahan";"Gonting";"8MJH+RGM, Labuh Panjang, Kec. X Koto Diatas, Kabupaten Solok, Sumatera Barat 27355";"Labuh Panjang, Kec. X Koto Diatas, Kabupaten Solok";"SUMATERA BARAT";"27355";"Indonesia";"";"";"";"-0.6679068";"100.6787942";"https://maps.google.com/?cid=0x0:0x4c2ac45c9fa82ebf";""
"komplek housing";"Komplek perumahan";"Rumah Nofri";"CJG4+J6G, Rumah panjang, jorong datar, Bukit Kanduang, Kec. X Koto Diatas, Kabupaten Solok, Sumatera Barat 27355";"Rumah panjang, jorong datar, Bukit Kanduang, Kec. X Koto Diatas, Kabupaten Solok";"SUMATERA BARAT";"27355";"Indonesia";"";"";"";"-0.5729368";"100.605435";"https://maps.google.com/?cid=0x0:0x7edd570474f45729";""
"komplek housing";"Komplek perumahan";"Nihar linawan";"9MV3+2RM, Sulit Air, Kec. X Koto Diatas, Kabupaten Solok, Sumatera Barat 27355";"Sulit Air, Kec. X Koto Diatas, Kabupaten Solok";"SUMATERA BARAT";"27355";"Indonesia";"";"";"";"-0.6074243";"100.6545589";"https://maps.google.com/?cid=0x0:0xfc1a6cd19260328";""
"komplek housing";"Kantor Perusahaan";"sago";"8M6P+Q9, Sibarambang, Kec. X Koto Diatas, Kabupaten Solok, Sumatera Barat";"Kabupaten Solok, Sumatera Barat";"SUMATERA BARAT";"";"Indonesia";"";"";"";"-0.6877813";"100.6858057";"https://maps.google.com/?cid=0x0:0xccf6794b50bdc816";""
"komplek housing";"komplek housing";"Kec. X Koto Diatas";"Kabupaten Solok, Sumatera Barat";"Kabupaten Solok, Sumatera Barat";"SUMATERA BARAT";"";"Indonesia";"";"";"";"-0.6168263";"100.6424779";"https://maps.google.com/?cid=0x0:0x37d168798e6d9cb4";""
"komplek housing";"Komplek perumahan";"Ayam nihar";"9MV3+2RM, Sulit Air, Kec. X Koto Diatas, Kabupaten Solok, Sumatera Barat 27355";"Sulit Air, Kec. X Koto Diatas, Kabupaten Solok";"SUMATERA BARAT";"27355";"Indonesia";"";"";"";"-0.6074243";"100.6545589";"https://maps.google.com/?cid=0x0:0x2792b9b4617de37e";""
"komplek housing";"Perhimpunan Pengembang Perumahan";"Sumbacang";"CMRG+CX3, Sumbacang, Jorong Padang Datar, Pasilihan, Kec. X Koto Diatas, Kabupaten Solok, Sumatera Barat 27281";"Sumbacang, Jorong Padang Datar, Pasilihan, Kec. X Koto Diatas, Kabupaten Solok";"SUMATERA BARAT";"27281";"Indonesia";"";"";"";"-0.5589984";"100.6774366";"https://maps.google.com/?cid=0x0:0x8341c0804410eccf";""
"komplek housing";"komplek housing";"Simpang dulimo";"8PM3+C7, Sibarambang, Kec. X Koto Diatas, Kabupaten Solok, Sumatera Barat";"Kabupaten Solok, Sumatera Barat";"SUMATERA BARAT";"";"Indonesia";"";"";"";"-0.66645";"100.703177";"https://maps.google.com/?cid=0x0:0x239053e5f0d2c33c";""
"komplek housing";"Pembangunan Perumahan";"Bg don";"7MW9+5P9, Katialo, Kec. X Koto Diatas, Kabupaten Solok, Sumatera Barat 27355";"Katialo, Kec. X Koto Diatas, Kabupaten Solok";"SUMATERA BARAT";"27355";"Indonesia";"";"";"";"-0.7045821";"100.6693685";"https://maps.google.com/?cid=0x0:0x404017e1f248790d";""
"komplek housing";"Komplek perumahan";"Rumah Tinggal";"9MV5+H4G, Sulit Air, Kec. X Koto Diatas, Kabupaten Solok, Sumatera Barat";"Kabupaten Solok, Sumatera Barat";"SUMATERA BARAT";"";"Indonesia";"";"";"";"-0.6060706";"100.6578374";"https://maps.google.com/?cid=0x0:0x2613675796c46e44";""
"komplek housing";"Komplek perumahan";"MIEFTA ARSYILA TOMPOK";"9JX7+M9R, TOMPOK SULIT AIR, Bukit Kanduang, Kabupaten Solok, Sumatera Barat";"Kabupaten Solok, Sumatera Barat";"SUMATERA BARAT";"";"Indonesia";"";"";"";"-0.6007524";"100.613391";"https://maps.google.com/?cid=0x0:0xfc0f98839db98d9";""
"komplek housing";"Komplek perumahan";"Rumah Wila Datul Aini";"CMR7+WGR, Koto Jorong Sawah Luar, Pasilihan, Kec. X Koto Diatas";"Kabupaten Solok, Sumatera Barat";"SUMATERA BARAT";"";"Indonesia";"";"";"";"-0.5576338";"100.6637623";"https://maps.google.com/?cid=0x0:0x6c1e9760d618c847";""
"komplek housing";"Perhimpunan Pengembang Perumahan";"Timbar House";"9JMR+PGF, Jl Gedung timbar. koto gadang, Sulit Air";"Kabupaten Solok, Sumatera Barat";"SUMATERA BARAT";"";"Indonesia";"";"";"";"-0.6156956";"100.6413095";"https://maps.google.com/?cid=0x0:0xd0c9484d2133765d";""
"komplek housing";"Perhimpunan Pengembang Perumahan";"Rumah fanisa";"7MG3+QC, Paninjauan, Kec. X Koto Diatas, Kabupaten Solok, Sumatera Barat";"Kabupaten Solok, Sumatera Barat";"SUMATERA BARAT";"";"Indonesia";"";"";"";"-0.7230625";"100.6535625";"https://maps.google.com/?cid=0x0:0xdd136ea5f0b27e61";""
"komplek housing";"Komplek perumahan";"Sawah loweh";"8M76+68X, Unnamed Road, Paninjauan, Kec. X Koto Diatas, Kabupaten Solok, Sumatera Barat 27355";"Unnamed Road, Paninjauan, Kec. X Koto Diatas, Kabupaten Solok";"SUMATERA BARAT";"27355";"Indonesia";"";"";"";"-0.6868946";"100.6608582";"https://maps.google.com/?cid=0x0:0xe8111a3e89e87982";""
"komplek housing";"Komplek perumahan";"Keluarga Besar Umar Dina";"9JMP+4PF, Sulit Air, Kec. X Koto Diatas, Kabupaten Solok, Sumatera Barat 27355";"Sulit Air, Kec. X Koto Diatas, Kabupaten Solok";"SUMATERA BARAT";"27355";"Indonesia";"";"";"";"-0.6170447";"100.6369147";"https://maps.google.com/?cid=0x0:0x995a0c8c79e55be1";""
"komplek housing";"Komplek perumahan";"Al yos sawah balai";"7M89+9W7, Kuncir, Kec. X Koto Diatas, Kabupaten Solok, Sumatera Barat 27325";"Kuncir, Kec. X Koto Diatas, Kabupaten Solok";"SUMATERA BARAT";"27325";"Indonesia";"";"";"";"-0.7335326";"100.6694191";"https://maps.google.com/?cid=0x0:0xc95733683025e53";""
"komplek housing";"Pembangunan Perumahan";"Home tanjung";"CJJ2+CJR, Bukit Kanduang, Kec. X Koto Diatas, Kabupaten Solok, Sumatera Barat";"Kabupaten Solok, Sumatera Barat";"SUMATERA BARAT";"";"Indonesia";"";"";"";"-0.5688945";"100.6015225";"https://maps.google.com/?cid=0x0:0xc2cc0c1a5c765c17";""
"komplek housing";"Komplek perumahan";"Parupuak";"9JXM+598, Sulit Air, Kec. X Koto Diatas, Kabupaten Solok, Sumatera Barat 27355";"Sulit Air, Kec. X Koto Diatas, Kabupaten Solok";"SUMATERA BARAT";"27355";"Indonesia";"";"";"";"-0.6020844";"100.6334455";"https://maps.google.com/?cid=0x0:0x60f15fb837ff195d";""
"komplek housing";"Developer Rumah Hunian Khusus";"Perumahan Nugraha Village 2";"Jl. Kuncir, Aripan, Kec. X Koto Singkarak, Kabupaten Solok, Sumatera Barat 27355";"Aripan, Kec. X Koto Singkarak, Kabupaten Solok";"SUMATERA BARAT";"27355";"Indonesia";" 082223339665";"";"";"-0.7439559";"100.6435346";"https://maps.google.com/?cid=0x0:0x373283bcfa75df78";""
"komplek housing";"Komplek perumahan";"Rumah Silvia hafis";"9MM3+QJW, Jl. Luak Bayau, Sulit Air, Kec. X Koto Diatas, Kabupaten Solok, Sumatera Barat 27355";"Jl. Luak Bayau, Sulit Air, Kec. X Koto Diatas, Kabupaten Solok";"SUMATERA BARAT";"27355";"Indonesia";"";"";"";"-0.6165939";"100.6538841";"https://maps.google.com/?cid=0x0:0x622b5bc669b75b41";""
"komplek housing";"Pembangunan Perumahan";"RUMAH ERNA IKBAL";"9JX9+3GP, Bukit Kanduang, Kec. X Koto Diatas, Kabupaten Solok, Sumatera Barat 27355";"Bukit Kanduang, Kec. X Koto Diatas, Kabupaten Solok";"SUMATERA BARAT";"27355";"Indonesia";"";"";"";"-0.6022515";"100.618738";"https://maps.google.com/?cid=0x0:0xc395f5eccd717b5d";""
"komplek housing";"Komplek perumahan";"Rumah Hj.Rohani Syamsuddin";"9MM3+XRG, Sulit Air, Kec. X Koto Diatas, Kabupaten Solok, Sumatera Barat 27355";"Sulit Air, Kec. X Koto Diatas, Kabupaten Solok";"SUMATERA BARAT";"27355";"Indonesia";"";"";"";"-0.614423";"100.6555927";"https://maps.google.com/?cid=0x0:0xeac09302bffa4969";""
"komplek housing";"Komplek perumahan";"Rumah caniago";"CJ54+V3, Bukit Kanduang, Kec. X Koto Diatas, Kabupaten Solok, Sumatera Barat 27355";"Bukit Kanduang, Kec. X Koto Diatas, Kabupaten Solok";"SUMATERA BARAT";"27355";"Indonesia";"";"";"";"-0.5902196";"100.6051371";"https://maps.google.com/?cid=0x0:0x45da426b4a1a0287";""
"komplek housing";"Komplek perumahan";"Dangau Maiyah";"9JJP+MF9, Sulit Air, Kec. X Koto Diatas, Kabupaten Solok, Sumatera Barat 27355";"Sulit Air, Kec. X Koto Diatas, Kabupaten Solok";"SUMATERA BARAT";"27355";"Indonesia";"";"";"";"-0.6187318";"100.6359214";"https://maps.google.com/?cid=0x0:0x19beb5271645c9cd";""
"komplek housing";"Komplek perumahan";"VILLA REFIYANTI";"Jl. Sulit Air Bukit Kandung, Bukit Kanduang, Kec. X Koto Diatas, Kabupaten Solok, Sumatera Barat 27355";"Bukit Kanduang, Kec. X Koto Diatas, Kabupaten Solok";"SUMATERA BARAT";"27355";"Indonesia";"";"";"";"-0.6072505";"100.6275897";"https://maps.google.com/?cid=0x0:0x2955403f4cc601e";""
"komplek housing";"Komplek perumahan";"Ramadin House";"8MX6+WV8, Jalan Raya, Tanjuang Balik, Kec. X Koto Diatas, Kabupaten Solok, Sumatera Barat 27355";"Jalan Raya, Tanjuang Balik, Kec. X Koto Diatas, Kabupaten Solok";"SUMATERA BARAT";"27355";"Indonesia";"";"";"";"-0.6505833";"100.6618559";"https://maps.google.com/?cid=0x0:0x8082aec5d00fad83";""
"komplek housing";"Perhimpunan Pengembang Perumahan";"Nagari Katialo";"7MW9+H7P, Katialo, Kec. X Koto Diatas, Kabupaten Solok, Sumatera Barat 27355";"Katialo, Kec. X Koto Diatas, Kabupaten Solok";"SUMATERA BARAT";"27355";"Indonesia";" 085263416307";"";"";"-0.703752";"100.667359";"https://maps.google.com/?cid=0x0:0x6ebf0f50fb210070";""
"komplek housing";"komplek housing";"Sumatera Barat 27356";"Kec. X Koto Singkarak, Kabupaten Solok, Sumatera Barat";"Kabupaten Solok, Sumatera Barat";"SUMATERA BARAT";"";"Indonesia";"";"";"";"-0.731226";"100.5408622";"https://maps.google.com/?cid=0x0:0x8081c1c7287627c5";""
"komplek housing";"Perhimpunan Pengembang Perumahan";"TEMPAT KUMPUL ORANG HITAM";"7HWH+CPR, Saniangbaka, Kec. X Koto Singkarak, Kabupaten Solok, Sumatera Barat";"Kabupaten Solok, Sumatera Barat";"SUMATERA BARAT";"";"Indonesia";"";"";"";"-0.7038902";"100.5792774";"https://maps.google.com/?cid=0x0:0x5fe4c8636f73aba0";""
"komplek housing";"Komplek perumahan";"Abi's House";"Jl. DR. Hamka No.16, Singkarak, Kec. X Koto Singkarak, Kabupaten Solok, Sumatera Barat";"Kabupaten Solok, Sumatera Barat";"SUMATERA BARAT";"";"Indonesia";"";"";"";"-0.7022626";"100.5996661";"https://maps.google.com/?cid=0x0:0xea5d931924204af7";""
"komplek housing";"Pembangunan Perumahan";"Kapuah";"7J67+HHX, Jl. Raya Padang - Solok, Sumani, Kec. X Koto Singkarak, Kabupaten Solok, Sumatera Barat";"Kabupaten Solok, Sumatera Barat";"SUMATERA BARAT";"";"Indonesia";"";"";"";"-0.7385172";"100.6139733";"https://maps.google.com/?cid=0x0:0x7bc044c0c5d0073f";""
"komplek housing";"Komplek perumahan";"Rumah koto";"9H6V+VP, Kacang, Kec. X Koto Singkarak, Kabupaten Solok, Sumatera Barat";"Kabupaten Solok, Sumatera Barat";"SUMATERA BARAT";"";"Indonesia";"";"";"";"-0.637294";"100.594613";"https://maps.google.com/?cid=0x0:0xa7067afbb0a760a";""
"komplek housing";"Komplek perumahan";"Kembar House";"9H6Q+F3H, Unnamed Road, Kacang, Kec. X Koto Singkarak, Kabupaten Solok, Sumatera Barat 27356";"Unnamed Road, Kacang, Kec. X Koto Singkarak, Kabupaten Solok";"SUMATERA BARAT";"27356";"Indonesia";"";"";"";"-0.638821";"100.5877449";"https://maps.google.com/?cid=0x0:0x6518035cce3cdede";""
"komplek housing";"Taman";"Baranjuang saniangbaka";"7HRJ+3JH, Sumani, Kec. X Koto Singkarak, Kabupaten Solok, Sumatera Barat";"Kabupaten Solok, Sumatera Barat";"SUMATERA BARAT";"";"Indonesia";"";"";"";"-0.7098214";"100.5816223";"https://maps.google.com/?cid=0x0:0x6b8e82edca9ee81b";""
"komplek housing";"Komplek perumahan";"Jorong Lapau pulau Singkarak";"8J23+J4R, Singkarak, Kec. X Koto Singkarak, Kabupaten Solok, Sumatera Barat";"Kabupaten Solok, Sumatera Barat";"SUMATERA BARAT";"";"Indonesia";"";"";"";"-0.6983967";"100.6027654";"https://maps.google.com/?cid=0x0:0x3c5aeb5a5f20ee0";""
"komplek housing";"Komplek perumahan";"SIALANGBASI HOUSE";"7HXJ+X5J, Singkarak, Kec. X Koto Singkarak, Kabupaten Solok, Sumatera Barat";"Kabupaten Solok, Sumatera Barat";"SUMATERA BARAT";"";"Indonesia";"";"";"";"-0.7000489";"100.5803932";"https://maps.google.com/?cid=0x0:0xd67f03c363616018";""
"komplek housing";"Komplek perumahan";"Rumah";"8H2W+MRJ, Jl. Aripan, Singkarak, Kec. X Koto Singkarak, Kabupaten Solok, Sumatera Barat 27356";"Jl. Aripan, Singkarak, Kec. X Koto Singkarak, Kabupaten Solok";"SUMATERA BARAT";"27356";"Indonesia";"";"";"";"-0.6982771";"100.5970001";"https://maps.google.com/?cid=0x0:0xaaae170923c1c2f9";""
"komplek housing";"Komplek perumahan";"Subuh*Rabani Home";"8J43+53C, Singkarak, Kec. X Koto Singkarak, Kabupaten Solok, Sumatera Barat 27356";"Singkarak, Kec. X Koto Singkarak, Kabupaten Solok";"SUMATERA BARAT";"27356";"Indonesia";"";"";"";"-0.6945024";"100.6027214";"https://maps.google.com/?cid=0x0:0xd8bfa2ff67c7ad0";""
"komplek housing";"Komplek perumahan";"Devan Daiva House";"8J23+3MV, Singkarak, Kec. X Koto Singkarak, Kabupaten Solok, Sumatera Barat 27356";"Singkarak, Kec. X Koto Singkarak, Kabupaten Solok";"SUMATERA BARAT";"27356";"Indonesia";"";"";"";"-0.6998383";"100.604171";"https://maps.google.com/?cid=0x0:0x429f5215026fc30d";""
"komplek housing";"komplek housing";"lokasi putri";"7HVR+J99, Sumani, Kec. X Koto Singkarak, Kabupaten Solok, Sumatera Barat";"Kabupaten Solok, Sumatera Barat";"SUMATERA BARAT";"";"Indonesia";"";"";"";"-0.7052192";"100.5912579";"https://maps.google.com/?cid=0x0:0xf46cf4f0736273c3";""
"komplek housing";"komplek housing";"Rumah al dotor";"8J52+FH9, Singkarak, Kec. X Koto Singkarak, Kabupaten Solok, Sumatera Barat 27356";"Singkarak, Kec. X Koto Singkarak, Kabupaten Solok";"SUMATERA BARAT";"27356";"Indonesia";"";"";"";"-0.6913385";"100.601483";"https://maps.google.com/?cid=0x0:0xd1b3908c5ebe22f2";""
"komplek housing";"Komplek perumahan";"rumah pikrii";"9H8Q+6R7, Kacang, Kec. X Koto Singkarak, Kabupaten Solok, Sumatera Barat";"Kabupaten Solok, Sumatera Barat";"SUMATERA BARAT";"";"Indonesia";"";"";"";"-0.6344532";"100.5895563";"https://maps.google.com/?cid=0x0:0x2901b67f4b60f18d";""
"komplek housing";"Perhimpunan Pengembang Perumahan";"Padang laweh";"7H97+G8Q, Padang laweh, Koto Sani, Kec. X Koto Singkarak, Kabupaten Solok, Sumatera Barat";"Kabupaten Solok, Sumatera Barat";"SUMATERA BARAT";"";"Indonesia";"";"";"";"-0.7311725";"100.5633676";"https://maps.google.com/?cid=0x0:0xee1a92eae3556203";""
"komplek housing";"Pembangunan Perumahan";"perumahan tangah sawah";"7J57+47V, Sumani, Kec. X Koto Singkarak, Kabupaten Solok, Sumatera Barat";"Kabupaten Solok, Sumatera Barat";"SUMATERA BARAT";"";"Indonesia";"";"";"";"-0.7421462";"100.6131818";"https://maps.google.com/?cid=0x0:0xb30147b888831f90";""
"komplek housing";"Komplek perumahan";"home sweet home";"7J85+X59, Tj. Bingkung, Kec. X Koto Singkarak, Kabupaten Solok, Sumatera Barat 27361";"Tj. Bingkung, Kec. X Koto Singkarak, Kabupaten Solok";"SUMATERA BARAT";"27361";"Indonesia";"";"";"";"-0.7325931";"100.6076015";"https://maps.google.com/?cid=0x0:0xd1081b2891eb15d1";""
"komplek housing";"Komplek perumahan";"Sama Child House";"9H7R+X8, Kacang, Kec. X Koto Singkarak, Kabupaten Solok, Sumatera Barat 27356";"Kacang, Kec. X Koto Singkarak, Kabupaten Solok";"SUMATERA BARAT";"27356";"Indonesia";"";"";"";"-0.6350734";"100.5907945";"https://maps.google.com/?cid=0x0:0xe7b008a6d8642552";""
"komplek housing";"Komplek perumahan";"Rumah Gadang Parawitan";"7HQR+3V7, Jl. Utama Saniangbaka, Singkarak, Kec. X Koto Singkarak, Kabupaten Solok, Sumatera Barat 27356";"Jl. Utama Saniangbaka, Singkarak, Kec. X Koto Singkarak, Kabupaten Solok";"SUMATERA BARAT";"27356";"Indonesia";"";"";"";"-0.7123343";"100.5921776";"https://maps.google.com/?cid=0x0:0x6b1abb1796fbd205";""
"komplek housing";"Komplek perumahan";"Vila bu Ema";"Jl. Sumani Sutama Raya No.16, Sumani, Kec. X Koto Singkarak, Kabupaten Solok, Sumatera Barat 27356";"Sumani, Kec. X Koto Singkarak, Kabupaten Solok";"SUMATERA BARAT";"27356";"Indonesia";"";"";"";"-0.6156547";"100.5738879";"https://maps.google.com/?cid=0x0:0xe8f52a3c37554250";""
"komplek housing";"Komplek perumahan";"Sitapung Jorong Balai - balai";"9H6Q+P5, Kacang, Kec. X Koto Singkarak, Kabupaten Solok, Sumatera Barat";"Kabupaten Solok, Sumatera Barat";"SUMATERA BARAT";"";"Indonesia";"";"";"";"-0.6381333";"100.5879765";"https://maps.google.com/?cid=0x0:0xdc0ae8a567a76357";""
"komplek housing";"Komplek perumahan";"Aulia's house";"7J58+PJV Jr. Kapuah, Sumani, Kec. X Koto Singkarak, Kabupaten Solok, Sumatera Barat";"Kabupaten Solok, Sumatera Barat";"SUMATERA BARAT";"";"Indonesia";"";"";"";"-0.7406305";"100.6165326";"https://maps.google.com/?cid=0x0:0x23d75904a95f19c1";""
"komplek housing";"komplek housing";"Kec. X Koto Singkarak";"Kabupaten Solok, Sumatera Barat";"Kabupaten Solok, Sumatera Barat";"SUMATERA BARAT";"";"Indonesia";"";"";"";"-0.6932269";"100.6021191";"https://maps.google.com/?cid=0x0:0x8ad0b8c879eacf02";""
"komplek housing";"Pembangunan Perumahan";"Parantian";"8H2W+MQQ, Jl. Aripan, Singkarak, Kec. X Koto Singkarak, Kabupaten Solok, Sumatera Barat 27356";"Jl. Aripan, Singkarak, Kec. X Koto Singkarak, Kabupaten Solok";"SUMATERA BARAT";"27356";"Indonesia";"";"";"";"-0.698277";"100.597";"https://maps.google.com/?cid=0x0:0xfd3522266e584d6d";""
"komplek housing";"Komplek perumahan";"Rumah Del susanto";"7HHP+QVP, Jl. sutama Kotosani, Sumani, Kec. X Koto Singkarak, Kabupaten Solok, Sumatera Barat 27356";"Jl. sutama Kotosani, Sumani, Kec. X Koto Singkarak, Kabupaten Solok";"SUMATERA BARAT";"27356";"Indonesia";"";"";"";"-0.7204789";"100.5871931";"https://maps.google.com/?cid=0x0:0xbbed2d32f70ac996";""
"komplek housing";"Taman";"Jl danau bahagia surau lenggek";"7HXJ+82Q, Singkarak, Kec. X Koto Singkarak, Kabupaten Solok, Sumatera Barat 27356";"Singkarak, Kec. X Koto Singkarak, Kabupaten Solok";"SUMATERA BARAT";"27356";"Indonesia";"";"";"";"-0.7016527";"100.5800972";"https://maps.google.com/?cid=0x0:0xce669ad0637a05cd";""
"komplek housing";"Komplek perumahan";"Rumah Farida";"7JF3+Q8P, Sumani, Kec. X Koto Singkarak, Kabupaten Solok, Sumatera Barat 27356";"Sumani, Kec. X Koto Singkarak, Kabupaten Solok";"SUMATERA BARAT";"27356";"Indonesia";"";"";"";"-0.7255486";"100.6033245";"https://maps.google.com/?cid=0x0:0xe9be4dbc1dfa0be5";""
"komplek housing";"Perumahan";"Ada cimon coy";"8H5X+3VV, Singkarak, Kec. X Koto Singkarak, Kabupaten Solok, Sumatera Barat 27356";"Singkarak, Kec. X Koto Singkarak, Kabupaten Solok";"SUMATERA BARAT";"27356";"Indonesia";"";"";"";"-0.692232";"100.5996583";"https://maps.google.com/?cid=0x0:0x7a240f9b797c3918";""
"komplek housing";"komplek housing";"Sumatera Barat 27381";"Kec. Bukit Sundi, Kabupaten Solok, Sumatera Barat";"Kabupaten Solok, Sumatera Barat";"SUMATERA BARAT";"";"Indonesia";"";"";"";"-0.880482";"100.7210593";"https://maps.google.com/?cid=0x0:0x506d7d81f0bcc0ca";""
"komplek housing";"Komplek perumahan";"Rumah HD";"5P65+3V3, Bukit Tandang, Kec. Bukit Sundi, Kabupaten Solok, Sumatera Barat 27381";"Bukit Tandang, Kec. Bukit Sundi, Kabupaten Solok";"SUMATERA BARAT";"27381";"Indonesia";"";"";"";"-0.8405674";"100.7101136";"https://maps.google.com/?cid=0x0:0xb465f96a9ae4c8e3";""
"komplek housing";"Komplek perumahan";"Susri’home";"4PH7+58, Kinari, Kec. Bukit Sundi, Kabupaten Solok, Sumatera Barat 27381";"Kinari, Kec. Bukit Sundi, Kabupaten Solok";"SUMATERA BARAT";"27381";"Indonesia";"";"";"";"-0.8720619";"100.7133119";"https://maps.google.com/?cid=0x0:0x5319ac0c31a7741f";""
"komplek housing";"Perumahan";"Komplek Perumahan Tj. Darek";"4PP2+M77, Tanjuang Darek, Kinari, Muaro Paneh, Bukit Sundi, Solok Regency, West Sumatra 27381";"Tanjuang Darek, Kinari, Muaro Paneh, Bukit Sundi, Solok Regency";"SUMATERA BARAT";"27381";"Indonesia";"";"";"";"-0.8633409";"100.7006729";"https://maps.google.com/?cid=0x0:0x8c2aed9c89eb0d1f";""
"komplek housing";"Komplek perumahan";"Guswirta house";"5M3X+6Q7, Muaro Paneh, Kec. Bukit Sundi, Kabupaten Solok, Sumatera Barat 27381";"Muaro Paneh, Kec. Bukit Sundi, Kabupaten Solok";"SUMATERA BARAT";"27381";"Indonesia";"";"";"";"-0.8469715";"100.6994174";"https://maps.google.com/?cid=0x0:0x94c0c67124d9925f";""
"komplek housing";"Perhimpunan Pengembang Perumahan";"ZOLDI";"4MQX+49J, Jl. Raya Kinari, Muaro Paneh, Kec. Bukit Sundi, Kabupaten Solok, Sumatera Barat";"Kabupaten Solok, Sumatera Barat";"SUMATERA BARAT";"";"Indonesia";"";"";"";"-0.8621629";"100.698384";"https://maps.google.com/?cid=0x0:0x26d5256e89153bcf";""
"komplek housing";"Komplek perumahan";"White House Datuk Putih";"4PM2+XV, Muaro Paneh, Kec. Bukit Sundi, Kabupaten Solok, Sumatera Barat 27381";"Muaro Paneh, Kec. Bukit Sundi, Kabupaten Solok";"SUMATERA BARAT";"27381";"Indonesia";"";"";"";"-0.8650734";"100.7021712";"https://maps.google.com/?cid=0x0:0x7243fa757c16915d";""
"komplek housing";"Komplek perumahan";"Manggih";"3PHR+G34, Dilam, Kec. Bukit Sundi, Kabupaten Solok, Sumatera Barat 27381";"Dilam, Kec. Bukit Sundi, Kabupaten Solok";"SUMATERA BARAT";"27381";"Indonesia";"";"";"";"-0.9212388";"100.7402163";"https://maps.google.com/?cid=0x0:0xad3075871b3b1888";""
"komplek housing";"Komplek perumahan";"Rumah Malin Nameh / Farida / Iron";"5P56+P6C, Bukit Tandang, Kec. Bukit Sundi, Kabupaten Solok, Sumatera Barat 27381";"Bukit Tandang, Kec. Bukit Sundi, Kabupaten Solok";"SUMATERA BARAT";"27381";"Indonesia";"";"";"";"-0.8406781";"100.7105189";"https://maps.google.com/?cid=0x0:0x886bac3cd6800ccb";""
"komplek housing";"Komplek perumahan";"FDMZA House";"3PPH+6V, Dilam, Kec. Bukit Sundi, Kabupaten Solok, Sumatera Barat 27381";"Dilam, Kec. Bukit Sundi, Kabupaten Solok";"SUMATERA BARAT";"27381";"Indonesia";"";"";"";"-0.9143958";"100.7296273";"https://maps.google.com/?cid=0x0:0x60b7ffa86b7c05de";""
"komplek housing";"Perhimpunan Pengembang Perumahan";"Ponti";"4PG3+X28 Ponti, Nagari Kinari, Muaro Paneh, Kec. Bukit Sundi, Kabupaten Solok, Sumatera Barat 27382";"Nagari Kinari, Muaro Paneh, Kec. Bukit Sundi, Kabupaten Solok";"SUMATERA BARAT";"27382";"Indonesia";"";"";"";"-0.8725831";"100.7025767";"https://maps.google.com/?cid=0x0:0xe31fcbbbc6669a3a";""
"komplek housing";"Pembangunan Perumahan";"Simpang tando";"4P3F+6HR, Parambahan, Kec. Bukit Sundi, Kabupaten Solok, Sumatera Barat 27381";"Parambahan, Kec. Bukit Sundi, Kabupaten Solok";"SUMATERA BARAT";"27381";"Indonesia";"";"";"";"-0.8968797";"100.7238776";"https://maps.google.com/?cid=0x0:0xa294e4bf348a2ab6";""
"komplek housing";"Pembangunan Perumahan";"Jorong suduik nagari parambahan";"4P3F+525, Jalan jorong suduik, Parambahan, Kec. Bukit Sundi, Kabupaten Solok, Sumatera Barat 27381";"Jalan jorong suduik, Parambahan, Kec. Bukit Sundi, Kabupaten Solok";"SUMATERA BARAT";"27381";"Indonesia";"";"";"";"-0.8971073";"100.7225969";"https://maps.google.com/?cid=0x0:0xe21cfb990cacb9";""
"komplek housing";"Pembangunan Perumahan";"My home";"4P3C+J9R, Parambahan, Kec. Bukit Sundi, Kabupaten Solok, Sumatera Barat 27381";"Parambahan, Kec. Bukit Sundi, Kabupaten Solok";"SUMATERA BARAT";"27381";"Indonesia";"";"";"";"-0.895432";"100.72185";"https://maps.google.com/?cid=0x0:0xfdfca28ca5c38a14";""
"komplek housing";"Komplek perumahan";"Rumah refdi";"4P3C+J9R, Parambahan, Kec. Bukit Sundi, Kabupaten Solok, Sumatera Barat 27381";"Parambahan, Kec. Bukit Sundi, Kabupaten Solok";"SUMATERA BARAT";"27381";"Indonesia";"";"";"";"-0.895432";"100.72185";"https://maps.google.com/?cid=0x0:0x7d06e534fb87e32b";""
"komplek housing";"Pembangunan Perumahan";"Rumah joa";"Tanjung, Jorong Bungo Harum, Nagari Kinari, Kec. Bukit Sundi, 27382, Muaro Paneh, Kec. Bukit Sundi, Kabupaten Solok, Sumatera Barat 27381";"Jorong Bungo Harum, Nagari Kinari, Kec. Bukit Sundi,";"SUMATERA BARAT";"27382";"Indonesia";"";"";"";"-0.8675094";"100.7017269";"https://maps.google.com/?cid=0x0:0xf906176c787dd0ed";""
"komplek housing";"komplek housing";"Rumah Nek Sima";"4MMX+CX7, Jl. Melayu, Muaro Paneh, Kec. Bukit Sundi, Kabupaten Solok, Sumatera Barat 27381";"Jl. Melayu, Muaro Paneh, Kec. Bukit Sundi, Kabupaten Solok";"SUMATERA BARAT";"27381";"Indonesia";"";"";"";"-0.8664943";"100.6998501";"https://maps.google.com/?cid=0x0:0x30c6bf6a71bb5eea";""
"komplek housing";"Komplek perumahan";"Rumah AMAI dukun";"3MQW+93, Muaro Paneh, Kec. Bukit Sundi, Kabupaten Solok, Sumatera Barat";"Kabupaten Solok, Sumatera Barat";"SUMATERA BARAT";"";"Indonesia";"";"";"";"-0.9114922";"100.6952364";"https://maps.google.com/?cid=0x0:0x21c4b5971d7d50c";""
"komplek housing";"Komplek perumahan";"Kincia Kolam Nagari Kinari";"4PP4+JXW, Muaro Paneh, Kec. Bukit Sundi, Kabupaten Solok, Sumatera Barat 27381";"Muaro Paneh, Kec. Bukit Sundi, Kabupaten Solok";"SUMATERA BARAT";"27381";"Indonesia";"";"";"";"-0.8633776";"100.7074459";"https://maps.google.com/?cid=0x0:0x23c856551ec53f4f";""
"komplek housing";"Komplek perumahan";"Sonny paradice";"5P32+6F6, Unnamed Road, Muaro Paneh, Kec. Bukit Sundi, Kabupaten Solok, Sumatera Barat 27381";"Unnamed Road, Muaro Paneh, Kec. Bukit Sundi, Kabupaten Solok";"SUMATERA BARAT";"27381";"Indonesia";"";"";"";"-0.8469638";"100.7011469";"https://maps.google.com/?cid=0x0:0x7b5facbf2602827";""
"komplek housing";"Tempat Ibadah";"Gapura mushola,jorong kurai";"4M3Q+5RG, Muaro Paneh, Kec. Bukit Sundi, Kabupaten Solok, Sumatera Barat 27381";"Muaro Paneh, Kec. Bukit Sundi, Kabupaten Solok";"SUMATERA BARAT";"27381";"Indonesia";"";"";"";"-0.8970553";"100.6895749";"https://maps.google.com/?cid=0x0:0xc5a868982e4e47b2";""
"komplek housing";"komplek housing";"Kec. Bukit Sundi";"Kabupaten Solok, Sumatera Barat";"Kabupaten Solok, Sumatera Barat";"SUMATERA BARAT";"";"Indonesia";"";"";"";"-0.9079734";"100.7416503";"https://maps.google.com/?cid=0x0:0xf6dcb05e5a7612f9";""
"komplek housing";"Pembangunan Perumahan";"Sawah Sirah";"4MFV+J5R, Sawah Sirah, Koto Kaciek, Muaro Paneh, Kec. Bukit Sundi, Kabupaten Solok, Sumatera Barat 27381";"Sawah Sirah, Koto Kaciek, Muaro Paneh, Kec. Bukit Sundi, Kabupaten Solok";"SUMATERA BARAT";"27381";"Indonesia";"";"";"";"-0.8758772";"100.6928804";"https://maps.google.com/?cid=0x0:0x54cc0d4242d3cb8e";""
"komplek housing";"Komplek perumahan";"Rumah Bustaheri";"5P75+J32, Jl. Bukit Tandang, Muaro Paneh, Kec. Bukit Sundi, Kabupaten Solok, Sumatera Barat 27381";"Jl. Bukit Tandang, Muaro Paneh, Kec. Bukit Sundi, Kabupaten Solok";"SUMATERA BARAT";"27381";"Indonesia";"";"";"";"-0.8359899";"100.7076425";"https://maps.google.com/?cid=0x0:0x98695e3414526505";""
"komplek housing";"komplek housing";"Sumatera Barat 27383";"Kabupaten Solok, Sumatera Barat";"Kabupaten Solok, Sumatera Barat";"SUMATERA BARAT";"";"Indonesia";"";"";"";"-1.0496283";"100.6985155";"https://maps.google.com/?cid=0x0:0x1091eb0d7b49db43";""
"komplek housing";"Restoran";"Kompleks Perumahan Emplasment - PTP N6 Danau Kembar";"Batang Barus, Kec. Gn. Talang, Kabupaten Solok, Sumatera Barat 27365";"Kec. Gn. Talang, Kabupaten Solok";"SUMATERA BARAT";"27365";"Indonesia";" 089517924186";"";"";"-0.9981724";"100.6358542";"https://maps.google.com/?cid=0x0:0xed4d433766bb4660";""
"komplek housing";"Komplek perumahan";"Daal House";"2P6M+GQG, Kp. Batu Dalam, Kec. Danau Kembar, Kabupaten Solok, Sumatera Barat 27383";"Kp. Batu Dalam, Kec. Danau Kembar, Kabupaten Solok";"SUMATERA BARAT";"27383";"Indonesia";"";"";"";"-0.9887684";"100.7338712";"https://maps.google.com/?cid=0x0:0x1c13d2afa5af60ab";""
"komplek housing";"Pembangunan Perumahan";"Alahan panjang";"2P36+2CJ, Kp. Batu Dalam, Kec. Danau Kembar, Kabupaten Solok, Sumatera Barat";"Kabupaten Solok, Sumatera Barat";"SUMATERA BARAT";"";"Indonesia";"";"";"";"-0.9969301";"100.7115262";"https://maps.google.com/?cid=0x0:0x7406dc7a752670a3";""
"komplek housing";"Komplek perumahan";"Rumah celok pembibitan";"WMJG+H9Q, Jorong lurah ingu, Simpang Tj. Nan IV, Kec. Danau Kembar, Kabupaten Solok, Sumatera Barat";"Kabupaten Solok, Sumatera Barat";"SUMATERA BARAT";"";"Indonesia";"";"";"";"-1.068538";"100.6759772";"https://maps.google.com/?cid=0x0:0xd158a0de7b526bae";""
"komplek housing";"Komplek perumahan";"SIMPANG JALAN TEMBUS SOLOK - PAINAN";"XM6R+6G, Simpang Tj. Nan IV, Kec. Danau Kembar, Kabupaten Solok, Sumatera Barat 27383";"Simpang Tj. Nan IV, Kec. Danau Kembar, Kabupaten Solok";"SUMATERA BARAT";"27383";"Indonesia";"";"";"";"-1.0394197";"100.6913949";"https://maps.google.com/?cid=0x0:0x568b878afeaa0fd7";""
"komplek housing";"Komplek perumahan";"Rumah Tek Sah";"Bukik sileh, Jl. Solok - Danau Kembar, Batu Banyak, Kec. Lembang Jaya, Kabupaten Solok, Sumatera Barat";"Kabupaten Solok, Sumatera Barat";"SUMATERA BARAT";"";"Indonesia";"";"";"";"-0.9477201";"100.7198053";"https://maps.google.com/?cid=0x0:0x62fbbc52975cb8df";""
"komplek housing";"Pembangunan Perumahan";"Kampung Batu Utara";"2P88+MMQ, Kampung Batu, Kec. Danau Kembar, Kabupaten Solok, Sumatera Barat 27383";"Kampung Batu, Kec. Danau Kembar, Kabupaten Solok";"SUMATERA BARAT";"27383";"Indonesia";"";"";"";"-0.9832755";"100.7167493";"https://maps.google.com/?cid=0x0:0xdccbb903e4add327";""
"komplek housing";"Pembangunan Perumahan";"Zapro resort Land";"XP3X+3R, Simpang Tj. Nan IV, Kec. Danau Kembar, Kabupaten Solok, Sumatera Barat";"Kabupaten Solok, Sumatera Barat";"SUMATERA BARAT";"";"Indonesia";"";"";"";"-1.0473517";"100.7496108";"https://maps.google.com/?cid=0x0:0x1228f2fa544b418c";""
"komplek housing";"Pembangunan Perumahan";"KANTAR";"WPVM+6GG, Jl. Dermaga, Simpang Tj. Nan IV, Kec. Danau Kembar, Kabupaten Solok, Sumatera Barat 27383";"Jl. Dermaga, Simpang Tj. Nan IV, Kec. Danau Kembar, Kabupaten Solok";"SUMATERA BARAT";"27383";"Indonesia";"";"";"";"-1.0569499";"100.7338416";"https://maps.google.com/?cid=0x0:0xe842e35500ff76c";""
"komplek housing";"Perhimpunan Pengembang Perumahan";"Griya Hannah";"XP3P+HMG, Jl. Solok - Danau Kembar, Simpang Tj. Nan IV, Kec. Danau Kembar, Kabupaten Solok, Sumatera Barat 27383";"Jl. Solok - Danau Kembar, Simpang Tj. Nan IV, Kec. Danau Kembar, Kabupaten Solok";"SUMATERA BARAT";"27383";"Indonesia";" 082250670966";"";"";"-1.0460698";"100.7366882";"https://maps.google.com/?cid=0x0:0xc7dd1dabb5afaad8";""
"komplek housing";"Komplek perumahan";"rumah irsar hadi";"2P87+8R2, Kp. Batu Dalam, Kec. Danau Kembar, Kabupaten Solok, Sumatera Barat 27383";"Kp. Batu Dalam, Kec. Danau Kembar, Kabupaten Solok";"SUMATERA BARAT";"27383";"Indonesia";"";"";"";"-0.9844661";"100.7144323";"https://maps.google.com/?cid=0x0:0xb3281f8a1aa38a5";""
"komplek housing";"Vila";"Villa Danau Kembar";"WQF9+XWM, Alahan Panjang, Kec. Lembah Gumanti, Kabupaten Solok, Sumatera Barat 27371";"Alahan Panjang, Kec. Lembah Gumanti, Kabupaten Solok";"SUMATERA BARAT";"27371";"Indonesia";"";"";"";"-1.075035";"100.7697977";"https://maps.google.com/?cid=0x0:0x45cbd3aff30854d6";""
"komplek housing";"komplek housing";"Rumah RavelAina";"WPVM+345, Jl. Dermaga, Simpang Tj. Nan IV, Kec. Danau Kembar, Kabupaten Solok, Sumatera Barat 27383";"Jl. Dermaga, Simpang Tj. Nan IV, Kec. Danau Kembar, Kabupaten Solok";"SUMATERA BARAT";"27383";"Indonesia";"";"";"";"-1.0569499";"100.7338416";"https://maps.google.com/?cid=0x0:0x94f2303cb50a1352";""
"komplek housing";"Komplek perumahan";"Home Nadila";"2P7H+PRG, Kp. Batu Dalam, Kec. Danau Kembar, Kabupaten Solok, Sumatera Barat 27383";"Kp. Batu Dalam, Kec. Danau Kembar, Kabupaten Solok";"SUMATERA BARAT";"27383";"Indonesia";"";"";"";"-0.9855589";"100.7298935";"https://maps.google.com/?cid=0x0:0xbeafd5ebc3bc6e1c";""
"komplek housing";"Komplek perumahan";"Kampuang Jubadak";"Jalan Lintas Bayang, Alahan panjang, Kec. Danau Kembar, Kabupaten Solok, Sumatera Barat";"Kabupaten Solok, Sumatera Barat";"SUMATERA BARAT";"";"Indonesia";"";"";"";"-1.0943378";"100.6570957";"https://maps.google.com/?cid=0x0:0xd68bbd73c9ca89be";""
"komplek housing";"komplek housing";"Istana Tek Nurbaiti";"3PH2+QFV, Limau Lunggo, Kec. Lembang Jaya, Kabupaten Solok, Sumatera Barat";"Kabupaten Solok, Sumatera Barat";"SUMATERA BARAT";"";"Indonesia";"";"";"";"-0.920576";"100.7012365";"https://maps.google.com/?cid=0x0:0xe0e3f90ba4d4d31c";""
"komplek housing";"Komplek perumahan";"Bukit bendang";"WPR7+QF2 Kebun kopi, Simpang Tj. Nan IV, Kec. Danau Kembar, Kabupaten Solok, Sumatera Barat 27383";"Simpang Tj. Nan IV, Kec. Danau Kembar, Kabupaten Solok";"SUMATERA BARAT";"27383";"Indonesia";"";"";"";"-1.0589955";"100.7143699";"https://maps.google.com/?cid=0x0:0x5ac1484d5070f7bf";""
"komplek housing";"Perhimpunan Pengembang Perumahan";"Rumah Dinda";"WPXQ+9CP, Kampung dalam timur, Kec. Danau Kembar, Kabupaten Solok, Sumatera Barat";"Kabupaten Solok, Sumatera Barat";"SUMATERA BARAT";"";"Indonesia";"";"";"";"-1.051527";"100.7385673";"https://maps.google.com/?cid=0x0:0x8ecc15bdca7ca7b2";""
"komplek housing";"Pembangunan Perumahan";"Perumahan canber";"WQVC+W4W, Unnamed Road, Alahan Panjang, Kec. Lembah Gumanti, Kabupaten Solok, Sumatera Barat 27371";"Unnamed Road, Alahan Panjang, Kec. Lembah Gumanti, Kabupaten Solok";"SUMATERA BARAT";"27371";"Indonesia";"";"";"";"-1.05513";"100.770336";"https://maps.google.com/?cid=0x0:0xb478341b033b74a8";""
"komplek housing";"Komplek perumahan";"Kampuang Limau Sundai";"Kp. Batu Dalam, Kec. Danau Kembar, Kabupaten Solok, Sumatera Barat";"Kabupaten Solok, Sumatera Barat";"SUMATERA BARAT";"";"Indonesia";"";"";"";"-1.0164174";"100.6884494";"https://maps.google.com/?cid=0x0:0xc7f7dd8ba1ad4225";""
"komplek housing";"komplek housing";"Simpang ampek jalan kalabuang";"XP4Q+HFW, Simpang Tj. Nan IV, Kec. Danau Kembar, Kabupaten Solok, Sumatera Barat";"Kabupaten Solok, Sumatera Barat";"SUMATERA BARAT";"";"Indonesia";"";"";"";"-1.043668";"100.739299";"https://maps.google.com/?cid=0x0:0x397691491e568f";""
"komplek housing";"komplek housing";"Kec. Danau Kembar";"Kabupaten Solok, Sumatera Barat";"Kabupaten Solok, Sumatera Barat";"SUMATERA BARAT";"";"Indonesia";"";"";"";"-1.0515391";"100.7386395";"https://maps.google.com/?cid=0x0:0x6cd44f6af45b3bfe";""
"komplek housing";"Komplek perumahan";"Bendang punyo";"WPR7+CP5, Simpang Tj. Nan IV, Kec. Danau Kembar, Kabupaten Solok, Sumatera Barat 27383";"Simpang Tj. Nan IV, Kec. Danau Kembar, Kabupaten Solok";"SUMATERA BARAT";"27383";"Indonesia";"";"";"";"-1.0589888";"100.7143632";"https://maps.google.com/?cid=0x0:0xdfc2b8f9b4698800";""
"komplek housing";"Kantor Perusahaan";"Kantor Camat Danau Kembar";"XP3P+255, Simpang Tj. Nan IV, Kec. Danau Kembar, Kabupaten Solok, Sumatera Barat 27383";"Simpang Tj. Nan IV, Kec. Danau Kembar, Kabupaten Solok";"SUMATERA BARAT";"27383";"Indonesia";"";"";"";"-1.0474877";"100.7354706";"https://maps.google.com/?cid=0x0:0x1885aa43f3f050b3";""
"komplek housing";"Pembangunan Perumahan";"Rumah indah farel";"2P98+7GJ, Batu Bajanjang, Kec. Danau Kembar, Kabupaten Solok, Sumatera Barat 27383";"Batu Bajanjang, Kec. Danau Kembar, Kabupaten Solok";"SUMATERA BARAT";"27383";"Indonesia";"";"";"";"-0.981974";"100.7168007";"https://maps.google.com/?cid=0x0:0x6a6999214444a836";""
"komplek housing";"Komplek perumahan";"Batu Ampa";"WMJG+H9Q, Simpang Tj. Nan IV, Kec. Danau Kembar, Kabupaten Solok, Sumatera Barat 27383";"Simpang Tj. Nan IV, Kec. Danau Kembar, Kabupaten Solok";"SUMATERA BARAT";"27383";"Indonesia";"";"";"";"-1.068538";"100.6759772";"https://maps.google.com/?cid=0x0:0x1c7fe2ec513b9292";""
"komplek housing";"Komplek perumahan";"Simpang SD embung sungai nanam";"XQ35+28G, Jl. Sp Kulik Manih - Taratak Pauah, Simpang Tj. Nan IV, Kec. Danau Kembar, Kabupaten Solok, Sumatera Barat 27383";"Jl. Sp Kulik Manih - Taratak Pauah, Simpang Tj. Nan IV, Kec. Danau Kembar, Kabupaten Solok";"SUMATERA BARAT";"27383";"Indonesia";"";"";"";"-1.0474321";"100.7583305";"https://maps.google.com/?cid=0x0:0x2d5c4ea413b2e18b";""
"komplek housing";"komplek housing";"Sumatera Barat 27365";"Sungai Janiah, Kec. Gn. Talang, Kabupaten Solok, Sumatera Barat";"Kabupaten Solok, Sumatera Barat";"SUMATERA BARAT";"";"Indonesia";"";"";"";"-0.9839728";"100.6421799";"https://maps.google.com/?cid=0x0:0x5fc7d702b5ac8ad6";""
"komplek housing";"Komplek perumahan";"Perumahan";"4MCC+QJ, Cupak, Kec. Gn. Talang, Kabupaten Solok, Sumatera Barat 27365";"Cupak, Kec. Gn. Talang, Kabupaten Solok";"SUMATERA BARAT";"27365";"Indonesia";"";"";"";"-0.8781493";"100.6716333";"https://maps.google.com/?cid=0x0:0xffeb5c47667829e5";""
"komplek housing";"Komplek perumahan";"Perumahan Zares";"4J7V+W52, Talang, Kec. Gn. Talang, Kabupaten Solok, Sumatera Barat 27365";"Talang, Kec. Gn. Talang, Kabupaten Solok";"SUMATERA BARAT";"27365";"Indonesia";" 081276982839";"";"";"-0.8857646";"100.642246";"https://maps.google.com/?cid=0x0:0xf22c7b1e239e5ef7";""
"komplek housing";"Komplek perumahan";"Lorong perumahan AFD B";"XJXQ+M3V, Batang Barus, Kec. Gn. Talang, Kabupaten Solok, Sumatera Barat 27365";"Batang Barus, Kec. Gn. Talang, Kabupaten Solok";"SUMATERA BARAT";"27365";"Indonesia";"";"";"";"-1.0007665";"100.6376781";"https://maps.google.com/?cid=0x0:0x81539b8c4bd7cc07";""
"komplek housing";"Komplek perumahan";"M͒r͒-͒R͒a͒f͒";"4JGX+GRC, Cupak, Kec. Gn. Talang, Kabupaten Solok, Sumatera Barat 27365";"Cupak, Kec. Gn. Talang, Kabupaten Solok";"SUMATERA BARAT";"27365";"Indonesia";" 081372440513";"";"";"-0.8735858";"100.6496777";"https://maps.google.com/?cid=0x0:0x51a109f5a3b30092";""
"komplek housing";"Perhimpunan Pengembang Perumahan";"Rumah Tek Manti";"4M97+JM5, Cupak, Kec. Gn. Talang, Kabupaten Solok, Sumatera Barat 27365";"Cupak, Kec. Gn. Talang, Kabupaten Solok";"SUMATERA BARAT";"27365";"Indonesia";"";"";"";"-0.8809951";"100.6642422";"https://maps.google.com/?cid=0x0:0x85848b93b30a9635";""
"komplek housing";"Komplek perumahan";"Rumah Laila - Nuha";"4JHQ+338, Jl. Sawah Taluak, Cupak, Kec. Gn. Talang, Kabupaten Solok, Sumatera Barat 27365";"Jl. Sawah Taluak, Cupak, Kec. Gn. Talang, Kabupaten Solok";"SUMATERA BARAT";"27365";"Indonesia";"";"";"";"-0.872339";"100.637711";"https://maps.google.com/?cid=0x0:0xed2f421366ca4b61";""
"komplek housing";"komplek housing";"Atuk Nenek Aqlan";"4J4X+34V, Cupak, Talang, Kec. Gn. Talang, Kabupaten Solok, Sumatera Barat";"Kabupaten Solok, Sumatera Barat";"SUMATERA BARAT";"";"Indonesia";"";"";"";"-0.8947597";"100.647812";"https://maps.google.com/?cid=0x0:0xb21ed14e7ee48a78";""
"komplek housing";"Pembangunan Perumahan";"Perumahan Genta Vanilla Arum";"2JG3+HMJ, Batang Barus, Kec. Gn. Talang, Kabupaten Solok, Sumatera Barat";"Kabupaten Solok, Sumatera Barat";"SUMATERA BARAT";"";"Indonesia";"";"";"";"-0.973567";"100.604858";"https://maps.google.com/?cid=0x0:0x9d739bb04c256cf8";""
"komplek housing";"Perhimpunan Pengembang Perumahan";"Khairul  Idrasasmita’s House";"3MJC+796, Sungai Janiah, Kec. Gn. Talang, Kabupaten Solok, Sumatera Barat 27365";"Sungai Janiah, Kec. Gn. Talang, Kabupaten Solok";"SUMATERA BARAT";"27365";"Indonesia";"";"";"";"-0.9189137";"100.6693167";"https://maps.google.com/?cid=0x0:0x5c34b9f88d07a05d";""
"komplek housing";"Komplek perumahan";"Home Tek ISfarni";"Talang, Kec. Gn. Talang, Kabupaten Solok, Sumatera Barat";"Kabupaten Solok, Sumatera Barat";"SUMATERA BARAT";"";"Indonesia";"";"";"";"-0.9070417";"100.6528182";"https://maps.google.com/?cid=0x0:0xaa55461674fec7da";""
"komplek housing";"Komplek perumahan";"Galeri Ummah Shanum";"3J7C+GXV, Perumahan green Hill dua, Koto Gaek Guguak, Kec. Gn. Talang, Kabupaten Solok, Sumatera Barat";"Kabupaten Solok, Sumatera Barat";"SUMATERA BARAT";"";"Indonesia";" 082386105005";"";"";"-0.9361415";"100.6224141";"https://maps.google.com/?cid=0x0:0x782a8cdd969909b0";""
"komplek housing";"Gedung Apartemen";"RUMAH FARHAN";"4JHP+6W8, Cupak, Kec. Gn. Talang, Kabupaten Solok, Sumatera Barat 27365";"Cupak, Kec. Gn. Talang, Kabupaten Solok";"SUMATERA BARAT";"27365";"Indonesia";"";"";"";"-0.8719557";"100.6373717";"https://maps.google.com/?cid=0x0:0x77b3a1efa0a242d1";""
"komplek housing";"Komplek perumahan";"Mr.Matasamurai";"3JPJ+JRF, Koto Gadang Guguak, Kec. Gn. Talang, Kabupaten Solok, Sumatera Barat 27365";"Koto Gadang Guguak, Kec. Gn. Talang, Kabupaten Solok";"SUMATERA BARAT";"27365";"Indonesia";"";"";"";"-0.9133728";"100.6318658";"https://maps.google.com/?cid=0x0:0xbc1557ab96bb6d2d";""
"komplek housing";"Komplek perumahan";"Kholan city";"3JCP+22P, Koto Gadang Guguak, Kec. Gn. Talang, Kabupaten Solok, Sumatera Barat 27365";"Koto Gadang Guguak, Kec. Gn. Talang, Kabupaten Solok";"SUMATERA BARAT";"27365";"Indonesia";"";"";"";"-0.9299213";"100.6350707";"https://maps.google.com/?cid=0x0:0x7a8953c623d73763";""
"komplek housing";"Pembangunan Perumahan";"DESWITA";"4MM9+GH, Cupak, Kec. Gn. Talang, Kabupaten Solok, Sumatera Barat 27365";"Cupak, Kec. Gn. Talang, Kabupaten Solok";"SUMATERA BARAT";"27365";"Indonesia";" 082382144414";"";"";"-0.8662159";"100.6689085";"https://maps.google.com/?cid=0x0:0x14c55dc9eeefc27c";""
"komplek housing";"Komplek perumahan";"SIMPANG 3 ANAGURA";"3JPJ+HPH, Koto Gadang Guguak, Kec. Gn. Talang, Kabupaten Solok, Sumatera Barat 27365";"Koto Gadang Guguak, Kec. Gn. Talang, Kabupaten Solok";"SUMATERA BARAT";"27365";"Indonesia";"";"";"";"-0.9133732";"100.6318675";"https://maps.google.com/?cid=0x0:0x99fa7d10f41c3315";""
"komplek housing";"Komplek perumahan";"Rumah buk Des";"4M4F+25M, Cupak, Kec. Gn. Talang, Kabupaten Solok, Sumatera Barat 27365";"Cupak, Kec. Gn. Talang, Kabupaten Solok";"SUMATERA BARAT";"27365";"Indonesia";"";"";"";"-0.8949142";"100.6729274";"https://maps.google.com/?cid=0x0:0x6d92b473e9e0660b";""
"komplek housing";"Dapur Umum";"Rumah Nek Wo";"3JGC+R5J, Unnamed Road, Koto Gaek Guguak, Kec. Gn. Talang, Kabupaten Solok, Sumatera Barat 27365";"Unnamed Road, Koto Gaek Guguak, Kec. Gn. Talang, Kabupaten Solok";"SUMATERA BARAT";"27365";"Indonesia";"";"";"";"-0.9229059";"100.6203984";"https://maps.google.com/?cid=0x0:0xa67e6a9ea336670e";""
"komplek housing";"Perhimpunan Pengembang Perumahan";"Rumah amak fifi";"4J7P+7XW, Jalan Panarian, Talang, Kec. Gn. Talang, Kabupaten Solok, Sumatera Barat 27365";"Jalan Panarian, Talang, Kec. Gn. Talang, Kabupaten Solok";"SUMATERA BARAT";"27365";"Indonesia";"";"";"";"-0.8867565";"100.6374669";"https://maps.google.com/?cid=0x0:0xcf42ff5bc4cf3b65";""
"komplek housing";"Pembangunan Perumahan";"kubang balau";"4J2Q+G3G, Talang, Kec. Gn. Talang, Kabupaten Solok, Sumatera Barat 27365";"Talang, Kec. Gn. Talang, Kabupaten Solok";"SUMATERA BARAT";"27365";"Indonesia";"";"";"";"-0.8987513";"100.6379789";"https://maps.google.com/?cid=0x0:0x40463e7d47de8007";""
"komplek housing";"Vila";"VILLA EL SAID";"3J7H+CFP, Jl. Lintas Sumatera, Koto Gadang Guguak, Kec. Gn. Talang, Kabupaten Solok, Sumatera Barat 27365";"Jl. Lintas Sumatera, Koto Gadang Guguak, Kec. Gn. Talang, Kabupaten Solok";"SUMATERA BARAT";"27365";"Indonesia";"";"";"";"-0.936402";"100.6286924";"https://maps.google.com/?cid=0x0:0xa58eddff24208096";""
"komplek housing";"komplek housing";"Kec. Gn. Talang";"Kabupaten Solok, Sumatera Barat";"Kabupaten Solok, Sumatera Barat";"SUMATERA BARAT";"";"Indonesia";"";"";"";"-0.915628";"100.6325113";"https://maps.google.com/?cid=0x0:0xdc1272a4de08cacb";""
"komplek housing";"Komplek perumahan";"Rumah Zahra";"4JHP+6W8, Cupak, Kec. Gn. Talang, Kabupaten Solok, Sumatera Barat 27365";"Cupak, Kec. Gn. Talang, Kabupaten Solok";"SUMATERA BARAT";"27365";"Indonesia";"";"";"";"-0.8712551";"100.6371065";"https://maps.google.com/?cid=0x0:0x5a80516071eb74cb";""
"komplek housing";"Komplek perumahan";"Rumah rizki kurnia ilahi";"4JJP+PH6, Jl. Guguak Rantau - Cupak, Cupak, Kec. Gn. Talang, Kabupaten Solok, Sumatera Barat 27365";"Jl. Guguak Rantau - Cupak, Cupak, Kec. Gn. Talang, Kabupaten Solok";"SUMATERA BARAT";"27365";"Indonesia";"";"";"";"-0.8684687";"100.6362123";"https://maps.google.com/?cid=0x0:0xc83935e486fecc5a";""
"komplek housing";"Komplek perumahan";"Rumah";"3JVX+H6X, Jl. Tabek Pala, Talang, Kec. Gn. Talang, Kabupaten Solok, Sumatera Barat 27365";"Jl. Tabek Pala, Talang, Kec. Gn. Talang, Kabupaten Solok";"SUMATERA BARAT";"27365";"Indonesia";"";"";"";"-0.9075202";"100.6530148";"https://maps.google.com/?cid=0x0:0xfde989e7d247888";""
"komplek housing";"komplek housing";"Kec. Hiliran Gumanti";"Kabupaten Solok, Sumatera Barat";"Kabupaten Solok, Sumatera Barat";"SUMATERA BARAT";"";"Indonesia";"";"";"";"-1.0918005";"100.8747525";"https://maps.google.com/?cid=0x0:0x4039d80b220e1f0";""
"komplek housing";"Perhimpunan Pengembang Perumahan";"Hrk's";"RXP6+X47, Sungai Abu, Kec. Hiliran Gumanti, Kabupaten Solok, Sumatera Barat 27372";"Sungai Abu, Kec. Hiliran Gumanti, Kabupaten Solok";"SUMATERA BARAT";"27372";"Indonesia";"";"";"";"-1.1625766";"100.9603032";"https://maps.google.com/?cid=0x0:0x15b6b067e35171ea";""
"komplek housing";"Perhimpunan Pengembang Perumahan";"Rumah irat";"RWX7+PPF, Sariak Alahan Tigo, Kec. Hiliran Gumanti, Kabupaten Solok, Sumatera Barat 27372";"Sariak Alahan Tigo, Kec. Hiliran Gumanti, Kabupaten Solok";"SUMATERA BARAT";"27372";"Indonesia";"";"";"";"-1.1506882";"100.9142915";"https://maps.google.com/?cid=0x0:0x3907bdecb7ff2f36";""
"komplek housing";"Pembangunan Perumahan";"Musik audio";"WV99+QGP, Talang Babungo, Kec. Hiliran Gumanti, Kabupaten Solok, Sumatera Barat 27372";"Talang Babungo, Kec. Hiliran Gumanti, Kabupaten Solok";"SUMATERA BARAT";"27372";"Indonesia";"";"";"";"-1.0805339";"100.8688889";"https://maps.google.com/?cid=0x0:0xb6ff1fac92e5f8d8";""
"komplek housing";"Komplek perumahan";"DHANA_XXO";"RX9M+3P5, Sungai Abu, Kec. Hiliran Gumanti, Kabupaten Solok, Sumatera Barat 27372";"Sungai Abu, Kec. Hiliran Gumanti, Kabupaten Solok";"SUMATERA BARAT";"27372";"Indonesia";"";"";"";"-1.1823722";"100.9842558";"https://maps.google.com/?cid=0x0:0x6f04545f8415fdb1";""
"komplek housing";"Komplek perumahan";"Rumah Resi";"RX9M+3P5, Sungai Abu, Kec. Hiliran Gumanti, Kabupaten Solok, Sumatera Barat 27372";"Sungai Abu, Kec. Hiliran Gumanti, Kabupaten Solok";"SUMATERA BARAT";"27372";"Indonesia";"";"";"";"-1.1823701";"100.9842527";"https://maps.google.com/?cid=0x0:0x7ac8ffaa95674f1a";""
"komplek housing";"Komplek perumahan";"Rumah viona";"RX9M+4J4, Sungai Abu, Kec. Hiliran Gumanti, Kabupaten Solok, Sumatera Barat 27372";"Sungai Abu, Kec. Hiliran Gumanti, Kabupaten Solok";"SUMATERA BARAT";"27372";"Indonesia";"";"";"";"-1.1822372";"100.9840656";"https://maps.google.com/?cid=0x0:0x2a73c57c7a77fc99";""
"komplek housing";"Perhimpunan Pengembang Perumahan";"Posko";"WV4G+WGP, Talang Babungo, Kec. Hiliran Gumanti, Kabupaten Solok, Sumatera Barat 27372";"Talang Babungo, Kec. Hiliran Gumanti, Kabupaten Solok";"SUMATERA BARAT";"27372";"Indonesia";"";"";"";"-1.0924277";"100.8762654";"https://maps.google.com/?cid=0x0:0xe067c380ae5d356a";""
"komplek housing";"Pembangunan Perumahan";"Batman house";"VWFW+4G7, Sariak Alahan Tigo, Kec. Hiliran Gumanti, Kabupaten Solok, Sumatera Barat 27372";"Sariak Alahan Tigo, Kec. Hiliran Gumanti, Kabupaten Solok";"SUMATERA BARAT";"27372";"Indonesia";"";"";"";"-1.127424";"100.946275";"https://maps.google.com/?cid=0x0:0x6a5bc5d78e390cee";""
"komplek housing";"Komplek perumahan";"Rumah denii";"VWFW+4CW, Sariak Alahan Tigo, Kec. Hiliran Gumanti, Kabupaten Solok, Sumatera Barat 27372";"Sariak Alahan Tigo, Kec. Hiliran Gumanti, Kabupaten Solok";"SUMATERA BARAT";"27372";"Indonesia";"";"";"";"-1.1271122";"100.9461339";"https://maps.google.com/?cid=0x0:0x8ea18af16bf24ae2";""
"komplek housing";"Komplek perumahan";"Timbulun";"RXM4+XP, Sungai Abu, Kec. Hiliran Gumanti, Kabupaten Solok, Sumatera Barat";"Kabupaten Solok, Sumatera Barat";"SUMATERA BARAT";"";"Indonesia";"";"";"";"-1.164992";"100.9568377";"https://maps.google.com/?cid=0x0:0x413aa4f560df55fe";""
"komplek housing";"Komplek perumahan";"unit barber";"VX47+H7M, Sariak Alahan Tigo, Kec. Hiliran Gumanti, Kabupaten Solok, Sumatera Barat 27372";"Sariak Alahan Tigo, Kec. Hiliran Gumanti, Kabupaten Solok";"SUMATERA BARAT";"27372";"Indonesia";"";"";"";"-1.1443766";"100.9627039";"https://maps.google.com/?cid=0x0:0xbf0eb49301ccec4";""
"komplek housing";"Komplek perumahan";"Rumah buk Emi";"VW6F+Q83, Sariak Alahan Tigo, Kec. Hiliran Gumanti, Kabupaten Solok, Sumatera Barat 27372";"Sariak Alahan Tigo, Kec. Hiliran Gumanti, Kabupaten Solok";"SUMATERA BARAT";"27372";"Indonesia";"";"";"";"-1.1381088";"100.9233113";"https://maps.google.com/?cid=0x0:0x69e8d64c26f04b28";""
"komplek housing";"Komplek perumahan";"Rumah Mawardi  Murna";"VWRP+97P, Sariak Alahan Tigo, Kec. Hiliran Gumanti, Kabupaten Solok, Sumatera Barat 27372";"Sariak Alahan Tigo, Kec. Hiliran Gumanti, Kabupaten Solok";"SUMATERA BARAT";"27372";"Indonesia";"";"";"";"-1.1090279";"100.9357185";"https://maps.google.com/?cid=0x0:0x963fdbd7254d83ac";""
"komplek housing";"Pembangunan Perumahan";"rumah roni";"VX38+RJH, Sungai Abu, Kec. Hiliran Gumanti, Kabupaten Solok, Sumatera Barat 27372";"Sungai Abu, Kec. Hiliran Gumanti, Kabupaten Solok";"SUMATERA BARAT";"27372";"Indonesia";"";"";"";"-1.1454442";"100.9666055";"https://maps.google.com/?cid=0x0:0x2d19603dec41aac1";""
"komplek housing";"Komplek perumahan";"RUMAH BAHARUDDIN";"VW7C+43Q, Sariak Alahan Tigo, Kec. Hiliran Gumanti, Kabupaten Solok, Sumatera Barat 27372";"Sariak Alahan Tigo, Kec. Hiliran Gumanti, Kabupaten Solok";"SUMATERA BARAT";"27372";"Indonesia";"";"";"";"-1.1371623";"100.9202205";"https://maps.google.com/?cid=0x0:0xc0642bc66cf2fcd8";""
"komplek housing";"Gedung Apartemen";"Pondok Ateh";"WVGH+6P, Talang Babungo, Kec. Hiliran Gumanti, Kabupaten Solok, Sumatera Barat";"Kabupaten Solok, Sumatera Barat";"SUMATERA BARAT";"";"Indonesia";"";"";"";"-1.0744169";"100.87936";"https://maps.google.com/?cid=0x0:0x393406ad3017b44";""
"komplek housing";"Komplek perumahan";"Rumah Widia";"VW7R+388, Sariak Alahan Tigo, Kec. Hiliran Gumanti, Kabupaten Solok, Sumatera Barat 27372";"Sariak Alahan Tigo, Kec. Hiliran Gumanti, Kabupaten Solok";"SUMATERA BARAT";"27372";"Indonesia";"";"";"";"-1.1365471";"100.9408198";"https://maps.google.com/?cid=0x0:0x9917483672a3d8fd";""
"komplek housing";"Komplek perumahan";"Rumah Abrar🏡";"VWGF+8MP, Sariak Alahan Tigo, Kec. Hiliran Gumanti, Kabupaten Solok, Sumatera Barat 27372";"Sariak Alahan Tigo, Kec. Hiliran Gumanti, Kabupaten Solok";"SUMATERA BARAT";"27372";"Indonesia";"";"";"";"-1.1241565";"100.9241963";"https://maps.google.com/?cid=0x0:0xf7494ad0e465cd21";""
"komplek housing";"Komplek perumahan";"RUMAH LINDA";"VW7C+FG7, Sariak Alahan Tigo, Kec. Hiliran Gumanti, Kabupaten Solok, Sumatera Barat 27372";"Sariak Alahan Tigo, Kec. Hiliran Gumanti, Kabupaten Solok";"SUMATERA BARAT";"27372";"Indonesia";"";"";"";"-1.1363422";"100.9212968";"https://maps.google.com/?cid=0x0:0x676c425ded2e0c79";""
"komplek housing";"Komplek perumahan";"Rumah JALMASRIl,Siak Marajo";"VWM5+PP, Sariak Alahan Tigo, Kec. Hiliran Gumanti, Kabupaten Solok, Sumatera Barat";"Kabupaten Solok, Sumatera Barat";"SUMATERA BARAT";"";"Indonesia";"";"";"";"-1.1157261";"100.9093409";"https://maps.google.com/?cid=0x0:0xcefcd19becac9b8d";""
"komplek housing";"Komplek perumahan";"Rumah Fitria";"VWQG+CX9 Jorong Sianggai-anggai, Sariak Alahan Tigo, Kec. Hiliran Gumanti, Kabupaten Solok, Sumatera Barat 27372";"Sariak Alahan Tigo, Kec. Hiliran Gumanti, Kabupaten Solok";"SUMATERA BARAT";"27372";"Indonesia";"";"";"";"-1.1114608";"100.9274805";"https://maps.google.com/?cid=0x0:0x3bdfc7549a295dd2";""
"komplek housing";"Masjid";"Nagari sariak alahan tigo";"VW8R+695, Sariak Alahan Tigo, Kec. Hiliran Gumanti, Kabupaten Solok, Sumatera Barat 27372";"Sariak Alahan Tigo, Kec. Hiliran Gumanti, Kabupaten Solok";"SUMATERA BARAT";"27372";"Indonesia";"";"";"";"-1.1344777";"100.9409791";"https://maps.google.com/?cid=0x0:0x8afcc8de2551f275";""
"komplek housing";"Komplek perumahan";"RUMAH DINA MARLIS";"VWFW+52J, Sariak Alahan Tigo, Kec. Hiliran Gumanti, Kabupaten Solok, Sumatera Barat 27372";"Sariak Alahan Tigo, Kec. Hiliran Gumanti, Kabupaten Solok";"SUMATERA BARAT";"27372";"Indonesia";"";"";"";"-1.1270262";"100.9450268";"https://maps.google.com/?cid=0x0:0xb5d4f4ccb62eee87";""
"komplek housing";"Pembangunan Perumahan";"Rumah dona taratak baru.";"VWGF+8MP, Sariak Alahan Tigo, Kec. Hiliran Gumanti, Kabupaten Solok, Sumatera Barat 27372";"Sariak Alahan Tigo, Kec. Hiliran Gumanti, Kabupaten Solok";"SUMATERA BARAT";"27372";"Indonesia";"";"";"";"-1.1241565";"100.9241963";"https://maps.google.com/?cid=0x0:0x2ac26b6ed4838b90";""
"komplek housing";"komplek housing";"Sumatera Barat 27371";"Kabupaten Solok, Sumatera Barat";"Kabupaten Solok, Sumatera Barat";"SUMATERA BARAT";"";"Indonesia";"";"";"";"-1.1341375";"100.7774424";"https://maps.google.com/?cid=0x0:0xea3f4c08347e1318";""
"komplek housing";"Komplek perumahan";"Home Ibu";"Jl. Teuku Umar No.33, Alahan Panjang, Kec. Lembah Gumanti, Kabupaten Solok, Sumatera Barat 27371";"Alahan Panjang, Kec. Lembah Gumanti, Kabupaten Solok";"SUMATERA BARAT";"27371";"Indonesia";"";"";"";"-1.0765653";"100.7841851";"https://maps.google.com/?cid=0x0:0x576476b5b903a785";""
"komplek housing";"Komplek perumahan";"House";"XQFG+PF4, Jl. Gajah Mada, Sungai Nanam, Kec. Lembah Gumanti, Kabupaten Solok, Sumatera Barat 27371";"Jl. Gajah Mada, Sungai Nanam, Kec. Lembah Gumanti, Kabupaten Solok";"SUMATERA BARAT";"27371";"Indonesia";"";"";"";"-1.025884";"100.776704";"https://maps.google.com/?cid=0x0:0x76fb90cbc3f6d550";""
"komplek housing";"";"Umamah Homestay Syariah";"Jl. Teuku Umar No.178, Alahan Panjang, Kec. Lembah Gumanti, Kabupaten Solok, Sumatera Barat 27371";"Alahan Panjang, Kec. Lembah Gumanti, Kabupaten Solok";"SUMATERA BARAT";"27371";"Indonesia";" 081371529114";"";"";"-1.0679854";"100.7731653";"https://maps.google.com/?cid=0x0:0xb144f7f5818a59d6";""
"komplek housing";"Komplek perumahan";"Rumah pella";"WRR7+P6Q, Salimpat, Kec. Lembah Gumanti, Kabupaten Solok, Sumatera Barat";"Kabupaten Solok, Sumatera Barat";"SUMATERA BARAT";"";"Indonesia";"";"";"";"-1.0581729";"100.813103";"https://maps.google.com/?cid=0x0:0xf932e9f363d4ac14";""
"komplek housing";"Kompleks Kondominium";"Komplek panai";"XQ6V+89, Sungai Nanam, Kec. Lembah Gumanti, Kabupaten Solok, Sumatera Barat";"Kabupaten Solok, Sumatera Barat";"SUMATERA BARAT";"";"Indonesia";"";"";"";"-1.0390543";"100.7933896";"https://maps.google.com/?cid=0x0:0xdbbc83e9f8642552";""
"komplek housing";"Komplek perumahan";"Palo koto (Abdul rahman) Taratak Baru";"WRG2+J89, Taratak Baru, Alahan Panjang, Kec. Lembah Gumanti, Kabupaten Solok, Sumatera Barat 27371";"Taratak Baru, Alahan Panjang, Kec. Lembah Gumanti, Kabupaten Solok";"SUMATERA BARAT";"27371";"Indonesia";"";"";"";"-1.0734552";"100.8008464";"https://maps.google.com/?cid=0x0:0xadb0c9a06d9928b2";""
"komplek housing";"Komplek perumahan";"Kampung halaman";"XQCJ+MXV, Sungai Nanam, Kec. Lembah Gumanti, Kabupaten Solok, Sumatera Barat 27371";"Sungai Nanam, Kec. Lembah Gumanti, Kabupaten Solok";"SUMATERA BARAT";"27371";"Indonesia";"";"";"";"-1.0280066";"100.7822508";"https://maps.google.com/?cid=0x0:0x62580361d5939be6";""
"komplek housing";"Pembangunan Perumahan";"Perumahan canber";"WQVC+W4W, Unnamed Road, Alahan Panjang, Kec. Lembah Gumanti, Kabupaten Solok, Sumatera Barat 27371";"Unnamed Road, Alahan Panjang, Kec. Lembah Gumanti, Kabupaten Solok";"SUMATERA BARAT";"27371";"Indonesia";"";"";"";"-1.05513";"100.770336";"https://maps.google.com/?cid=0x0:0xb478341b033b74a8";""
"komplek housing";"Komplek perumahan";"FatmaZahra house`s";"WQWM+42G, Jl. Gajah Mada, Alahan Panjang, Kec. Lembah Gumanti, Kabupaten Solok, Sumatera Barat 27371";"Jl. Gajah Mada, Alahan Panjang, Kec. Lembah Gumanti, Kabupaten Solok";"SUMATERA BARAT";"27371";"Indonesia";"";"";"";"-1.0546911";"100.7825685";"https://maps.google.com/?cid=0x0:0x6e35a773683ad599";""
"komplek housing";"Komplek perumahan";"Simpang Padang Laweh";"XQ3J+27F, Jl. Padang Laweh, Sungai Nanam, Kec. Lembah Gumanti, Kabupaten Solok, Sumatera Barat 27371";"Jl. Padang Laweh, Sungai Nanam, Kec. Lembah Gumanti, Kabupaten Solok";"SUMATERA BARAT";"27371";"Indonesia";"";"";"";"-1.0474404";"100.7806727";"https://maps.google.com/?cid=0x0:0x69ca4a7b1c3ba45b";""
"komplek housing";"Komplek perumahan";"Panai Taratak Baru";"WRF3+PGX, Taratak Baru, Salimpat, Kec. Lembah Gumanti, Kabupaten Solok, Sumatera Barat 27371";"Taratak Baru, Salimpat, Kec. Lembah Gumanti, Kabupaten Solok";"SUMATERA BARAT";"27371";"Indonesia";"";"";"";"-1.0756347";"100.8038685";"https://maps.google.com/?cid=0x0:0x217b7780fa1a2290";""
"komplek housing";"Komplek perumahan";"Rumah nugi";"WQJX+V8F, Jl. Lkr. Salimpat, Alahan Panjang, Kec. Lembah Gumanti, Kabupaten Solok, Sumatera Barat 27371";"Jl. Lkr. Salimpat, Alahan Panjang, Kec. Lembah Gumanti, Kabupaten Solok";"SUMATERA BARAT";"27371";"Indonesia";"";"";"";"-1.0678071";"100.7982956";"https://maps.google.com/?cid=0x0:0x58d4b2a16e4bd674";""
"komplek housing";"Komplek perumahan";"Rumah";"VQ8G+8XW, Aie Dingin, Kec. Lembah Gumanti, Kabupaten Solok, Sumatera Barat";"Kabupaten Solok, Sumatera Barat";"SUMATERA BARAT";"";"Indonesia";"";"";"";"-1.1341375";"100.7774424";"https://maps.google.com/?cid=0x0:0x295027ccd7547f2c";""
"komplek housing";"Perhimpunan Pengembang Perumahan";"Rumah ifa";"XQCM+WQG, Sungai Nanam, Kec. Lembah Gumanti, Kabupaten Solok, Sumatera Barat 27371";"Sungai Nanam, Kec. Lembah Gumanti, Kabupaten Solok";"SUMATERA BARAT";"27371";"Indonesia";"";"";"";"-1.0285384";"100.784562";"https://maps.google.com/?cid=0x0:0xb880b0b1a0f4d0cf";""
"komplek housing";"Perumahan";"Rumah Quenn";"Samping PERUMAHAN PERMATA GUMANTI Bukit Rampuang, Jl. Gajah Mada No.8 Blok A, Alahan Panjang, Kec. Lembah Gumanti, Kabupaten Solok, Sumatera Barat 27371";"Jl. Gajah Mada No.8 Blok A, Alahan Panjang, Kec. Lembah Gumanti, Kabupaten Solok";"SUMATERA BARAT";"27371";"Indonesia";"";"";"";"-1.0671003";"100.7877635";"https://maps.google.com/?cid=0x0:0xf1a77286c72f541a";""
"komplek housing";"Komplek perumahan";"Rumah";"WQWM+42G, Jl. Gajah Mada, bukit rampuang, Alahan Panjang, Kec. Lembah Gumanti, Kabupaten Solok, Sumatera Barat 27371";"Jl. Gajah Mada, bukit rampuang, Alahan Panjang, Kec. Lembah Gumanti, Kabupaten Solok";"SUMATERA BARAT";"27371";"Indonesia";"";"";"";"-1.0546911";"100.7825685";"https://maps.google.com/?cid=0x0:0x1d919474cfc77a1c";""
"komplek housing";"Komplek perumahan";"inaya gurun panai";"WQGM+V64, Alahan Panjang, Kec. Lembah Gumanti, Kabupaten Solok, Sumatera Barat";"Kabupaten Solok, Sumatera Barat";"SUMATERA BARAT";"";"Indonesia";"";"";"";"-1.0728673";"100.7830826";"https://maps.google.com/?cid=0x0:0x13d1965ac383a7ae";""
"komplek housing";"Komplek perumahan";"Rumah nyaman";"XQ6V+89, Sungai Nanam, Kec. Lembah Gumanti, Kabupaten Solok, Sumatera Barat";"Kabupaten Solok, Sumatera Barat";"SUMATERA BARAT";"";"Indonesia";"";"";"";"-1.0390415";"100.7925892";"https://maps.google.com/?cid=0x0:0xe2c6ba53ea69e5f7";""
"komplek housing";"Kompleks Kondominium";"Caniago";"XQM9+RJP, Sungai Nanam, Kec. Lembah Gumanti, Kabupaten Solok, Sumatera Barat 27371";"Sungai Nanam, Kec. Lembah Gumanti, Kabupaten Solok";"SUMATERA BARAT";"27371";"Indonesia";"";"";"";"-1.0160584";"100.7697703";"https://maps.google.com/?cid=0x0:0xed87f4abdc7138e";""
"komplek housing";"Pembangunan Perumahan";"Rusly palanta";"WQ8G+PJQ, Alahan Panjang, Kec. Lembah Gumanti, Kabupaten Solok, Sumatera Barat";"Kabupaten Solok, Sumatera Barat";"SUMATERA BARAT";"";"Indonesia";"";"";"";"-1.0831721";"100.7766182";"https://maps.google.com/?cid=0x0:0xccaf214fb076a1a9";""
"komplek housing";"komplek housing";"Kec. Lembah Gumanti";"Kabupaten Solok, Sumatera Barat";"Kabupaten Solok, Sumatera Barat";"SUMATERA BARAT";"";"Indonesia";"";"";"";"-1.0759172";"100.7864805";"https://maps.google.com/?cid=0x0:0x4039d80b220e000";""
"komplek housing";"Komplek perumahan";"Rumah pak nas";"WQRH+V5M, Unnamed Road, Alahan Panjang, Kec. Lembah Gumanti, Kabupaten Solok, Sumatera Barat 27371";"Unnamed Road, Alahan Panjang, Kec. Lembah Gumanti, Kabupaten Solok";"SUMATERA BARAT";"27371";"Indonesia";"";"";"";"-1.057791";"100.7779339";"https://maps.google.com/?cid=0x0:0x942f1cab1b87e2b2";""
"komplek housing";"Pembangunan Perumahan";"Sungai Talang";"WRC9+P6R, Salimpat, Kec. Lembah Gumanti, Kabupaten Solok, Sumatera Barat 27371";"Salimpat, Kec. Lembah Gumanti, Kabupaten Solok";"SUMATERA BARAT";"27371";"Indonesia";"";"";"";"-1.0785213";"100.8179612";"https://maps.google.com/?cid=0x0:0xd1049b9f3c19292b";""
"komplek housing";"Tujuan Wisata";"Muara danau diatas";"WQFG+5HV danau diatas, Jl. Muaro Jl. Padang - Alahan Panjang, Alahan Panjang, Kec. Lembah Gumanti, Kabupaten Solok, Sumatera Barat 27371";"Jl. Muaro Jl. Padang - Alahan Panjang, Alahan Panjang, Kec. Lembah Gumanti, Kabupaten Solok";"SUMATERA BARAT";"27371";"Indonesia";"";"";"";"-1.0770125";"100.7764107";"https://maps.google.com/?cid=0x0:0xa3a039cf89bde9a4";""
"komplek housing";"Komplek perumahan";"Kubang Kuning";"RQWV+9M2, Aie Dingin, Kec. Lembah Gumanti, Kabupaten Solok, Sumatera Barat 27371";"Aie Dingin, Kec. Lembah Gumanti, Kabupaten Solok";"SUMATERA BARAT";"27371";"Indonesia";"";"";"";"-1.154113";"100.7941483";"https://maps.google.com/?cid=0x0:0x7ab6fd135f3b21a5";""
"komplek housing";"Perumahan";"Perumnas permata Gumanti Alahan panjang";"Perumnas Permata Gumanti, Jl. Gajah Mada blok.A no,6, Alahan Panjang, Kec. Lembah Gumanti, Kabupaten Solok, Sumatera Barat 27371";"Jl. Gajah Mada blok.A no,6, Alahan Panjang, Kec. Lembah Gumanti, Kabupaten Solok";"SUMATERA BARAT";"27371";"Indonesia";"";"";"";"-1.0667903";"100.7873484";"https://maps.google.com/?cid=0x0:0xf5736afeb12564f6";""
"komplek housing";"Komplek perumahan";"Rumah ya ramadhantii";"XQJ8+W6P, Sungai Nanam, Kec. Lembah Gumanti, Kabupaten Solok, Sumatera Barat 27371";"Sungai Nanam, Kec. Lembah Gumanti, Kabupaten Solok";"SUMATERA BARAT";"27371";"Indonesia";"";"";"";"-1.017655";"100.7655913";"https://maps.google.com/?cid=0x0:0x8d859412f27632c1";""
"komplek housing";"Komplek perumahan";"Simpang Taratak galundi";"WQJ9+HQW Taragak Galondi, Jl. Teuku Umar, Alahan Panjang, Kec. Lembah Gumanti, Kabupaten Solok, Sumatera Barat 27371";"Jl. Teuku Umar, Alahan Panjang, Kec. Lembah Gumanti, Kabupaten Solok";"SUMATERA BARAT";"27371";"Indonesia";"";"";"";"-1.0685543";"100.7693029";"https://maps.google.com/?cid=0x0:0x9bda64bcdd96a058";""
"komplek housing";"komplek housing";"Kec. Lembang Jaya";"Kabupaten Solok, Sumatera Barat";"Kabupaten Solok, Sumatera Barat";"SUMATERA BARAT";"";"Indonesia";"";"";"";"-0.953555";"100.7162709";"https://maps.google.com/?cid=0x0:0xacfe6d206a276f0e";""
"komplek housing";"Komplek perumahan";"Lembang apa";"2PFM+CM9, Salayo Tanang B. Sileh, Kec. Lembang Jaya, Kabupaten Solok, Sumatera Barat 27383";"Salayo Tanang B. Sileh, Kec. Lembang Jaya, Kabupaten Solok";"SUMATERA BARAT";"27383";"Indonesia";"";"";"";"-0.9764681";"100.734243";"https://maps.google.com/?cid=0x0:0x99b5d92a81391dc1";""
"komplek housing";"Komplek perumahan";"JHoGaGa";"2PCH+R7M, Batu Bajanjang, Kec. Lembang Jaya, Kabupaten Solok, Sumatera Barat 27383";"Batu Bajanjang, Kec. Lembang Jaya, Kabupaten Solok";"SUMATERA BARAT";"27383";"Indonesia";"";"";"";"-0.9779087";"100.7281628";"https://maps.google.com/?cid=0x0:0x6d23dfb677570b26";""
"komplek housing";"Komplek perumahan";"Rumah jenggo";"3MMQ+FFR, Sungai Janiah, Kec. Lembang Jaya, Kabupaten Solok, Sumatera Barat";"Kabupaten Solok, Sumatera Barat";"SUMATERA BARAT";"";"Indonesia";"";"";"";"-0.9162699";"100.6886552";"https://maps.google.com/?cid=0x0:0x48c2e1e5265a2ef4";""
"komplek housing";"Komplek perumahan";"Rumah ama";"puncak gaduang, Korong Lambah, Batu Banyak, Kec. Lembang Jaya, Kabupaten Solok, Sumatera Barat 27383";"Korong Lambah, Batu Banyak, Kec. Lembang Jaya, Kabupaten Solok";"SUMATERA BARAT";"27383";"Indonesia";"";"";"";"-0.9413708";"100.7155796";"https://maps.google.com/?cid=0x0:0xa5f211280eb6b85a";""
"komplek housing";"Pembangunan Perumahan";"Jorong balai barueh";"2P63+GV6, Batu Bajanjang, Kec. Lembang Jaya, Kabupaten Solok, Sumatera Barat";"Kabupaten Solok, Sumatera Barat";"SUMATERA BARAT";"";"Indonesia";"";"";"";"-0.9887091";"100.7046469";"https://maps.google.com/?cid=0x0:0xf77734766ca0a826";""
"komplek housing";"Perhimpunan Pengembang Perumahan";"Rumah ataa";"3P24+P78, Koto Gadang Koto Anau, Kec. Lembang Jaya, Kabupaten Solok, Sumatera Barat 27383";"Koto Gadang Koto Anau, Kec. Lembang Jaya, Kabupaten Solok";"SUMATERA BARAT";"27383";"Indonesia";"";"";"";"-0.9482096";"100.7056945";"https://maps.google.com/?cid=0x0:0x848a48ad1454b31";""
"komplek housing";"Perhimpunan Pengembang Perumahan";"Rumah hamka";"2P98+H4F, Batu Bajanjang, Kec. Lembang Jaya, Kabupaten Solok, Sumatera Barat";"Kabupaten Solok, Sumatera Barat";"SUMATERA BARAT";"";"Indonesia";"";"";"";"-0.9810602";"100.7152947";"https://maps.google.com/?cid=0x0:0x17a3f6d4a6c2df47";""
"komplek housing";"Komplek perumahan";"Satonggok Malayu bancah";"Koto Anau, Jorong panta, Koto Gadang, Kabupaten Solok, Sumatera Barat 27383";"Jorong panta, Koto Gadang, Kabupaten Solok";"SUMATERA BARAT";"27383";"Indonesia";"";"";"";"-0.9579104";"100.7126047";"https://maps.google.com/?cid=0x0:0xd99faa0f1dd4b6b";""
"komplek housing";"Perhimpunan Pengembang Perumahan";"KismanPokat";"2P6X+JPR, Salayo Tanang B. Sileh jln lakuik sabalum masjid darussallam, taratak baru, Kabupaten Solok, Sumatera Barat";"Kabupaten Solok, Sumatera Barat";"SUMATERA BARAT";"";"Indonesia";"";"";"";"-0.9883882";"100.7492685";"https://maps.google.com/?cid=0x0:0x41ca045e1d274367";""
"komplek housing";"Pembangunan Perumahan";"Rachel Khanza Home";"3M2W+8J, Limau Lunggo, Kec. Lembang Jaya, Kabupaten Solok, Sumatera Barat";"Kabupaten Solok, Sumatera Barat";"SUMATERA BARAT";"";"Indonesia";"";"";"";"-0.9490903";"100.6965692";"https://maps.google.com/?cid=0x0:0x33892295425fbc71";""
"komplek housing";"Komplek perumahan";"Rumah aziz";"3P8J+J35, Batu Banyak, Kec. Lembang Jaya, Kabupaten Solok, Sumatera Barat";"Kabupaten Solok, Sumatera Barat";"SUMATERA BARAT";"";"Indonesia";"";"";"";"-0.9334791";"100.7302301";"https://maps.google.com/?cid=0x0:0xbb6a0226619e957d";""
"komplek housing";"Komplek perumahan";"Tempat berteduh";"Jln. Raya Solok - Bukit Sileh KM. 15, Koto Laweh Sawah tundo, Kec. Lembang Jaya, Kabupaten Solok, Sumatera Barat";"Kabupaten Solok, Sumatera Barat";"SUMATERA BARAT";"";"Indonesia";"";"";"";"-0.9606048";"100.7173916";"https://maps.google.com/?cid=0x0:0x2b74a51acd63414b";""
"komplek housing";"Komplek perumahan";"Rumah dani";"3P56+FMC, Korong Lambah, Limau Lunggo, Kec. Lembang Jaya, Kabupaten Solok, Sumatera Barat 27383";"Korong Lambah, Limau Lunggo, Kec. Lembang Jaya, Kabupaten Solok";"SUMATERA BARAT";"27383";"Indonesia";"";"";"";"-0.9415351";"100.7116777";"https://maps.google.com/?cid=0x0:0x518faa8f64b0e3c5";""
"komplek housing";"Komplek perumahan";"Rumah Tek Sah";"Bukik sileh, Jl. Solok - Danau Kembar, Batu Banyak, Kec. Lembang Jaya, Kabupaten Solok, Sumatera Barat";"Kabupaten Solok, Sumatera Barat";"SUMATERA BARAT";"";"Indonesia";"";"";"";"-0.9477201";"100.7198053";"https://maps.google.com/?cid=0x0:0x62fbbc52975cb8df";""
"komplek housing";"Komplek perumahan";"Rumah EZY";"2PXC+G3, Batu Banyak, Kec. Lembang Jaya, Kabupaten Solok, Sumatera Barat";"Kabupaten Solok, Sumatera Barat";"SUMATERA BARAT";"";"Indonesia";"";"";"";"-0.9511695";"100.7202151";"https://maps.google.com/?cid=0x0:0xd5d1dc93a13100f7";""
"komplek housing";"Komplek perumahan";"pakwo";"2PCH+P8V, Batu Bajanjang, Kec. Lembang Jaya, Kabupaten Solok, Sumatera Barat";"Kabupaten Solok, Sumatera Barat";"SUMATERA BARAT";"";"Indonesia";"";"";"";"-0.9781374";"100.728289";"https://maps.google.com/?cid=0x0:0xc7187c1b64b3c5f8";""
"komplek housing";"Pembangunan Perumahan";"Rumah putra putri";"3P48+MW, Batu Bajanjang, Kec. Lembang Jaya, Kabupaten Solok, Sumatera Barat";"Kabupaten Solok, Sumatera Barat";"SUMATERA BARAT";"";"Indonesia";"";"";"";"-0.9433724";"100.7168338";"https://maps.google.com/?cid=0x0:0xb0ab1a278f4da26a";""
"komplek housing";"komplek housing";"Rumah abar";"2PX9+WF7, Batu Banyak, Kec. Lembang Jaya, Kabupaten Solok, Sumatera Barat 27383";"Batu Banyak, Kec. Lembang Jaya, Kabupaten Solok";"SUMATERA BARAT";"27383";"Indonesia";"";"";"";"-0.9502138";"100.7186872";"https://maps.google.com/?cid=0x0:0x4d807a3900b3ad2b";""
"komplek housing";"Komplek perumahan";"Meri Oliv house";"2PX5+WQW, Koto Gadang Koto Anau, Kec. Lembang Jaya, Kabupaten Solok, Sumatera Barat 27383";"Koto Gadang Koto Anau, Kec. Lembang Jaya, Kabupaten Solok";"SUMATERA BARAT";"27383";"Indonesia";"";"";"";"-0.9501726";"100.7091681";"https://maps.google.com/?cid=0x0:0xe2db2d9673e71d36";""
"komplek housing";"Komplek perumahan";"Kampung baru";"2PFH+G9, Salayo Tanang B. Sileh, Kec. Lembang Jaya, Kabupaten Solok, Sumatera Barat";"Kabupaten Solok, Sumatera Barat";"SUMATERA BARAT";"";"Indonesia";"";"";"";"-0.9761908";"100.7284544";"https://maps.google.com/?cid=0x0:0x56c75a8377383cc9";""
"komplek housing";"Komplek perumahan";"rumah saya";"2P7M+RX3, Salayo Tanang B. Sileh, Kec. Lembang Jaya, Kabupaten Solok, Sumatera Barat 27383";"Salayo Tanang B. Sileh, Kec. Lembang Jaya, Kabupaten Solok";"SUMATERA BARAT";"27383";"Indonesia";"";"";"";"-0.9854771";"100.7349267";"https://maps.google.com/?cid=0x0:0x4cd22b5e28d75b4d";""
"komplek housing";"Komplek perumahan";"Wirda Jihadita Azmi";"3PC8+47M, Limau Lunggo, Kec. Lembang Jaya, Kabupaten Solok, Sumatera Barat 27383";"Limau Lunggo, Kec. Lembang Jaya, Kabupaten Solok";"SUMATERA BARAT";"27383";"Indonesia";"";"";"";"-0.9295121";"100.7156993";"https://maps.google.com/?cid=0x0:0xb086e1bdcee0ad7a";""
"komplek housing";"Perhimpunan Pengembang Perumahan";"RUMAH SANIDAR ADNIN JALIL";"2PR7+R2Q Sawah Baruah Kinari, Jalan Balai, Koto Gadang Koto Anau, Kec. Lembang Jaya, Kabupaten Solok, Sumatera Barat 27383";"Jalan Balai, Koto Gadang Koto Anau, Kec. Lembang Jaya, Kabupaten Solok";"SUMATERA BARAT";"27383";"Indonesia";"";"";"";"-0.9579104";"100.7126047";"https://maps.google.com/?cid=0x0:0xd06cfd67a36ba0af";""
"komplek housing";"Masjid";"Simpang tigo";"2PR7+R2Q, Koto Gadang Koto Anau, Kec. Lembang Jaya, Kabupaten Solok, Sumatera Barat 27383";"Koto Gadang Koto Anau, Kec. Lembang Jaya, Kabupaten Solok";"SUMATERA BARAT";"27383";"Indonesia";"";"";"";"-0.9579104";"100.7126047";"https://maps.google.com/?cid=0x0:0x6a8865334ce3c4ee";""
"komplek housing";"Komplek perumahan";"Rumah Risma wati";"2P6M+RH9, Salayo Tanang B. Sileh, Kec. Lembang Jaya, Kabupaten Solok, Sumatera Barat 27383";"Salayo Tanang B. Sileh, Kec. Lembang Jaya, Kabupaten Solok";"SUMATERA BARAT";"27383";"Indonesia";"";"";"";"-0.9877828";"100.7335132";"https://maps.google.com/?cid=0x0:0x38c5f7e0689b6f5e";""
"komplek housing";"komplek housing";"Mry";"2PCH+P8M, Salayo Tanang B. Sileh, Kec. Lembang Jaya, Kabupaten Solok, Sumatera Barat 27383";"Salayo Tanang B. Sileh, Kec. Lembang Jaya, Kabupaten Solok";"SUMATERA BARAT";"27383";"Indonesia";"";"";"";"-0.9781658";"100.7282912";"https://maps.google.com/?cid=0x0:0xf43bce31681f1e68";""
"komplek housing";"Pembangunan Perumahan";"Kayu kalek";"2PR7+R2Q sma 1, Kayu kalek, Koto Gadang Koto Anau, Kec. Lembang Jaya, Kabupaten Solok, Sumatera Barat 27383";"Kayu kalek, Koto Gadang Koto Anau, Kec. Lembang Jaya, Kabupaten Solok";"SUMATERA BARAT";"27383";"Indonesia";"";"";"";"-0.9579104";"100.7126047";"https://maps.google.com/?cid=0x0:0xdb973da689042a79";""
"komplek housing";"Komplek perumahan";"Recco pangestoe";"3P8C+R39, Jl. Koto Laweh, Limau Lunggo, Kec. Lembang Jaya, Kabupaten Solok, Sumatera Barat 27383";"Jl. Koto Laweh, Limau Lunggo, Kec. Lembang Jaya, Kabupaten Solok";"SUMATERA BARAT";"27383";"Indonesia";"";"";"";"-0.9329062";"100.7202939";"https://maps.google.com/?cid=0x0:0xde9081640dcd207b";""
"komplek housing";"komplek housing";"Sumatera Barat 27361";"Kec. Kubung, Kabupaten Solok, Sumatera Barat";"Kabupaten Solok, Sumatera Barat";"SUMATERA BARAT";"";"Indonesia";"";"";"";"-0.8339837";"100.5971361";"https://maps.google.com/?cid=0x0:0xa5f2ceeab4e63c77";""
"komplek housing";"Komplek perumahan";"Perumahan Asam Jao Indah";"Perumahan Asam Jao Indah, Blok D 14, Panyakalan, Kec. Kubung, Kabupaten Solok, Sumatera Barat 27361";"Blok D 14, Panyakalan, Kec. Kubung, Kabupaten Solok";"SUMATERA BARAT";"27361";"Indonesia";"";"";"";"-0.8138491";"100.6707706";"https://maps.google.com/?cid=0x0:0xbe7af73ebb8295f9";""
"komplek housing";"Perhimpunan Pengembang Perumahan";"Perumahan Kubung Permai Residence";"5MHF+CH9, Jl. Solok - Muara Panas, Panyakalan, Kec. Kubung, Kabupaten Solok, Sumatera Barat 27361";"Jl. Solok - Muara Panas, Panyakalan, Kec. Kubung, Kabupaten Solok";"SUMATERA BARAT";"27361";"Indonesia";"";"";"";"-0.8219886";"100.6733249";"https://maps.google.com/?cid=0x0:0x28244f163ae69640";""
"komplek housing";"Komplek perumahan";"Komplek "Bungo Padi" Solok";"5J4X+RR6, Koto Baru, Kec. Kubung, Kabupaten Solok, Sumatera Barat 27361";"Koto Baru, Kec. Kubung, Kabupaten Solok";"SUMATERA BARAT";"27361";"Indonesia";"";"";"";"-0.8429996";"100.6493505";"https://maps.google.com/?cid=0x0:0x4fec7ed9b9da4759";""
"komplek housing";"Komplek perumahan";"Ice Family";"5MH5+G2Q, Jalan, Koto Baru, Kubung, Solok Regency, West Sumatra 27361";"Jalan, Koto Baru, Kubung, Solok Regency";"SUMATERA BARAT";"27361";"Indonesia";"";"";"";"-0.820915";"100.657646";"https://maps.google.com/?cid=0x0:0x6d9cb23044fd1dab";""
"komplek housing";"komplek housing";"Rumah Keluarga BUSRA";"4MX2+36C, Koto Baru, Kec. Kubung, Kabupaten Solok, Sumatera Barat";"Kabupaten Solok, Sumatera Barat";"SUMATERA BARAT";"";"Indonesia";"";"";"";"-0.8523064";"100.6505222";"https://maps.google.com/?cid=0x0:0x24d5b4ba22170e6d";""
"komplek housing";"Komplek perumahan";"Solok";"Jl. Selayo - Padang No.280, Koto Baru, Kec. Kubung, Kabupaten Solok, Sumatera Barat 27361";"Koto Baru, Kec. Kubung, Kabupaten Solok";"SUMATERA BARAT";"27361";"Indonesia";"";"";"";"-0.8386486";"100.6504482";"https://maps.google.com/?cid=0x0:0x3c13367c901855dc";""
"komplek housing";"Komplek perumahan";"home f7";"4MX2+369, Jl. Rabo, Koto Baru, Kec. Kubung, Kabupaten Solok, Sumatera Barat 27361";"Jl. Rabo, Koto Baru, Kec. Kubung, Kabupaten Solok";"SUMATERA BARAT";"27361";"Indonesia";"";"";"";"-0.8523397";"100.6506031";"https://maps.google.com/?cid=0x0:0xb2a09d9ba64d2fe9";""
"komplek housing";"Komplek perumahan";"Muslim House";"5M7C+X49, Jl. Sawah Luka, Koto Baru, Kec. Kubung, Kabupaten Solok, Sumatera Barat 27361";"Jl. Sawah Luka, Koto Baru, Kec. Kubung, Kabupaten Solok";"SUMATERA BARAT";"27361";"Indonesia";"";"";"";"-0.834121";"100.669988";"https://maps.google.com/?cid=0x0:0x75c11ffded7e06f9";""
"komplek housing";"Komplek perumahan";"Rumah Pitili";"5J8W+MV, Koto Baru, Kec. Kubung, Kabupaten Solok, Sumatera Barat";"Kabupaten Solok, Sumatera Barat";"SUMATERA BARAT";"";"Indonesia";"";"";"";"-0.8332487";"100.6471751";"https://maps.google.com/?cid=0x0:0xab37886369d4c727";""
"komplek housing";"Kampus Asrama";"Kenzie";"Perumahan Halaban Permai No.H-14, Panyakalan, Kec. Kubung, Kabupaten Solok, Sumatera Barat 27361";"Panyakalan, Kec. Kubung, Kabupaten Solok";"SUMATERA BARAT";"27361";"Indonesia";"";"";"";"-0.8111007";"100.6814305";"https://maps.google.com/?cid=0x0:0xb2f3fd08b8f28f32";""
"komplek housing";"Pembangunan Perumahan";"Rumah FADRI";"5J5G+5X, Selayo, Kec. Kubung, Kabupaten Solok, Sumatera Barat 27361";"Selayo, Kec. Kubung, Kabupaten Solok";"SUMATERA BARAT";"27361";"Indonesia";" 085271316075";"";"";"-0.8417197";"100.6271599";"https://maps.google.com/?cid=0x0:0x7af11d09412d006c";""
"komplek housing";"Komplek perumahan";"Rumah ku";"5JPX+WXP, Selayo, Kec. Kubung, Kabupaten Solok, Sumatera Barat 27315";"Selayo, Kec. Kubung, Kabupaten Solok";"SUMATERA BARAT";"27315";"Indonesia";"";"";"";"-0.8113606";"100.6501307";"https://maps.google.com/?cid=0x0:0xb402ac69a3860225";""
"komplek housing";"komplek housing";"Kec. Kubung";"Kabupaten Solok, Sumatera Barat";"Kabupaten Solok, Sumatera Barat";"SUMATERA BARAT";"";"Indonesia";"";"";"";"-0.8219363";"100.6554572";"https://maps.google.com/?cid=0x0:0x66373ec278975241";""
"komplek housing";"Otoritas Perumahan";"Komplek Perumahan Halaban Permai";"Panyakalan, Kec. Kubung, Kabupaten Solok, Sumatera Barat 27361";"Kec. Kubung, Kabupaten Solok";"SUMATERA BARAT";"27361";"Indonesia";" 082171996943";"";"";"-0.8109115";"100.6813686";"https://maps.google.com/?cid=0x0:0x3bdde703ab8cd42c";""
"komplek housing";"Perumahan";"Perumnas Batu Kubung";"5J3V+FQC, Koto Baru, Kec. Kubung, Kabupaten Solok, Sumatera Barat 27361";"Koto Baru, Kec. Kubung, Kabupaten Solok";"SUMATERA BARAT";"27361";"Indonesia";"";"";"";"-0.8463124";"100.644396";"https://maps.google.com/?cid=0x0:0x87654c262cda41b1";""
"komplek housing";"Komplek perumahan";"ojick home";"5MHF+CH9, Jl. Solok - Muara Panas, Panyakalan, Kec. Kubung, Kabupaten Solok, Sumatera Barat 27361";"Jl. Solok - Muara Panas, Panyakalan, Kec. Kubung, Kabupaten Solok";"SUMATERA BARAT";"27361";"Indonesia";"";"";"";"-0.8219864";"100.6732094";"https://maps.google.com/?cid=0x0:0xc297d0072068570c";""
"komplek housing";"Pembangunan Perumahan";"Perumahan Griya Madani";"5MHH+RWW, Jl. Pinang Balirik, Panyakalan, Kec. Kubung, Kabupaten Solok, Sumatera Barat 27361";"Jl. Pinang Balirik, Panyakalan, Kec. Kubung, Kabupaten Solok";"SUMATERA BARAT";"27361";"Indonesia";"";"";"";"-0.820381";"100.6798151";"https://maps.google.com/?cid=0x0:0x41631b603bf836e1";""
"komplek housing";"Perhimpunan Pengembang Perumahan";"kampunh";"6M9J+8G, Saok Laweh, Kec. Kubung, Kabupaten Solok, Sumatera Barat 27361";"Saok Laweh, Kec. Kubung, Kabupaten Solok";"SUMATERA BARAT";"27361";"Indonesia";"";"";"";"-0.7816707";"100.681345";"https://maps.google.com/?cid=0x0:0x478c7312ee0dc62b";""
"komplek housing";"Jasa Pernikahan";"Mega indah pelaminan  Central music";"Jl. Singkarak Raya No.120, Koto Baru, Kec. Kubung, Kabupaten Solok, Sumatera Barat 27361";"Koto Baru, Kec. Kubung, Kabupaten Solok";"SUMATERA BARAT";"27361";"Indonesia";" 081383494110";"";"";"-0.8473068";"100.6440239";"https://maps.google.com/?cid=0x0:0x3124498be6401d25";""
"komplek housing";"Kompleks Apartemen";"Rumah digry";"5PM2+X5Q, Panyakalan, Kec. Kubung, Kabupaten Solok, Sumatera Barat 27361";"Panyakalan, Kec. Kubung, Kabupaten Solok";"SUMATERA BARAT";"27361";"Indonesia";"";"";"";"-0.8159682";"100.7005591";"https://maps.google.com/?cid=0x0:0x424f88eedf8ce19d";""
"komplek housing";"Pembangunan Perumahan";"Rumah saya";"5M98+PVC, Koto Baru, Kec. Kubung, Kabupaten Solok, Sumatera Barat 27361";"Koto Baru, Kec. Kubung, Kabupaten Solok";"SUMATERA BARAT";"27361";"Indonesia";"";"";"";"-0.8306795";"100.6671342";"https://maps.google.com/?cid=0x0:0x7647362672c7539f";""
"komplek housing";"komplek housing";"Rumah GustioAbr";"5JJQ+H7J, Selayo, Kec. Kubung, Kabupaten Solok, Sumatera Barat 27361";"Selayo, Kec. Kubung, Kabupaten Solok";"SUMATERA BARAT";"27361";"Indonesia";"";"";"";"-0.8186151";"100.6381662";"https://maps.google.com/?cid=0x0:0x8d42e0f12cbf7401";""
"komplek housing";"Komplek perumahan";"rumah ifnarni";"5PM2+37X, Jl. Hilir Bandar, Panyakalan, Kec. Kubung, Kabupaten Solok, Sumatera Barat 27361";"Jl. Hilir Bandar, Panyakalan, Kec. Kubung, Kabupaten Solok";"SUMATERA BARAT";"27361";"Indonesia";"";"";"";"-0.8174774";"100.7007741";"https://maps.google.com/?cid=0x0:0x904fa39128fe3c6";""
"komplek housing";"Otoritas Perumahan";"Idrayalnadi";"5MPH+QQP, Jl. Raya Panyakalan, Panyakalan, Kec. Kubung, Kabupaten Solok, Sumatera Barat 27361";"Jl. Raya Panyakalan, Panyakalan, Kec. Kubung, Kabupaten Solok";"SUMATERA BARAT";"27361";"Indonesia";"";"";"";"-0.8130364";"100.6794616";"https://maps.google.com/?cid=0x0:0x8ba7f51c33ec6bbe";""
"komplek housing";"Komplek perumahan";"Rumah Rifka Jalal Acik";"Jl. Bandar Ubo No.23, Koto Baru, Kec. Kubung, Kabupaten Solok, Sumatera Barat 27361";"Koto Baru, Kec. Kubung, Kabupaten Solok";"SUMATERA BARAT";"27361";"Indonesia";"";"";"";"-0.8465967";"100.644608";"https://maps.google.com/?cid=0x0:0x5c3834db18c1fb4f";""
"komplek housing";"Pembangunan Perumahan";"Cluster Casa Cendana Regency";"Jl. WR. Supratman, RT.004/RW.007, Cimuning, Kec. Mustika Jaya, Kota Bks, Jawa Barat 17155";"RT.004/RW.007, Cimuning, Kec. Mustika Jaya, Kota Bks";"SUMATERA BARAT";"17155";"Indonesia";"";"";"";"-6.315126";"107.0281678";"https://maps.google.com/?cid=0x0:0x458ea85393cdf31f";""
"komplek housing";"komplek housing";"Komplek Housing";"Blok Bojong Nangka I, Jl. Ring Rudal Blok Bojong Nangka I No.68, RT.001/RW.007, Jatirahayu, Kec. Pd. Melati, Kota Bks, Jawa Barat 17414";"Jl. Ring Rudal Blok Bojong Nangka I No.68, RT.001/RW.007, Jatirahayu, Kec. Pd. Melati, Kota Bks";"SUMATERA BARAT";"17414";"Indonesia";"";"";"";"-6.293724";"106.9165114";"https://maps.google.com/?cid=0x0:0x9c50464976dee674";""
"komplek housing";"komplek housing";"Sumatera Barat 27388";"Kec. IX Koto Sungai Lasi, Kabupaten Solok, Sumatera Barat";"Kabupaten Solok, Sumatera Barat";"SUMATERA BARAT";"";"Indonesia";"";"";"";"-0.796184";"100.7323332";"https://maps.google.com/?cid=0x0:0x9cdaa9ce1d3ef265";""
"komplek housing";"Komplek perumahan";"H ALI Kt Batuah Family ONDOH";"Jl. Raya Paninggahan, Ondoh No 12, Subarang, Kec. Junjung Sirih, Kabupaten Solok, Sumatera Barat";"Kabupaten Solok, Sumatera Barat";"SUMATERA BARAT";"";"Indonesia";"";"";"";"-0.6468653";"100.5244467";"https://maps.google.com/?cid=0x0:0x93fafbacc315e387";""
"komplek housing";"Komplek perumahan";"Rumah Malin Nameh / Farida / Iron";"5P56+P6C, Bukit Tandang, Kec. Bukit Sundi, Kabupaten Solok, Sumatera Barat 27381";"Bukit Tandang, Kec. Bukit Sundi, Kabupaten Solok";"SUMATERA BARAT";"27381";"Indonesia";"";"";"";"-0.8406781";"100.7105189";"https://maps.google.com/?cid=0x0:0x886bac3cd6800ccb";""
"komplek housing";"Komplek perumahan";"Perumahan Asam Jao Indah";"Perumahan Asam Jao Indah, Blok D 14, Panyakalan, Kec. Kubung, Kabupaten Solok, Sumatera Barat 27361";"Blok D 14, Panyakalan, Kec. Kubung, Kabupaten Solok";"SUMATERA BARAT";"27361";"Indonesia";"";"";"";"-0.8138491";"100.6707706";"https://maps.google.com/?cid=0x0:0xbe7af73ebb8295f9";""
"komplek housing";"Komplek perumahan";"Rumah Pak Jon";"Jl. Gg. Suhada No.15, Simpang Rumbio, Kec. Lubuk Sikarah, Kota Solok, Sumatera Barat 27316";"Simpang Rumbio, Kec. Lubuk Sikarah, Kota Solok";"SUMATERA BARAT";"27316";"Indonesia";"";"";"";"-0.7975951";"100.6739068";"https://maps.google.com/?cid=0x0:0xcaf7da24ce71f2b7";""
"komplek housing";"Komplek perumahan";"Rumah Bening";"5QMQ+225, Sungai Durian, Kec. IX Koto Sungai Lasi, Kabupaten Solok, Sumatera Barat 27388";"Sungai Durian, Kec. IX Koto Sungai Lasi, Kabupaten Solok";"SUMATERA BARAT";"27388";"Indonesia";"";"";"";"-0.8168351";"100.7875446";"https://maps.google.com/?cid=0x0:0xedb919dc4167edee";""
"komplek housing";"komplek housing";"BOS VANDO";"6Q68+H98, Taruang-Taruang, Kec. IX Koto Sungai Lasi, Kabupaten Solok, Sumatera Barat 27388";"Taruang-Taruang, Kec. IX Koto Sungai Lasi, Kabupaten Solok";"SUMATERA BARAT";"27388";"Indonesia";"";"";"";"-0.7885781";"100.7659565";"https://maps.google.com/?cid=0x0:0x7e851da4ef48c31";""
"komplek housing";"Komplek perumahan";"Rumah HD";"5P65+3V3, Bukit Tandang, Kec. Bukit Sundi, Kabupaten Solok, Sumatera Barat 27381";"Bukit Tandang, Kec. Bukit Sundi, Kabupaten Solok";"SUMATERA BARAT";"27381";"Indonesia";"";"";"";"-0.8405674";"100.7101136";"https://maps.google.com/?cid=0x0:0xb465f96a9ae4c8e3";""
"komplek housing";"Komplek perumahan";"Komplek Perumahan Kincia Kolen";"4PP4+MX5, Kincia Kolen,Kinari, Muaro Paneh, Bukit Sundi, Solok Regency, West Sumatra 27381";"Kincia Kolen,Kinari, Muaro Paneh, Bukit Sundi, Solok Regency";"SUMATERA BARAT";"27381";"Indonesia";"";"";"";"-0.8633736";"100.7074994";"https://maps.google.com/?cid=0x0:0x83fec27753e9b5b";""
"komplek housing";"Komplek perumahan";"Komplek Perumahan Garuda Permai";"Jl. Basir Rustanyun No.1000, Panyakalan, Kec. Kubung, Kabupaten Solok, Sumatera Barat 27316";"Panyakalan, Kec. Kubung, Kabupaten Solok";"SUMATERA BARAT";"27316";"Indonesia";"";"";"";"-0.8105763";"100.6716882";"https://maps.google.com/?cid=0x0:0xe367b1d04b0e1032";""
"komplek housing";"Perumahan";"Komplek Perumahan Tj. Darek";"4PP2+M77, Tanjuang Darek, Kinari, Muaro Paneh, Bukit Sundi, Solok Regency, West Sumatra 27381";"Tanjuang Darek, Kinari, Muaro Paneh, Bukit Sundi, Solok Regency";"SUMATERA BARAT";"27381";"Indonesia";"";"";"";"-0.8633409";"100.7006729";"https://maps.google.com/?cid=0x0:0x8c2aed9c89eb0d1f";""
"komplek housing";"Komplek perumahan";"Kompleks Perumahan Subarang Permai";"Perumahan Subarang Permai No.2 Blok k, Panyakalan, Kec. Kubung, Kabupaten Solok, Sumatera Barat";"Kabupaten Solok, Sumatera Barat";"SUMATERA BARAT";"";"Indonesia";"";"";"";"-0.811674";"100.6813325";"https://maps.google.com/?cid=0x0:0xc828b52255be4422";""
"komplek housing";"Toko Ban Bekas";"TEMPEL BAN SI NEK";"6PPR+HJV, Jl. Lintas Sumatera, Indudur, Kec. IX Koto Sungai Lasi, Kabupaten Solok, Sumatera Barat 27388";"Jl. Lintas Sumatera, Indudur, Kec. IX Koto Sungai Lasi, Kabupaten Solok";"SUMATERA BARAT";"27388";"Indonesia";"";"";"";"-0.7635118";"100.7415425";"https://maps.google.com/?cid=0x0:0x22cd2c0fc809faf9";""
"komplek housing";"Komplek perumahan";"Rumah Tek Incan";"6M8J+JPF, Jl. Lintas Sumatera, Saok Laweh, Kec. Kubung, Kabupaten Solok, Sumatera Barat 27361";"Jl. Lintas Sumatera, Saok Laweh, Kec. Kubung, Kabupaten Solok";"SUMATERA BARAT";"27361";"Indonesia";"";"";"";"-0.7834375";"100.6818079";"https://maps.google.com/?cid=0x0:0x9850ef4ce6a83a5e";""
"komplek housing";"";"Rumah robi";"6Q7P+894, Siaro-Aro, Kec. IX Koto Sungai Lasi, Kabupaten Solok, Sumatera Barat";"Kabupaten Solok, Sumatera Barat";"SUMATERA BARAT";"";"Indonesia";"";"";"";"-0.786749";"100.7859641";"https://maps.google.com/?cid=0x0:0xa04b56f627bda9f9";""
"komplek housing";"Komplek perumahan";"Rumah Kenzo";"6MVH+755, Jalan Laing Pasir, Laing, Kec. Tj. Harapan, Kota Solok, Sumatera Barat";"Kota Solok, Sumatera Barat";"SUMATERA BARAT";"";"Indonesia";"";"";"";"-0.7568744";"100.677988";"https://maps.google.com/?cid=0x0:0x5026af557f5c9a1b";""
"komplek housing";"Komplek perumahan";"Meisya Home";"6M3G+PPH, Jl. Telaga Biruhun, Simpang Rumbio, Kec. Lubuk Sikarah, Kabupaten Solok, Sumatera Barat 27316";"Jl. Telaga Biruhun, Simpang Rumbio, Kec. Lubuk Sikarah, Kabupaten Solok";"SUMATERA BARAT";"27316";"Indonesia";"";"";"";"-0.7956759";"100.6768562";"https://maps.google.com/?cid=0x0:0xb4202089a4abb3c3";""
"komplek housing";"Komplek perumahan";"Rumah ami/farah,/icha";"5MJC+GH6, Panyakalan, Kec. Kubung, Kabupaten Solok, Sumatera Barat";"Kabupaten Solok, Sumatera Barat";"SUMATERA BARAT";"";"Indonesia";"";"";"";"-0.8187196";"100.6713752";"https://maps.google.com/?cid=0x0:0x472b79282744fdb5";""
"komplek housing";"Komplek perumahan";"Asdiyatul Rahma Residen";"5MVC+WFR, Simpang Rumbio, Kec. Lubuk Sikarah, Kota Solok, Sumatera Barat 27316";"Simpang Rumbio, Kec. Lubuk Sikarah, Kota Solok";"SUMATERA BARAT";"27316";"Indonesia";"";"";"";"-0.8051408";"100.6711317";"https://maps.google.com/?cid=0x0:0xff112116eaa2869e";""
"komplek housing";"Otoritas Perumahan";"Idrayalnadi";"5MPH+QQP, Jl. Raya Panyakalan, Panyakalan, Kec. Kubung, Kabupaten Solok, Sumatera Barat 27361";"Jl. Raya Panyakalan, Panyakalan, Kec. Kubung, Kabupaten Solok";"SUMATERA BARAT";"27361";"Indonesia";"";"";"";"-0.8130364";"100.6794616";"https://maps.google.com/?cid=0x0:0x8ba7f51c33ec6bbe";""
"komplek housing";"Perhimpunan Pengembang Perumahan";"Oma Rapiah";"8GJV+27M, Paninggahan, Kec. Junjung Sirih, Kabupaten Solok, Sumatera Barat 27388";"Paninggahan, Kec. Junjung Sirih, Kabupaten Solok";"SUMATERA BARAT";"27388";"Indonesia";"";"";"";"-0.6699151";"100.5431736";"https://maps.google.com/?cid=0x0:0xc56104b9ef01b28c";""
"komplek housing";"Toko umum";"ERMIWATi Home";"8G9Q+G6H Dusun Talago jorong gando, Paninggahan, Kec. Junjung Sirih, Kabupaten Solok, Sumatera Barat";"Kabupaten Solok, Sumatera Barat";"SUMATERA BARAT";"";"Indonesia";"";"";"";"-0.6811866";"100.5380951";"https://maps.google.com/?cid=0x0:0x4de64203ecc55489";""
"komplek housing";"Komplek perumahan";"GW House";"8GJJ+WWG, Koto Baru, Tambak, Paninggahan, Kec. Junjung Sirih, Kabupaten Solok, Sumatera Barat 27388";"Koto Baru, Tambak, Paninggahan, Kec. Junjung Sirih, Kabupaten Solok";"SUMATERA BARAT";"27388";"Indonesia";"";"";"";"-0.667686";"100.5323374";"https://maps.google.com/?cid=0x0:0xb88966894c776673";""
"komplek housing";"Komplek perumahan";"Rumah Harmonis";"8GCQ+4M3, Muaro Pingai, Kec. Junjung Sirih, Kabupaten Solok, Sumatera Barat 27388";"Muaro Pingai, Kec. Junjung Sirih, Kabupaten Solok";"SUMATERA BARAT";"27388";"Indonesia";"";"";"";"-0.6797269";"100.5391764";"https://maps.google.com/?cid=0x0:0xc9239453e2e12d02";""
"komplek housing";"Pembangunan Perumahan";"Pogoh Residence";"6M89+R6M kantor kejaksaan negeri, Belakang, Tanjung Paku, Tanjung Harapan, Solok City, West Sumatra 27317";"Belakang, Tanjung Paku, Tanjung Harapan, Solok City";"SUMATERA BARAT";"27317";"Indonesia";"";"";"";"-0.7829237";"100.6680493";"https://maps.google.com/?cid=0x0:0x478b7415f09e26a";""
"komplek housing";"komplek housing";"Kec. Junjung Sirih";"Kabupaten Solok, Sumatera Barat";"Kabupaten Solok, Sumatera Barat";"SUMATERA BARAT";"";"Indonesia";"";"";"";"-0.6709946";"100.5446755";"https://maps.google.com/?cid=0x0:0x4039d80b2211310";""
"komplek housing";"Perhimpunan Pengembang Perumahan";"Rumah Keluarga Eti Daflia";"8GMP+FG5, Jl. Raya Paninggahan, Paninggahan, Kec. Junjung Sirih, Kabupaten Solok, Sumatera Barat 27388";"Jl. Raya Paninggahan, Paninggahan, Kec. Junjung Sirih, Kabupaten Solok";"SUMATERA BARAT";"27388";"Indonesia";"";"";"";"-0.6663683";"100.5363679";"https://maps.google.com/?cid=0x0:0x445da4eeda3385b1";""
"komplek housing";"Komplek perumahan";"Rumah paninggahan";"8GVJ+7RW, Jl. Banda Gadang Paninggahan, Paninggahan, Kec. Junjung Sirih, Kabupaten Solok, Sumatera Barat 27388";"Jl. Banda Gadang Paninggahan, Paninggahan, Kec. Junjung Sirih, Kabupaten Solok";"SUMATERA BARAT";"27388";"Indonesia";"";"";"";"-0.6574966";"100.5325863";"https://maps.google.com/?cid=0x0:0x5a6d6a66605aba87";""
"komplek housing";"Komplek perumahan";"Kampuang Nan Jauh di Mato";"8GVJ+7RW, Jl. Banda Gadang Paninggahan, Paninggahan, Kec. Junjung Sirih, Kabupaten Solok, Sumatera Barat 27388";"Jl. Banda Gadang Paninggahan, Paninggahan, Kec. Junjung Sirih, Kabupaten Solok";"SUMATERA BARAT";"27388";"Indonesia";"";"";"";"-0.657166";"100.5325111";"https://maps.google.com/?cid=0x0:0xf08dcc7fd3fb13e3";""
"komplek housing";"komplek housing";"Kec. Pantai Cermin";"Kabupaten Solok, Sumatera Barat";"Kabupaten Solok, Sumatera Barat";"SUMATERA BARAT";"";"Indonesia";"";"";"";"-1.245774";"100.8795896";"https://maps.google.com/?cid=0x0:0x4039d80b220e1c0";""
"komplek housing";"komplek housing";"Kec. Pantai Cermin";"Kabupaten Serdang Bedagai, Sumatera Utara";"Kabupaten Serdang Bedagai, Sumatera Utara";"SUMATERA BARAT";"";"Indonesia";"";"";"";"3.6415546";"98.9800131";"https://maps.google.com/?cid=0x0:0x4039d80b2211650";""
"komplek housing";"Komplek perumahan";"Rumah Jasminarsy";"JXMF+57F, Ryad Andalas, Besar 2 Terjun, Kec. Pantai Cermin, Kabupaten Serdang Bedagai, Sumatera Utara 20987";"Ryad Andalas, Besar 2 Terjun, Kec. Pantai Cermin, Kabupaten Serdang Bedagai";"SUMATERA BARAT";"20987";"Indonesia";"";"";"";"3.6328863";"98.9736954";"https://maps.google.com/?cid=0x0:0x3555868fd3cedf35";""
"komplek housing";"Komplek perumahan";"Rumah Irfan";"JW5V+3GP, Dusun VII, Celawan, Kec. Pantai Cermin, Kabupaten Serdang Bedagai, Sumatera Utara 20987";"Dusun VII, Celawan, Kec. Pantai Cermin, Kabupaten Serdang Bedagai";"SUMATERA BARAT";"20987";"Indonesia";"";"";"";"3.6083656";"98.943886";"https://maps.google.com/?cid=0x0:0x3a7158895161177";""
"komplek housing";"Komplek perumahan";"RUMAH SURIADI";"JXMF+56C, Besar 2 Terjun, Kec. Pantai Cermin, Kabupaten Serdang Bedagai, Sumatera Utara 20987";"Besar 2 Terjun, Kec. Pantai Cermin, Kabupaten Serdang Bedagai";"SUMATERA BARAT";"20987";"Indonesia";"";"";"";"3.6329278";"98.9730245";"https://maps.google.com/?cid=0x0:0xb60ee23d7ae8ae4";""
"komplek housing";"Pembangunan Perumahan";"Rumah ku";"JW6W+3G2, Celawan, Kec. Pantai Cermin, Kabupaten Serdang Bedagai, Sumatera Utara 20987";"Celawan, Kec. Pantai Cermin, Kabupaten Serdang Bedagai";"SUMATERA BARAT";"20987";"Indonesia";"";"";"";"3.610128";"98.9462698";"https://maps.google.com/?cid=0x0:0xd532286234be9461";""
"komplek housing";"Komplek perumahan";"rumah Luthfiii";"JW6V+MMG, Celawan, Kec. Pantai Cermin, Kabupaten Serdang Bedagai, Sumatera Utara 20987";"Celawan, Kec. Pantai Cermin, Kabupaten Serdang Bedagai";"SUMATERA BARAT";"20987";"Indonesia";"";"";"";"3.611683";"98.9442045";"https://maps.google.com/?cid=0x0:0x3ad5dddf46be7ee9";""
"komplek housing";"Pembangunan Perumahan";"Rumah wak lina";"JX3Q+H2G, Sementara, Kec. Pantai Cermin, Kabupaten Serdang Bedagai, Sumatera Utara 20987";"Sementara, Kec. Pantai Cermin, Kabupaten Serdang Bedagai";"SUMATERA BARAT";"20987";"Indonesia";"";"";"";"3.6046461";"98.9874437";"https://maps.google.com/?cid=0x0:0x1a35b23661ab73ba";""
"komplek housing";"Perhimpunan Pengembang Perumahan";"Herlina pasaribu";"JXPG+9WH, Pantai Cermin Kanan, Kec. Pantai Cermin, Kabupaten Serdang Bedagai, Sumatera Utara 20987";"Pantai Cermin Kanan, Kec. Pantai Cermin, Kabupaten Serdang Bedagai";"SUMATERA BARAT";"20987";"Indonesia";"";"";"";"3.6358508";"98.9771189";"https://maps.google.com/?cid=0x0:0x1b127a9db3573a2";""
"komplek housing";"Rumah Kayu";"Rumah Ama Medan";"HWXH+RW4, Ujung Rambung, Kec. Pantai Cermin, Kabupaten Serdang Bedagai, Sumatera Utara 20987";"Ujung Rambung, Kec. Pantai Cermin, Kabupaten Serdang Bedagai";"SUMATERA BARAT";"20987";"Indonesia";"";"";"";"3.5995235";"98.9298208";"https://maps.google.com/?cid=0x0:0x1fdafd0dcc3f3a22";""
"komplek housing";"Balai masyarakat";"Rumah Ririn, Desa Arapayung";"J286+6W8, Ara Payung, Kec. Pantai Cermin, Kabupaten Serdang Bedagai, Sumatera Utara 20987";"Ara Payung, Kec. Pantai Cermin, Kabupaten Serdang Bedagai";"SUMATERA BARAT";"20987";"Indonesia";"";"";"";"3.6151368";"99.0122243";"https://maps.google.com/?cid=0x0:0xe17aa7f432e5a9f7";""
"komplek housing";"Salon Kecantikan";"Inur rias pengantin";"H2VV+8FH, Naga Kisar, Kec. Pantai Cermin, Kabupaten Serdang Bedagai, Sumatera Utara 20987";"Naga Kisar, Kec. Pantai Cermin, Kabupaten Serdang Bedagai";"SUMATERA BARAT";"20987";"Indonesia";"";"";"";"3.593837";"99.0431884";"https://maps.google.com/?cid=0x0:0x3dc956afbb11c6e8";""
"komplek housing";"Pembangunan Perumahan";"Keluarga jodi";"JW4P+R38, Celawan, Kec. Pantai Cermin, Kabupaten Serdang Bedagai, Sumatera Utara 20987";"Celawan, Kec. Pantai Cermin, Kabupaten Serdang Bedagai";"SUMATERA BARAT";"20987";"Indonesia";"";"";"";"3.6070467";"98.9351901";"https://maps.google.com/?cid=0x0:0xefd54be596f7f865";""
"komplek housing";"Perhimpunan Pengembang Perumahan";"Lindung Sofian dan";"JXCG+2QQ, Besar 2 Terjun, Kec. Pantai Cermin, Kabupaten Serdang Bedagai, Sumatera Utara 20987";"Besar 2 Terjun, Kec. Pantai Cermin, Kabupaten Serdang Bedagai";"SUMATERA BARAT";"20987";"Indonesia";"";"";"";"3.6200886";"98.9769851";"https://maps.google.com/?cid=0x0:0x3aa629bc9cb7e8e9";""
"komplek housing";"Pembangunan Perumahan";"Dedek Yuas";"J23H+336, Pematang Tatal, Kec. Perbaungan, Kabupaten Serdang Bedagai, Sumatera Utara 20987";"Pematang Tatal, Kec. Perbaungan, Kabupaten Serdang Bedagai";"SUMATERA BARAT";"20987";"Indonesia";"";"";"";"3.6026676";"99.0276451";"https://maps.google.com/?cid=0x0:0x91cd6ed491dc50d6";""
"komplek housing";"Komplek perumahan";"Robiansyah putra";"H2JR+HXX, Jl. Dusun II, Ara Payung, Kec. Pantai Cermin, Kabupaten Serdang Bedagai, Sumatera Utara 20987";"Jl. Dusun II, Ara Payung, Kec. Pantai Cermin, Kabupaten Serdang Bedagai";"SUMATERA BARAT";"20987";"Indonesia";"";"";"";"3.5814795";"99.0424947";"https://maps.google.com/?cid=0x0:0xe230d3ec2a341db8";""
"komplek housing";"Komplek perumahan";"Perum Amaliun Residance";"H2QV+8G9, Dusun VIII, PAELINTAHAN, Kec. Sei Rampah, Kabupaten Serdang Bedagai, Sumatera Utara 20987";"Dusun VIII, PAELINTAHAN, Kec. Sei Rampah, Kabupaten Serdang Bedagai";"SUMATERA BARAT";"20987";"Indonesia";"";"";"";"3.588285";"99.0438738";"https://maps.google.com/?cid=0x0:0xa9fb5dde3f77d4ce";""
"komplek housing";"Gedung Apartemen";"Akbar's House";"H3H3+PP5, Lubuk Rotan, Kec. Perbaungan, Kabupaten Serdang Bedagai, Sumatera Utara 20987";"Lubuk Rotan, Kec. Perbaungan, Kabupaten Serdang Bedagai";"SUMATERA BARAT";"20987";"Indonesia";"";"";"";"3.5792707";"99.0543447";"https://maps.google.com/?cid=0x0:0x6ee87ee100988961";""
"komplek housing";"Kantor Perusahaan";"Desa lubuk rotan";"H3J4+X33, Lubuk Rotan, Kec. Perbaungan, Kabupaten Serdang Bedagai, Sumatera Utara 20987";"Lubuk Rotan, Kec. Perbaungan, Kabupaten Serdang Bedagai";"SUMATERA BARAT";"20987";"Indonesia";"";"";"";"3.582387";"99.0551839";"https://maps.google.com/?cid=0x0:0x87e4bc03507e58e5";""
"komplek housing";"Pembangunan Perumahan";"Anto jetor";"H3F5+VM4, Lubuk Rotan, Kec. Perbaungan, Kabupaten Serdang Bedagai, Sumatera Utara 20987";"Lubuk Rotan, Kec. Perbaungan, Kabupaten Serdang Bedagai";"SUMATERA BARAT";"20987";"Indonesia";"";"";"";"3.5746331";"99.0591918";"https://maps.google.com/?cid=0x0:0x4f0b114023e7e131";""
"komplek housing";"Bidan";"Bidan Zova";"JXCG+2QQ, Besar 2 Terjun, Kec. Pantai Cermin, Kabupaten Serdang Bedagai, Sumatera Utara 20987";"Besar 2 Terjun, Kec. Pantai Cermin, Kabupaten Serdang Bedagai";"SUMATERA BARAT";"20987";"Indonesia";"";"";"";"3.6200886";"98.9769851";"https://maps.google.com/?cid=0x0:0xab0bc93227239bf7";""
"komplek housing";"komplek housing";"Sumatera Barat 27373";"Surian, Kec. Pantai Cermin, Kabupaten Solok, Sumatera Barat";"Kabupaten Solok, Sumatera Barat";"SUMATERA BARAT";"";"Indonesia";"";"";"";"-1.2470801";"100.8677256";"https://maps.google.com/?cid=0x0:0xe2eefca03053855";""
"komplek housing";"Komplek perumahan";"Aep";"QV3J+P4C, Jl. BBI Surian, Surian, Kec. Pantai Cermin, Kabupaten Solok, Sumatera Barat 27373";"Jl. BBI Surian, Surian, Kec. Pantai Cermin, Kabupaten Solok";"SUMATERA BARAT";"27373";"Indonesia";"";"";"";"-1.2456816";"100.880271";"https://maps.google.com/?cid=0x0:0x235cd3d78e975555";""
"komplek housing";"Komplek perumahan";"Sulthan";"QRXX+2WX, Jl. Padang - Surian, Lolo, Kec. Pantai Cermin, Kabupaten Solok, Sumatera Barat 27373";"Jl. Padang - Surian, Lolo, Kec. Pantai Cermin, Kabupaten Solok";"SUMATERA BARAT";"27373";"Indonesia";" 081368853751";"";"";"-1.202398";"100.849874";"https://maps.google.com/?cid=0x0:0x888a94468a78288b";""
"komplek housing";"Komplek perumahan";"Rumah Bryndou";"PVXP+2C4, Surian, Kec. Pantai Cermin, Kabupaten Solok, Sumatera Barat 27373";"Surian, Kec. Pantai Cermin, Kabupaten Solok";"SUMATERA BARAT";"27373";"Indonesia";"";"";"";"-1.2523789";"100.8863072";"https://maps.google.com/?cid=0x0:0xb09862e69094e5fb";""
"komplek housing";"Perhimpunan Pengembang Perumahan";"Rumah Cipi";"QV3M+H5Q, Surian, Kec. Pantai Cermin, Kabupaten Solok, Sumatera Barat 27373";"Surian, Kec. Pantai Cermin, Kabupaten Solok";"SUMATERA BARAT";"27373";"Indonesia";"";"";"";"-1.2460403";"100.8829699";"https://maps.google.com/?cid=0x0:0x5e1a14c13caa942c";""
"komplek housing";"Kantor Perusahaan";"Ladang padi";"PVRG+JRF, Jl. Ladang Padi, Surian, Kec. Pantai Cermin, Kabupaten Solok, Sumatera Barat 27373";"Jl. Ladang Padi, Surian, Kec. Pantai Cermin, Kabupaten Solok";"SUMATERA BARAT";"27373";"Indonesia";"";"";"";"-1.258446";"100.8770318";"https://maps.google.com/?cid=0x0:0x2acb09f5ebd03267";""
"komplek housing";"komplek housing";"Rumah uti";"QV3M+H5Q, Surian, Kec. Pantai Cermin, Kabupaten Solok, Sumatera Barat 27373";"Surian, Kec. Pantai Cermin, Kabupaten Solok";"SUMATERA BARAT";"27373";"Indonesia";"";"";"";"-1.2460967";"100.8829269";"https://maps.google.com/?cid=0x0:0x9e0fca5622ee571a";""
"komplek housing";"Komplek perumahan";"Rumah umi yuslinar";"PVM5+PW, Surian, Kec. Pantai Cermin, Kabupaten Solok, Sumatera Barat";"Kabupaten Solok, Sumatera Barat";"SUMATERA BARAT";"";"Indonesia";"";"";"";"-1.2656831";"100.859759";"https://maps.google.com/?cid=0x0:0x210a048a1c191229";""
"komplek housing";"Komplek perumahan";"Rumah iceee";"QVM7+4P, Lolo, Kec. Pantai Cermin, Kabupaten Solok, Sumatera Barat";"Kabupaten Solok, Sumatera Barat";"SUMATERA BARAT";"";"Indonesia";"";"";"";"-1.2172303";"100.8643534";"https://maps.google.com/?cid=0x0:0xc79008b205715686";""
"komplek housing";"Komplek perumahan";"Rumah gita";"QV3M+H5Q Rumah gita, Surian, Kec. Pantai Cermin, Kabupaten Solok, Sumatera Barat 27373";"Surian, Kec. Pantai Cermin, Kabupaten Solok";"SUMATERA BARAT";"27373";"Indonesia";"";"";"";"-1.2457443";"100.8832609";"https://maps.google.com/?cid=0x0:0xe01c4bc9b770d993";""
