Category;Real Category;Business Name;Address;City;State;Postal Code;Country;Phone;Email;Website;Latitude;Longitude;Map Link;Details Link
"mall";"mall";"Sumatera Selatan 30814";"Sakatiga Seberang, Kec. Indralaya, Kabupaten Ogan Ilir, Sumatera Selatan";"Kabupaten Ogan Ilir, Sumatera Selatan";"SUMATERA SELATAN";"";"Indonesia";"";"";"";"-3.2572179";"104.6616973";"https://maps.google.com/?cid=0x0:0xef874924c28e0a46";""
"mall";"Pusat Perbelanjaan";"Indralaya Trade Center";"Indralaya Raya, Kec. Indralaya, Kabupaten Ogan Ilir, Sumatera Selatan 30653";"Kec. Indralaya, Kabupaten Ogan Ilir";"SUMATERA SELATAN";"30653";"Indonesia";"";"";"";"-3.2343406";"104.6649533";"https://maps.google.com/?cid=0x0:0xae3f0c3500918fdb";""
"mall";"Pusat Perbelanjaan";"Seribandung";"QM98+R2M, Jl. Nurul Persada, Indralaya Indah, Kec. Indralaya, Kabupaten Ogan Ilir, Sumatera Selatan 30862";"Jl. Nurul Persada, Indralaya Indah, Kec. Indralaya, Kabupaten Ogan Ilir";"SUMATERA SELATAN";"30862";"Indonesia";"";"";"";"-3.2304139";"104.6650398";"https://maps.google.com/?cid=0x0:0x4a38b57abc2f0d38";""
"mall";"Pusat Perbelanjaan";"Rama";"PMWF+QPQ, Indralaya Mulia, Kec. Indralaya, Kabupaten Ogan Ilir, Sumatera Selatan 30862";"Indralaya Mulia, Kec. Indralaya, Kabupaten Ogan Ilir";"SUMATERA SELATAN";"30862";"Indonesia";" 085764807995";"";"";"-3.2530253";"104.6743496";"https://maps.google.com/?cid=0x0:0x17634d98328a052d";""
"mall";"Toko Ponsel";"HERRI CELL";"PMWG+VQV, Indralaya Mulia, Kec. Indralaya, Kabupaten Ogan Ilir, Sumatera Selatan 30862";"Indralaya Mulia, Kec. Indralaya, Kabupaten Ogan Ilir";"SUMATERA SELATAN";"30862";"Indonesia";" 082371566040";"";"";"-3.2527271";"104.6770615";"https://maps.google.com/?cid=0x0:0x8f464193df2d6472";""
"mall";"Paket Makanan Pokok";"Kopi Asli Pagaralam Cap Gunung Dempo";"Indralaya Mulia, Kec. Indralaya, Kabupaten Ogan Ilir, Sumatera Selatan 30862";"Kec. Indralaya, Kabupaten Ogan Ilir";"SUMATERA SELATAN";"30862";"Indonesia";"";"";"";"-3.2418461";"104.6604824";"https://maps.google.com/?cid=0x0:0x7c6aff6c827141fe";""
"mall";"Toko bahan makanan";"Azriel Shop";"QM87+CG9, Jl. Muhajirin, Indralaya Raya, Kec. Indralaya, Kabupaten Ogan Ilir, Sumatera Selatan 30862";"Jl. Muhajirin, Indralaya Raya, Kec. Indralaya, Kabupaten Ogan Ilir";"SUMATERA SELATAN";"30862";"Indonesia";"";"";"";"-3.2339605";"104.6638592";"https://maps.google.com/?cid=0x0:0x493a9f0a52d2586";""
"mall";"Toko";"Toko TH. Pelangi Tanjung Raya";"QM45+58M, Indralaya Mulia, Kec. Indralaya, Kabupaten Ogan Ilir, Sumatera Selatan 30862";"Indralaya Mulia, Kec. Indralaya, Kabupaten Ogan Ilir";"SUMATERA SELATAN";"30862";"Indonesia";"";"";"";"-3.2445505";"104.658627";"https://maps.google.com/?cid=0x0:0x107099f47223ebeb";""
"mall";"Toko";"Thuhriyah Toko Gamis Dan Jilbab";"QM2C+2J9 nasi goreng, Indralaya Mulia, belakang rumah makan mang iang, Indralaya Mulia, Kec. Indralaya, Kabupaten Ogan Ilir, Sumatera Selatan 30862";"Indralaya Mulia, belakang rumah makan mang iang, Indralaya Mulia, Kec. Indralaya, Kabupaten Ogan Ilir";"SUMATERA SELATAN";"30862";"Indonesia";" 085380855182";"";"";"-3.2499605";"104.6715959";"https://maps.google.com/?cid=0x0:0x6cd3094a4f2099c9";""
"mall";"Bioskop";"OPI MALL";"Jakabaring Sport City, Jl. Gubernur H. A Bastari, Sungai Kedukan, Kec. Rambutan, Kab. Banyuasin, Sumatera Selatan 30257";"Jl. Gubernur H. A Bastari, Sungai Kedukan, Kec. Rambutan, Kab. Banyuasin";"SUMATERA SELATAN";"30257";"Indonesia";" 07115620477";"";"";"-3.0361406";"104.791564";"https://maps.google.com/?cid=0x0:0x179a245e68ec1ef";""
"mall";"Pusat Perbelanjaan";"Palembang Icon Mall";"Jl. POM IX, Lorok Pakjo, Kec. Ilir Bar. I, Kota Palembang, Sumatera Selatan 30137";"Lorok Pakjo, Kec. Ilir Bar. I, Kota Palembang";"SUMATERA SELATAN";"30137";"Indonesia";" 07115649366";"";"";"-2.97928";"104.745102";"https://maps.google.com/?cid=0x0:0x4f51deef4db78c49";""
"mall";"Pusat Perbelanjaan";"Palembang Indah Mall";"Jl. Letkol Iskandar No.18, 24 Ilir, Kec. Bukit Kecil, Kota Palembang, Sumatera Selatan 30134";"24 Ilir, Kec. Bukit Kecil, Kota Palembang";"SUMATERA SELATAN";"30134";"Indonesia";" 0711350999";"";"";"-2.9851559";"104.7537026";"https://maps.google.com/?cid=0x0:0xdb7489509d864093";""
"mall";"ATM";"Agen BRILink Toko Yadi";"PMPJ+HQ6, Sakatiga Seberang, Kec. Indralaya, Kabupaten Ogan Ilir, Sumatera Selatan 30816";"Sakatiga Seberang, Kec. Indralaya, Kabupaten Ogan Ilir";"SUMATERA SELATAN";"30816";"Indonesia";" 081373404041";"";"";"-3.2635941";"104.6818764";"https://maps.google.com/?cid=0x0:0xc87c6a07f8ba4445";""
"mall";"Toko Ikan";"Gallery Ikan hias Ogan Ilir";"Jl. Lintas Sumatra, Indralaya Mulia, Kec. Indralaya, Kabupaten Ogan Ilir, Sumatera Selatan 30662";"Indralaya Mulia, Kec. Indralaya, Kabupaten Ogan Ilir";"SUMATERA SELATAN";"30662";"Indonesia";" 085839621230";"";"";"-3.2522274";"104.6736504";"https://maps.google.com/?cid=0x0:0x854640c060612bb9";""
"mall";"Toko";"Mr. DIY indralaya";"Jl. Lintas Sumatra No.Km 37, Indralaya Mulia, Kec. Indralaya, Kabupaten Ogan Ilir, Sumatera Selatan 30862";"Indralaya Mulia, Kec. Indralaya, Kabupaten Ogan Ilir";"SUMATERA SELATAN";"30862";"Indonesia";"";"";"";"-3.2458145";"104.6700944";"https://maps.google.com/?cid=0x0:0x1f3ac5a5edb6127c";""
"mall";"Toko Pakaian Wanita";"TOKO RIYA Menjual Pakaian Anak2 dan wanita";"PMWG+XRJ, Jl. Lintas Sumatra, Indralaya Mulia, Kec. Indralaya, Kabupaten Ogan Ilir, Sumatera Selatan 30862";"Jl. Lintas Sumatra, Indralaya Mulia, Kec. Indralaya, Kabupaten Ogan Ilir";"SUMATERA SELATAN";"30862";"Indonesia";" 085267890884";"";"";"-3.2525423";"104.6770048";"https://maps.google.com/?cid=0x0:0x2cbf20f3fe5f2f00";""
"mall";"Toko Ikan";"ARI KOI";"Perumahan mutiara indah 1 blok b no. 29 kelurahan, Indralaya Raya, Kec. Indralaya, Kabupaten Ogan Ilir, Sumatera Selatan 30862";"Indralaya Raya, Kec. Indralaya, Kabupaten Ogan Ilir";"SUMATERA SELATAN";"30862";"Indonesia";" 082180603836";"";"";"-3.2411603";"104.665968";"https://maps.google.com/?cid=0x0:0x1ae6956f5bc16efc";""
"mall";"Toko Makanan";"Agen Basreng Indralaya Krabbykun";"Indralaya Mulia, Kec. Indralaya, Kabupaten Ogan Ilir, Sumatera Selatan 30862";"Kec. Indralaya, Kabupaten Ogan Ilir";"SUMATERA SELATAN";"30862";"Indonesia";"";"";"";"-3.24738";"104.6733223";"https://maps.google.com/?cid=0x0:0x4e64c74373a0f0c3";""
"mall";"Bubur";"Jual Bubur Ayak";"PMWF+PMF, Unnamed Road, Indralaya Mulia, Kec. Indralaya, Kabupaten Ogan Ilir, Sumatera Selatan 30862";"Unnamed Road, Indralaya Mulia, Kec. Indralaya, Kabupaten Ogan Ilir";"SUMATERA SELATAN";"30862";"Indonesia";" 081273034502";"";"";"-3.2531904";"104.6741603";"https://maps.google.com/?cid=0x0:0xb1e857f5a1b28e73";""
"mall";"Pusat Perbelanjaan";"Palembang Square";"Jl. Angkatan 45, Lorok Pakjo, Kec. Ilir Bar. I, Kota Palembang, Sumatera Selatan 30137";"Lorok Pakjo, Kec. Ilir Bar. I, Kota Palembang";"SUMATERA SELATAN";"30137";"Indonesia";" 0711380001";"";"";"-2.9761223";"104.7417611";"https://maps.google.com/?cid=0x0:0xa673f79fd841a344";""
"mall";"Pusat Perbelanjaan";"BC HNI Ogan Ilir";"QMC7+487 Masjid Nurul Persada, Komplek Persada Blok C1 No 15, Samping, Jl. Nurul Persada, Indralaya Indah, Indralaya, Ogan Ilir Regency, South Sumatra 30862";"Komplek Persada Blok C1 No 15, Samping, Jl. Nurul Persada, Indralaya Indah, Indralaya, Ogan Ilir Regency";"SUMATERA SELATAN";"30862";"Indonesia";" 07117584732";"";"";"-3.2297125";"104.6632777";"https://maps.google.com/?cid=0x0:0x6862d5c0b163989a";""
"mall";"Pasar";"Pasar Tradisional Indralaya Ogan Ilir";"QM2J+5R5, Sakatiga, Kec. Indralaya, Kabupaten Ogan Ilir, Sumatera Selatan 30817";"Sakatiga, Kec. Indralaya, Kabupaten Ogan Ilir";"SUMATERA SELATAN";"30817";"Indonesia";"";"";"";"-3.2496006";"104.6821048";"https://maps.google.com/?cid=0x0:0x7c844f9e784711c9";""
"mall";"Toko Pakaian";"Mepa Market Parit";"Parit, Kecamatan Indralaya Utara, Kabupaten Ogan Ilir, Sumatera Selatan 30862";"Kecamatan Indralaya Utara, Kabupaten Ogan Ilir";"SUMATERA SELATAN";"30862";"Indonesia";"";"";"";"-3.1992237";"104.5875284";"https://maps.google.com/?cid=0x0:0xb15f93e7c4464cff";""
"mall";"Toko Swalayan";"Indomart";"RM7G+P29, Jl. Lintas Sumatra, Palem Raya, Kecamatan Indralaya Utara, Kabupaten Ogan Ilir, Sumatera Selatan 30862";"Jl. Lintas Sumatra, Palem Raya, Kecamatan Indralaya Utara, Kabupaten Ogan Ilir";"SUMATERA SELATAN";"30862";"Indonesia";"";"";"";"-3.1857093";"104.6751139";"https://maps.google.com/?cid=0x0:0x81046d98b36d11d4";""
"mall";"Kantor Pemerintah";"Mal Pelayanan Publik Kabupaten Ogan Ilir";"QM78+93C, Indralaya Raya, Kec. Indralaya, Kabupaten Ogan Ilir, Sumatera Selatan 30862";"Indralaya Raya, Kec. Indralaya, Kabupaten Ogan Ilir";"SUMATERA SELATAN";"30862";"Indonesia";"";"";"";"-3.236571";"104.6651362";"https://maps.google.com/?cid=0x0:0xa2442be07a80428c";""
"mall";"Toko bahan makanan";"INDOMARET JALAN NUSANTARA";"QMR2+6C4, Timbangan, Kecamatan Indralaya Utara, Kabupaten Ogan Ilir, Sumatera Selatan 30862";"Timbangan, Kecamatan Indralaya Utara, Kabupaten Ogan Ilir";"SUMATERA SELATAN";"30862";"Indonesia";"";"";"";"-3.209318";"104.6512747";"https://maps.google.com/?cid=0x0:0x8b35e51cf09ecede";""
"mall";"Pasar";"Pasar Kalangan Palem Raya";"RM5M+3CF, Palem Raya, Kecamatan Indralaya Utara, Kabupaten Ogan Ilir, Sumatera Selatan 30817";"Palem Raya, Kecamatan Indralaya Utara, Kabupaten Ogan Ilir";"SUMATERA SELATAN";"30817";"Indonesia";" 085267100550";"";"";"-3.1923195";"104.6835578";"https://maps.google.com/?cid=0x0:0x20204b55e7d14ccc";""
"mall";"Toko Kosmetik";"SyamakeUp";"Jl. Anggrek No.30, Timbangan, Kecamatan Indralaya Utara, Kabupaten Ogan Ilir, Sumatera Selatan 30862";"Timbangan, Kecamatan Indralaya Utara, Kabupaten Ogan Ilir";"SUMATERA SELATAN";"30862";"Indonesia";" 085267314627";"";"";"-3.2046287";"104.6571643";"https://maps.google.com/?cid=0x0:0x5c1075cd08043492";""
"mall";"Pusat Perbelanjaan";"Mardy celluler";"RM4M+X5C, Unnamed Road, Palem Raya, Kecamatan Indralaya Utara, Kabupaten Ogan Ilir, Sumatera Selatan 30817";"Unnamed Road, Palem Raya, Kecamatan Indralaya Utara, Kabupaten Ogan Ilir";"SUMATERA SELATAN";"30817";"Indonesia";" 082176391979";"";"";"-3.192551";"104.68288";"https://maps.google.com/?cid=0x0:0x29cda7ccc48f63e4";""
"mall";"Pusat Perbelanjaan";"Indralaya Trade Center";"Indralaya Raya, Kec. Indralaya, Kabupaten Ogan Ilir, Sumatera Selatan 30653";"Kec. Indralaya, Kabupaten Ogan Ilir";"SUMATERA SELATAN";"30653";"Indonesia";"";"";"";"-3.2343406";"104.6649533";"https://maps.google.com/?cid=0x0:0xae3f0c3500918fdb";""
"mall";"Pusat Perbelanjaan";"BC HNI Ogan Ilir";"QMC7+487 Masjid Nurul Persada, Komplek Persada Blok C1 No 15, Samping, Jl. Nurul Persada, Indralaya Indah, Indralaya, Ogan Ilir Regency, South Sumatra 30862";"Komplek Persada Blok C1 No 15, Samping, Jl. Nurul Persada, Indralaya Indah, Indralaya, Ogan Ilir Regency";"SUMATERA SELATAN";"30862";"Indonesia";" 07117584732";"";"";"-3.2297125";"104.6632777";"https://maps.google.com/?cid=0x0:0x6862d5c0b163989a";""
"mall";"mall";"Sumatera Selatan 30815";"Kec. Indralaya, Kabupaten Ogan Ilir, Sumatera Selatan";"Kabupaten Ogan Ilir, Sumatera Selatan";"SUMATERA SELATAN";"";"Indonesia";"";"";"";"-3.2670597";"104.6558671";"https://maps.google.com/?cid=0x0:0x1d65e2ff476e18b4";""
"mall";"Pusat Perbelanjaan";"Seribandung";"QM98+R2M, Jl. Nurul Persada, Indralaya Indah, Kec. Indralaya, Kabupaten Ogan Ilir, Sumatera Selatan 30862";"Jl. Nurul Persada, Indralaya Indah, Kec. Indralaya, Kabupaten Ogan Ilir";"SUMATERA SELATAN";"30862";"Indonesia";"";"";"";"-3.2304139";"104.6650398";"https://maps.google.com/?cid=0x0:0x4a38b57abc2f0d38";""
"mall";"Pusat Perbelanjaan";"Pasar Indralaya";"PMWG+FPV, Jl. Lintas Timur KM. 38, Komp Pasar Indralaya Kel, Jl. Lintas Sumatra Pasar, Indralaya Mulia, Indralaya, Ogan Ilir Regency, South Sumatra 30862";"Jl. Lintas Timur KM. 38, Komp Pasar Indralaya Kel, Jl. Lintas Sumatra Pasar, Indralaya Mulia, Indralaya, Ogan Ilir Regency";"SUMATERA SELATAN";"30862";"Indonesia";" 07117584085";"";"";"-3.2527653";"104.6767456";"https://maps.google.com/?cid=0x0:0xd5ee1ccabb05e505";""
"mall";"Pasar";"Pasar Tradisional Indralaya Ogan Ilir";"QM2J+5R5, Sakatiga, Kec. Indralaya, Kabupaten Ogan Ilir, Sumatera Selatan 30817";"Sakatiga, Kec. Indralaya, Kabupaten Ogan Ilir";"SUMATERA SELATAN";"30817";"Indonesia";"";"";"";"-3.2496006";"104.6821048";"https://maps.google.com/?cid=0x0:0x7c844f9e784711c9";""
"mall";"Toko Ponsel";"Pusat Grosir Aksesoris HP";"MMPG+W48, Jl. Raya Tanah Tinggi, Meranjat II, Kec. Indralaya Sel., Kabupaten Ogan Ilir, Sumatera Selatan 30862";"Jl. Raya Tanah Tinggi, Meranjat II, Kec. Indralaya Sel., Kabupaten Ogan Ilir";"SUMATERA SELATAN";"30862";"Indonesia";" 081317024303";"";"";"-3.3127169";"104.6753347";"https://maps.google.com/?cid=0x0:0xa96fd7e519d05c29";""
"mall";"Toko Swalayan";"Indomart";"RM7G+P29, Jl. Lintas Sumatra, Palem Raya, Kecamatan Indralaya Utara, Kabupaten Ogan Ilir, Sumatera Selatan 30862";"Jl. Lintas Sumatra, Palem Raya, Kecamatan Indralaya Utara, Kabupaten Ogan Ilir";"SUMATERA SELATAN";"30862";"Indonesia";"";"";"";"-3.1857093";"104.6751139";"https://maps.google.com/?cid=0x0:0x81046d98b36d11d4";""
"mall";"Pusat Perbelanjaan";"Toko Fira";"RM66+H6F, Unnamed Road, Palem Raya, Kecamatan Indralaya Utara, Kabupaten Ogan Ilir, Sumatera Selatan 30862";"Unnamed Road, Palem Raya, Kecamatan Indralaya Utara, Kabupaten Ogan Ilir";"SUMATERA SELATAN";"30862";"Indonesia";"";"";"";"-3.1885605";"104.660556";"https://maps.google.com/?cid=0x0:0xe169d6a15a184820";""
"mall";"Pusat Perbelanjaan";"Mardy celluler";"RM4M+X5C, Unnamed Road, Palem Raya, Kecamatan Indralaya Utara, Kabupaten Ogan Ilir, Sumatera Selatan 30817";"Unnamed Road, Palem Raya, Kecamatan Indralaya Utara, Kabupaten Ogan Ilir";"SUMATERA SELATAN";"30817";"Indonesia";" 082176391979";"";"";"-3.192551";"104.68288";"https://maps.google.com/?cid=0x0:0x29cda7ccc48f63e4";""
"mall";"Bioskop";"OPI MALL";"Jakabaring Sport City, Jl. Gubernur H. A Bastari, Sungai Kedukan, Kec. Rambutan, Kab. Banyuasin, Sumatera Selatan 30257";"Jl. Gubernur H. A Bastari, Sungai Kedukan, Kec. Rambutan, Kab. Banyuasin";"SUMATERA SELATAN";"30257";"Indonesia";" 07115620477";"";"";"-3.0361406";"104.791564";"https://maps.google.com/?cid=0x0:0x179a245e68ec1ef";""
"mall";"Toko bahan makanan";"Azriel Shop";"QM87+CG9, Jl. Muhajirin, Indralaya Raya, Kec. Indralaya, Kabupaten Ogan Ilir, Sumatera Selatan 30862";"Jl. Muhajirin, Indralaya Raya, Kec. Indralaya, Kabupaten Ogan Ilir";"SUMATERA SELATAN";"30862";"Indonesia";"";"";"";"-3.2339605";"104.6638592";"https://maps.google.com/?cid=0x0:0x493a9f0a52d2586";""
"mall";"Toko Ponsel";"HERRI CELL";"PMWG+VQV, Indralaya Mulia, Kec. Indralaya, Kabupaten Ogan Ilir, Sumatera Selatan 30862";"Indralaya Mulia, Kec. Indralaya, Kabupaten Ogan Ilir";"SUMATERA SELATAN";"30862";"Indonesia";" 082371566040";"";"";"-3.2527271";"104.6770615";"https://maps.google.com/?cid=0x0:0x8f464193df2d6472";""
"mall";"Toko";"Model Mang Yan Seluler";"RM48+732, Palem Raya, Kecamatan Indralaya Utara, Kabupaten Ogan Ilir, Sumatera Selatan 30862";"Palem Raya, Kecamatan Indralaya Utara, Kabupaten Ogan Ilir";"SUMATERA SELATAN";"30862";"Indonesia";"";"";"";"-3.1944731";"104.6649445";"https://maps.google.com/?cid=0x0:0x68e292fee67fcdeb";""
"mall";"Pusat Perbelanjaan";"Toko CHIKA GROUP";"Jl. Indralaya Raya No.18, Timbangan, Kecamatan Indralaya Utara, Kabupaten Ogan Ilir, Sumatera Selatan 30862";"Timbangan, Kecamatan Indralaya Utara, Kabupaten Ogan Ilir";"SUMATERA SELATAN";"30862";"Indonesia";" 081368371577";"";"";"-3.1985752";"104.6598006";"https://maps.google.com/?cid=0x0:0xce7f839f3458435";""
"mall";"ATM";"Agen BRILink Toko Yadi";"PMPJ+HQ6, Sakatiga Seberang, Kec. Indralaya, Kabupaten Ogan Ilir, Sumatera Selatan 30816";"Sakatiga Seberang, Kec. Indralaya, Kabupaten Ogan Ilir";"SUMATERA SELATAN";"30816";"Indonesia";" 081373404041";"";"";"-3.2635941";"104.6818764";"https://maps.google.com/?cid=0x0:0xc87c6a07f8ba4445";""
"mall";"Toko";"Toko TH. Pelangi Tanjung Raya";"QM45+58M, Indralaya Mulia, Kec. Indralaya, Kabupaten Ogan Ilir, Sumatera Selatan 30862";"Indralaya Mulia, Kec. Indralaya, Kabupaten Ogan Ilir";"SUMATERA SELATAN";"30862";"Indonesia";"";"";"";"-3.2445505";"104.658627";"https://maps.google.com/?cid=0x0:0x107099f47223ebeb";""
"mall";"Pusat Perbelanjaan";"Rumah viddy";"QP9M+8Q3, Sudimampir, Kec. Indralaya, Kabupaten Ogan Ilir, Sumatera Selatan 30653";"Sudimampir, Kec. Indralaya, Kabupaten Ogan Ilir";"SUMATERA SELATAN";"30653";"Indonesia";" 081377755117";"";"";"-3.2317453";"104.7344158";"https://maps.google.com/?cid=0x0:0xfc8ce90712bda64e";""
"mall";"Toko";"Toko Suardi";"RH5C+P5F, Lorok, Kecamatan Indralaya Utara, Kabupaten Ogan Ilir, Sumatera Selatan 30862";"Lorok, Kecamatan Indralaya Utara, Kabupaten Ogan Ilir";"SUMATERA SELATAN";"30862";"Indonesia";" 081367557544";"";"";"-3.1906839";"104.5704165";"https://maps.google.com/?cid=0x0:0xe1fe47c439c6540e";""
"mall";"Pasar";"Pasar Kalangan Palem Raya";"RM5M+3CF, Palem Raya, Kecamatan Indralaya Utara, Kabupaten Ogan Ilir, Sumatera Selatan 30817";"Palem Raya, Kecamatan Indralaya Utara, Kabupaten Ogan Ilir";"SUMATERA SELATAN";"30817";"Indonesia";" 085267100550";"";"";"-3.1923195";"104.6835578";"https://maps.google.com/?cid=0x0:0x20204b55e7d14ccc";""
"mall";"Pusat Perbelanjaan";"Palembang Indah Mall";"Jl. Letkol Iskandar No.18, 24 Ilir, Kec. Bukit Kecil, Kota Palembang, Sumatera Selatan 30134";"24 Ilir, Kec. Bukit Kecil, Kota Palembang";"SUMATERA SELATAN";"30134";"Indonesia";" 0711350999";"";"";"-2.9851559";"104.7537026";"https://maps.google.com/?cid=0x0:0xdb7489509d864093";""
"mall";"Kantor Pemerintah";"Mal Pelayanan Publik Kabupaten Ogan Ilir";"QM78+93C, Indralaya Raya, Kec. Indralaya, Kabupaten Ogan Ilir, Sumatera Selatan 30862";"Indralaya Raya, Kec. Indralaya, Kabupaten Ogan Ilir";"SUMATERA SELATAN";"30862";"Indonesia";"";"";"";"-3.236571";"104.6651362";"https://maps.google.com/?cid=0x0:0xa2442be07a80428c";""
"mall";"Toko Ponsel";"ERAFONE RUKO INDRALAYA";"QM59+3GGIndralaya MuliaKec, Kec. Indralaya, Kabupaten Ogan Ilir, Sumatera Selatan 30862";"Kec. Indralaya, Kabupaten Ogan Ilir";"SUMATERA SELATAN";"30862";"Indonesia";" 081373670759";"";"";"-3.2422189";"104.6688659";"https://maps.google.com/?cid=0x0:0x1b2af5ce405b70b9";""
"mall";"Pusat Perbelanjaan";"Simpang Parit";"RH2Q+827, Jl. Letnan Muchtar Saleh, Parit, Kecamatan Indralaya Utara, Kabupaten Ogan Ilir, Sumatera Selatan 30862";"Jl. Letnan Muchtar Saleh, Parit, Kecamatan Indralaya Utara, Kabupaten Ogan Ilir";"SUMATERA SELATAN";"30862";"Indonesia";"";"";"";"-3.1992075";"104.5875552";"https://maps.google.com/?cid=0x0:0xcf5c196f1246a322";""
"mall";"Toko Swalayan";"Indomaret Indralaya indah";"Ruko Langgeng Residence, Depan RRI, Jl. Lintas Sumatra Jl. Nurul Persada No.KM.35, Indralaya Indah, Kec. Indralaya, Kabupaten Ogan Ilir, Sumatera Selatan 30862";"Depan RRI, Jl. Lintas Sumatra Jl. Nurul Persada No.KM.35, Indralaya Indah, Kec. Indralaya, Kabupaten Ogan Ilir";"SUMATERA SELATAN";"30862";"Indonesia";"";"";"";"-3.2304524";"104.6650408";"https://maps.google.com/?cid=0x0:0xf6f05a35f566846a";""
"mall";"Kantor Pemerintah";"Kantor Bupati Ogan Ilir";"PMQ3+Q23, Indralaya Raya, Kec. Indralaya, Kabupaten Ogan Ilir, Sumatera Selatan 30862";"Indralaya Raya, Kec. Indralaya, Kabupaten Ogan Ilir";"SUMATERA SELATAN";"30862";"Indonesia";"";"";"";"-3.2606025";"104.652536";"https://maps.google.com/?cid=0x0:0x4a54c54962b17adf";""
"mall";"Toko Ikan";"Gallery Ikan hias Ogan Ilir";"Jl. Lintas Sumatra, Indralaya Mulia, Kec. Indralaya, Kabupaten Ogan Ilir, Sumatera Selatan 30662";"Indralaya Mulia, Kec. Indralaya, Kabupaten Ogan Ilir";"SUMATERA SELATAN";"30662";"Indonesia";" 085839621230";"";"";"-3.2522274";"104.6736504";"https://maps.google.com/?cid=0x0:0x854640c060612bb9";""
"mall";"Toko";"Thuhriyah Toko Gamis Dan Jilbab";"QM2C+2J9 nasi goreng, Indralaya Mulia, belakang rumah makan mang iang, Indralaya Mulia, Kec. Indralaya, Kabupaten Ogan Ilir, Sumatera Selatan 30862";"Indralaya Mulia, belakang rumah makan mang iang, Indralaya Mulia, Kec. Indralaya, Kabupaten Ogan Ilir";"SUMATERA SELATAN";"30862";"Indonesia";" 085380855182";"";"";"-3.2499605";"104.6715959";"https://maps.google.com/?cid=0x0:0x6cd3094a4f2099c9";""
"mall";"Toko Pakaian Wanita";"TOKO RIYA Menjual Pakaian Anak2 dan wanita";"PMWG+XRJ, Jl. Lintas Sumatra, Indralaya Mulia, Kec. Indralaya, Kabupaten Ogan Ilir, Sumatera Selatan 30862";"Jl. Lintas Sumatra, Indralaya Mulia, Kec. Indralaya, Kabupaten Ogan Ilir";"SUMATERA SELATAN";"30862";"Indonesia";" 085267890884";"";"";"-3.2525423";"104.6770048";"https://maps.google.com/?cid=0x0:0x2cbf20f3fe5f2f00";""
"mall";"mall";"Sumatera Selatan 30816";"Kec. Indralaya, Kabupaten Ogan Ilir, Sumatera Selatan";"Kabupaten Ogan Ilir, Sumatera Selatan";"SUMATERA SELATAN";"";"Indonesia";"";"";"";"-3.2667124";"104.6791893";"https://maps.google.com/?cid=0x0:0x1682d2a36346d66c";""
"mall";"Pusat Perbelanjaan";"Indralaya Trade Center";"Indralaya Raya, Kec. Indralaya, Kabupaten Ogan Ilir, Sumatera Selatan 30653";"Kec. Indralaya, Kabupaten Ogan Ilir";"SUMATERA SELATAN";"30653";"Indonesia";"";"";"";"-3.2343406";"104.6649533";"https://maps.google.com/?cid=0x0:0xae3f0c3500918fdb";""
"mall";"Pusat Perbelanjaan";"Rama";"PMWF+QPQ, Indralaya Mulia, Kec. Indralaya, Kabupaten Ogan Ilir, Sumatera Selatan 30862";"Indralaya Mulia, Kec. Indralaya, Kabupaten Ogan Ilir";"SUMATERA SELATAN";"30862";"Indonesia";" 085764807995";"";"";"-3.2530253";"104.6743496";"https://maps.google.com/?cid=0x0:0x17634d98328a052d";""
"mall";"Pusat Perbelanjaan";"Pasar Indralaya";"PMWG+FPV, Jl. Lintas Timur KM. 38, Komp Pasar Indralaya Kel, Jl. Lintas Sumatra Pasar, Indralaya Mulia, Indralaya, Ogan Ilir Regency, South Sumatra 30862";"Jl. Lintas Timur KM. 38, Komp Pasar Indralaya Kel, Jl. Lintas Sumatra Pasar, Indralaya Mulia, Indralaya, Ogan Ilir Regency";"SUMATERA SELATAN";"30862";"Indonesia";" 07117584085";"";"";"-3.2527653";"104.6767456";"https://maps.google.com/?cid=0x0:0xd5ee1ccabb05e505";""
"mall";"ATM";"Agen BRILink Toko Yadi";"PMPJ+HQ6, Sakatiga Seberang, Kec. Indralaya, Kabupaten Ogan Ilir, Sumatera Selatan 30816";"Sakatiga Seberang, Kec. Indralaya, Kabupaten Ogan Ilir";"SUMATERA SELATAN";"30816";"Indonesia";" 081373404041";"";"";"-3.2635941";"104.6818764";"https://maps.google.com/?cid=0x0:0xc87c6a07f8ba4445";""
"mall";"Pasar";"Pasar Tradisional Indralaya Ogan Ilir";"QM2J+5R5, Sakatiga, Kec. Indralaya, Kabupaten Ogan Ilir, Sumatera Selatan 30817";"Sakatiga, Kec. Indralaya, Kabupaten Ogan Ilir";"SUMATERA SELATAN";"30817";"Indonesia";"";"";"";"-3.2496006";"104.6821048";"https://maps.google.com/?cid=0x0:0x7c844f9e784711c9";""
"mall";"Toko Ponsel";"HERRI CELL";"PMWG+VQV, Indralaya Mulia, Kec. Indralaya, Kabupaten Ogan Ilir, Sumatera Selatan 30862";"Indralaya Mulia, Kec. Indralaya, Kabupaten Ogan Ilir";"SUMATERA SELATAN";"30862";"Indonesia";" 082371566040";"";"";"-3.2527271";"104.6770615";"https://maps.google.com/?cid=0x0:0x8f464193df2d6472";""
"mall";"Toko Aksesori Pakaian";"Olshop by Sri Maryati";"MMHX+RMQ, Tj. Dayang Sel., Kec. Indralaya Sel., Kabupaten Ogan Ilir, Sumatera Selatan 30862";"Tj. Dayang Sel., Kec. Indralaya Sel., Kabupaten Ogan Ilir";"SUMATERA SELATAN";"30862";"Indonesia";"";"";"";"-3.3204225";"104.6992353";"https://maps.google.com/?cid=0x0:0xabd0aa5cc09c935e";""
"mall";"Pusat Perbelanjaan";"Seribandung";"QM98+R2M, Jl. Nurul Persada, Indralaya Indah, Kec. Indralaya, Kabupaten Ogan Ilir, Sumatera Selatan 30862";"Jl. Nurul Persada, Indralaya Indah, Kec. Indralaya, Kabupaten Ogan Ilir";"SUMATERA SELATAN";"30862";"Indonesia";"";"";"";"-3.2304139";"104.6650398";"https://maps.google.com/?cid=0x0:0x4a38b57abc2f0d38";""
"mall";"Pusat Perbelanjaan";"CROSS REGIONAL GROWTH CENTERS";"QJVF+4WG, Tj. Baru, Kecamatan Indralaya Utara, Kabupaten Ogan Ilir, Sumatera Selatan 30862";"Tj. Baru, Kecamatan Indralaya Utara, Kabupaten Ogan Ilir";"SUMATERA SELATAN";"30862";"Indonesia";" 08176011162";"";"";"-3.2071904";"104.6248248";"https://maps.google.com/?cid=0x0:0xa7623411a063fc67";""
"mall";"Paket Makanan Pokok";"Kopi Asli Pagaralam Cap Gunung Dempo";"Indralaya Mulia, Kec. Indralaya, Kabupaten Ogan Ilir, Sumatera Selatan 30862";"Kec. Indralaya, Kabupaten Ogan Ilir";"SUMATERA SELATAN";"30862";"Indonesia";"";"";"";"-3.2418461";"104.6604824";"https://maps.google.com/?cid=0x0:0x7c6aff6c827141fe";""
"mall";"Toko Swalayan";"Indomart";"RM7G+P29, Jl. Lintas Sumatra, Palem Raya, Kecamatan Indralaya Utara, Kabupaten Ogan Ilir, Sumatera Selatan 30862";"Jl. Lintas Sumatra, Palem Raya, Kecamatan Indralaya Utara, Kabupaten Ogan Ilir";"SUMATERA SELATAN";"30862";"Indonesia";"";"";"";"-3.1857093";"104.6751139";"https://maps.google.com/?cid=0x0:0x81046d98b36d11d4";""
"mall";"Toko bahan makanan";"Azriel Shop";"QM87+CG9, Jl. Muhajirin, Indralaya Raya, Kec. Indralaya, Kabupaten Ogan Ilir, Sumatera Selatan 30862";"Jl. Muhajirin, Indralaya Raya, Kec. Indralaya, Kabupaten Ogan Ilir";"SUMATERA SELATAN";"30862";"Indonesia";"";"";"";"-3.2339605";"104.6638592";"https://maps.google.com/?cid=0x0:0x493a9f0a52d2586";""
"mall";"Toko Ponsel";"Pusat Grosir Aksesoris HP";"MMPG+W48, Jl. Raya Tanah Tinggi, Meranjat II, Kec. Indralaya Sel., Kabupaten Ogan Ilir, Sumatera Selatan 30862";"Jl. Raya Tanah Tinggi, Meranjat II, Kec. Indralaya Sel., Kabupaten Ogan Ilir";"SUMATERA SELATAN";"30862";"Indonesia";" 081317024303";"";"";"-3.3127169";"104.6753347";"https://maps.google.com/?cid=0x0:0xa96fd7e519d05c29";""
"mall";"Toko Kosmetik";"SyamakeUp";"Jl. Anggrek No.30, Timbangan, Kecamatan Indralaya Utara, Kabupaten Ogan Ilir, Sumatera Selatan 30862";"Timbangan, Kecamatan Indralaya Utara, Kabupaten Ogan Ilir";"SUMATERA SELATAN";"30862";"Indonesia";" 085267314627";"";"";"-3.2046287";"104.6571643";"https://maps.google.com/?cid=0x0:0x5c1075cd08043492";""
"mall";"Pusat Perbelanjaan";"Izdihaar";"RM48+J26, Unnamed Road, Palem Raya, Kecamatan Indralaya Utara, Kabupaten Ogan Ilir, Sumatera Selatan 30862";"Unnamed Road, Palem Raya, Kecamatan Indralaya Utara, Kabupaten Ogan Ilir";"SUMATERA SELATAN";"30862";"Indonesia";" 082122867243";"";"";"-3.1934652";"104.6650208";"https://maps.google.com/?cid=0x0:0x8849ba184357508";""
"mall";"Toko Makanan";"Kemplang habib";"Jl. Indralaya Raya No.103, Tj. Gelam, Kec. Indralaya, Kabupaten Ogan Ilir, Sumatera Selatan 30816";"Tj. Gelam, Kec. Indralaya, Kabupaten Ogan Ilir";"SUMATERA SELATAN";"30816";"Indonesia";" 083177820431";"";"";"-3.2727817";"104.6871682";"https://maps.google.com/?cid=0x0:0xbdd060f25067e11b";""
"mall";"Bioskop";"OPI MALL";"Jakabaring Sport City, Jl. Gubernur H. A Bastari, Sungai Kedukan, Kec. Rambutan, Kab. Banyuasin, Sumatera Selatan 30257";"Jl. Gubernur H. A Bastari, Sungai Kedukan, Kec. Rambutan, Kab. Banyuasin";"SUMATERA SELATAN";"30257";"Indonesia";" 07115620477";"";"";"-3.0361406";"104.791564";"https://maps.google.com/?cid=0x0:0x179a245e68ec1ef";""
"mall";"Pusat Perbelanjaan";"Palembang Icon Mall";"Jl. POM IX, Lorok Pakjo, Kec. Ilir Bar. I, Kota Palembang, Sumatera Selatan 30137";"Lorok Pakjo, Kec. Ilir Bar. I, Kota Palembang";"SUMATERA SELATAN";"30137";"Indonesia";" 07115649366";"";"";"-2.97928";"104.745102";"https://maps.google.com/?cid=0x0:0x4f51deef4db78c49";""
"mall";"Pusat Perbelanjaan";"Mardy celluler";"RM4M+X5C, Unnamed Road, Palem Raya, Kecamatan Indralaya Utara, Kabupaten Ogan Ilir, Sumatera Selatan 30817";"Unnamed Road, Palem Raya, Kecamatan Indralaya Utara, Kabupaten Ogan Ilir";"SUMATERA SELATAN";"30817";"Indonesia";" 082176391979";"";"";"-3.192551";"104.68288";"https://maps.google.com/?cid=0x0:0x29cda7ccc48f63e4";""
"mall";"Pembangunan Perumahan";"Grogol Meranjat 1";"MMPF+HQQ, Meranjat I, Kec. Indralaya Sel., Kabupaten Ogan Ilir, Sumatera Selatan 30862";"Meranjat I, Kec. Indralaya Sel., Kabupaten Ogan Ilir";"SUMATERA SELATAN";"30862";"Indonesia";" 087809996166";"";"";"-3.3135468";"104.6744811";"https://maps.google.com/?cid=0x0:0x11c7346250603fdb";""
"mall";"Kantor Pemerintah";"Mal Pelayanan Publik Kabupaten Ogan Ilir";"QM78+93C, Indralaya Raya, Kec. Indralaya, Kabupaten Ogan Ilir, Sumatera Selatan 30862";"Indralaya Raya, Kec. Indralaya, Kabupaten Ogan Ilir";"SUMATERA SELATAN";"30862";"Indonesia";"";"";"";"-3.236571";"104.6651362";"https://maps.google.com/?cid=0x0:0xa2442be07a80428c";""
"mall";"Toko";"Model Mang Yan Seluler";"RM48+732, Palem Raya, Kecamatan Indralaya Utara, Kabupaten Ogan Ilir, Sumatera Selatan 30862";"Palem Raya, Kecamatan Indralaya Utara, Kabupaten Ogan Ilir";"SUMATERA SELATAN";"30862";"Indonesia";"";"";"";"-3.1944731";"104.6649445";"https://maps.google.com/?cid=0x0:0x68e292fee67fcdeb";""
"mall";"Toko Ponsel";"Base Camp Store TWT CF Business";"PMGQ+C2X, Tj. Gelam, Kec. Indralaya, Kabupaten Ogan Ilir, Sumatera Selatan 30862";"Tj. Gelam, Kec. Indralaya, Kabupaten Ogan Ilir";"SUMATERA SELATAN";"30862";"Indonesia";" 085368028323";"";"";"-3.2738931";"104.6876189";"https://maps.google.com/?cid=0x0:0xfae8786178565f13";""
"mall";"Toko Pakaian Wanita";"TOKO RIYA Menjual Pakaian Anak2 dan wanita";"PMWG+XRJ, Jl. Lintas Sumatra, Indralaya Mulia, Kec. Indralaya, Kabupaten Ogan Ilir, Sumatera Selatan 30862";"Jl. Lintas Sumatra, Indralaya Mulia, Kec. Indralaya, Kabupaten Ogan Ilir";"SUMATERA SELATAN";"30862";"Indonesia";" 085267890884";"";"";"-3.2525423";"104.6770048";"https://maps.google.com/?cid=0x0:0x2cbf20f3fe5f2f00";""
"mall";"Toko Ikan";"Gallery Ikan hias Ogan Ilir";"Jl. Lintas Sumatra, Indralaya Mulia, Kec. Indralaya, Kabupaten Ogan Ilir, Sumatera Selatan 30662";"Indralaya Mulia, Kec. Indralaya, Kabupaten Ogan Ilir";"SUMATERA SELATAN";"30662";"Indonesia";" 085839621230";"";"";"-3.2522274";"104.6736504";"https://maps.google.com/?cid=0x0:0x854640c060612bb9";""
"mall";"Toko Ponsel";"ERAFONE RUKO INDRALAYA";"QM59+3GGIndralaya MuliaKec, Kec. Indralaya, Kabupaten Ogan Ilir, Sumatera Selatan 30862";"Kec. Indralaya, Kabupaten Ogan Ilir";"SUMATERA SELATAN";"30862";"Indonesia";" 081373670759";"";"";"-3.2422189";"104.6688659";"https://maps.google.com/?cid=0x0:0x1b2af5ce405b70b9";""
"mall";"Pusat Perbelanjaan";"Palembang Indah Mall";"Jl. Letkol Iskandar No.18, 24 Ilir, Kec. Bukit Kecil, Kota Palembang, Sumatera Selatan 30134";"24 Ilir, Kec. Bukit Kecil, Kota Palembang";"SUMATERA SELATAN";"30134";"Indonesia";" 0711350999";"";"";"-2.9851559";"104.7537026";"https://maps.google.com/?cid=0x0:0xdb7489509d864093";""
"mall";"Toko";"Thuhriyah Toko Gamis Dan Jilbab";"QM2C+2J9 nasi goreng, Indralaya Mulia, belakang rumah makan mang iang, Indralaya Mulia, Kec. Indralaya, Kabupaten Ogan Ilir, Sumatera Selatan 30862";"Indralaya Mulia, belakang rumah makan mang iang, Indralaya Mulia, Kec. Indralaya, Kabupaten Ogan Ilir";"SUMATERA SELATAN";"30862";"Indonesia";" 085380855182";"";"";"-3.2499605";"104.6715959";"https://maps.google.com/?cid=0x0:0x6cd3094a4f2099c9";""
"mall";"mall";"Sumatera Selatan 30817";"Kabupaten Ogan Ilir, Sumatera Selatan";"Kabupaten Ogan Ilir, Sumatera Selatan";"SUMATERA SELATAN";"";"Indonesia";"";"";"";"-3.1959123";"104.687936";"https://maps.google.com/?cid=0x0:0x428046919311c029";""
"mall";"Pusat Perbelanjaan";"Indralaya Trade Center";"Indralaya Raya, Kec. Indralaya, Kabupaten Ogan Ilir, Sumatera Selatan 30653";"Kec. Indralaya, Kabupaten Ogan Ilir";"SUMATERA SELATAN";"30653";"Indonesia";"";"";"";"-3.2343406";"104.6649533";"https://maps.google.com/?cid=0x0:0xae3f0c3500918fdb";""
"mall";"Toko Swalayan";"Indomart";"RM7G+P29, Jl. Lintas Sumatra, Palem Raya, Kecamatan Indralaya Utara, Kabupaten Ogan Ilir, Sumatera Selatan 30862";"Jl. Lintas Sumatra, Palem Raya, Kecamatan Indralaya Utara, Kabupaten Ogan Ilir";"SUMATERA SELATAN";"30862";"Indonesia";"";"";"";"-3.1857093";"104.6751139";"https://maps.google.com/?cid=0x0:0x81046d98b36d11d4";""
"mall";"Pusat Perbelanjaan";"Rama";"PMWF+QPQ, Indralaya Mulia, Kec. Indralaya, Kabupaten Ogan Ilir, Sumatera Selatan 30862";"Indralaya Mulia, Kec. Indralaya, Kabupaten Ogan Ilir";"SUMATERA SELATAN";"30862";"Indonesia";" 085764807995";"";"";"-3.2530253";"104.6743496";"https://maps.google.com/?cid=0x0:0x17634d98328a052d";""
"mall";"Pasar";"Pasar Tradisional Indralaya Ogan Ilir";"QM2J+5R5, Sakatiga, Kec. Indralaya, Kabupaten Ogan Ilir, Sumatera Selatan 30817";"Sakatiga, Kec. Indralaya, Kabupaten Ogan Ilir";"SUMATERA SELATAN";"30817";"Indonesia";"";"";"";"-3.2496006";"104.6821048";"https://maps.google.com/?cid=0x0:0x7c844f9e784711c9";""
"mall";"Toko Kosmetik";"SyamakeUp";"Jl. Anggrek No.30, Timbangan, Kecamatan Indralaya Utara, Kabupaten Ogan Ilir, Sumatera Selatan 30862";"Timbangan, Kecamatan Indralaya Utara, Kabupaten Ogan Ilir";"SUMATERA SELATAN";"30862";"Indonesia";" 085267314627";"";"";"-3.2046287";"104.6571643";"https://maps.google.com/?cid=0x0:0x5c1075cd08043492";""
"mall";"Pasar";"Pasar Kalangan Palem Raya";"RM5M+3CF, Palem Raya, Kecamatan Indralaya Utara, Kabupaten Ogan Ilir, Sumatera Selatan 30817";"Palem Raya, Kecamatan Indralaya Utara, Kabupaten Ogan Ilir";"SUMATERA SELATAN";"30817";"Indonesia";" 085267100550";"";"";"-3.1923195";"104.6835578";"https://maps.google.com/?cid=0x0:0x20204b55e7d14ccc";""
"mall";"Pusat Perbelanjaan";"BC HNI Ogan Ilir";"QMC7+487 Masjid Nurul Persada, Komplek Persada Blok C1 No 15, Samping, Jl. Nurul Persada, Indralaya Indah, Indralaya, Ogan Ilir Regency, South Sumatra 30862";"Komplek Persada Blok C1 No 15, Samping, Jl. Nurul Persada, Indralaya Indah, Indralaya, Ogan Ilir Regency";"SUMATERA SELATAN";"30862";"Indonesia";" 07117584732";"";"";"-3.2297125";"104.6632777";"https://maps.google.com/?cid=0x0:0x6862d5c0b163989a";""
"mall";"Toko";"Toko Jana";"QM8H+F6R, Tj. Seteko, Kec. Indralaya, Kabupaten Ogan Ilir, Sumatera Selatan 30862";"Tj. Seteko, Kec. Indralaya, Kabupaten Ogan Ilir";"SUMATERA SELATAN";"30862";"Indonesia";"";"";"";"-3.2337511";"104.6780039";"https://maps.google.com/?cid=0x0:0xb1ae87b0b87b98b9";""
"mall";"Pusat Perbelanjaan";"Seribandung";"QM98+R2M, Jl. Nurul Persada, Indralaya Indah, Kec. Indralaya, Kabupaten Ogan Ilir, Sumatera Selatan 30862";"Jl. Nurul Persada, Indralaya Indah, Kec. Indralaya, Kabupaten Ogan Ilir";"SUMATERA SELATAN";"30862";"Indonesia";"";"";"";"-3.2304139";"104.6650398";"https://maps.google.com/?cid=0x0:0x4a38b57abc2f0d38";""
"mall";"Pusat Perbelanjaan";"Izdihaar";"RM48+J26, Unnamed Road, Palem Raya, Kecamatan Indralaya Utara, Kabupaten Ogan Ilir, Sumatera Selatan 30862";"Unnamed Road, Palem Raya, Kecamatan Indralaya Utara, Kabupaten Ogan Ilir";"SUMATERA SELATAN";"30862";"Indonesia";" 082122867243";"";"";"-3.1934652";"104.6650208";"https://maps.google.com/?cid=0x0:0x8849ba184357508";""
"mall";"Pusat Perbelanjaan";"Kaiia Fashion  Dapur Kaiia (Palemraya blok N No. 64)";"Perumahan palemraya, Palem Raya, Kecamatan Indralaya Utara, Kabupaten Ogan Ilir, Sumatera Selatan 30862";"Palem Raya, Kecamatan Indralaya Utara, Kabupaten Ogan Ilir";"SUMATERA SELATAN";"30862";"Indonesia";" 085769632289";"";"";"-3.1920806";"104.6817647";"https://maps.google.com/?cid=0x0:0xdfda89ee2b9a6e2f";""
"mall";"Pusat Perbelanjaan";"Pasar Indralaya";"PMWG+FPV, Jl. Lintas Timur KM. 38, Komp Pasar Indralaya Kel, Jl. Lintas Sumatra Pasar, Indralaya Mulia, Indralaya, Ogan Ilir Regency, South Sumatra 30862";"Jl. Lintas Timur KM. 38, Komp Pasar Indralaya Kel, Jl. Lintas Sumatra Pasar, Indralaya Mulia, Indralaya, Ogan Ilir Regency";"SUMATERA SELATAN";"30862";"Indonesia";" 07117584085";"";"";"-3.2527653";"104.6767456";"https://maps.google.com/?cid=0x0:0xd5ee1ccabb05e505";""
"mall";"Pusat Perbelanjaan";"Toko CHIKA GROUP";"Jl. Indralaya Raya No.18, Timbangan, Kecamatan Indralaya Utara, Kabupaten Ogan Ilir, Sumatera Selatan 30862";"Timbangan, Kecamatan Indralaya Utara, Kabupaten Ogan Ilir";"SUMATERA SELATAN";"30862";"Indonesia";" 081368371577";"";"";"-3.1985752";"104.6598006";"https://maps.google.com/?cid=0x0:0xce7f839f3458435";""
"mall";"Toko";"Model Mang Yan Seluler";"RM48+732, Palem Raya, Kecamatan Indralaya Utara, Kabupaten Ogan Ilir, Sumatera Selatan 30862";"Palem Raya, Kecamatan Indralaya Utara, Kabupaten Ogan Ilir";"SUMATERA SELATAN";"30862";"Indonesia";"";"";"";"-3.1944731";"104.6649445";"https://maps.google.com/?cid=0x0:0x68e292fee67fcdeb";""
"mall";"Toko Ponsel";"HERRI CELL";"PMWG+VQV, Indralaya Mulia, Kec. Indralaya, Kabupaten Ogan Ilir, Sumatera Selatan 30862";"Indralaya Mulia, Kec. Indralaya, Kabupaten Ogan Ilir";"SUMATERA SELATAN";"30862";"Indonesia";" 082371566040";"";"";"-3.2527271";"104.6770615";"https://maps.google.com/?cid=0x0:0x8f464193df2d6472";""
"mall";"Pusat Perbelanjaan";"Palembang Icon Mall";"Jl. POM IX, Lorok Pakjo, Kec. Ilir Bar. I, Kota Palembang, Sumatera Selatan 30137";"Lorok Pakjo, Kec. Ilir Bar. I, Kota Palembang";"SUMATERA SELATAN";"30137";"Indonesia";" 07115649366";"";"";"-2.97928";"104.745102";"https://maps.google.com/?cid=0x0:0x4f51deef4db78c49";""
"mall";"Pusat Perbelanjaan";"Warung Amran";"QM9H+5QG, Muara P. Ulu, Kec. Indralaya, Kabupaten Ogan Ilir, Sumatera Selatan 30817";"Muara P. Ulu, Kec. Indralaya, Kabupaten Ogan Ilir";"SUMATERA SELATAN";"30817";"Indonesia";"";"";"";"-3.2320603";"104.6794666";"https://maps.google.com/?cid=0x0:0x1dc256541c5e26c2";""
"mall";"Pusat Perbelanjaan";"Palembang Indah Mall";"Jl. Letkol Iskandar No.18, 24 Ilir, Kec. Bukit Kecil, Kota Palembang, Sumatera Selatan 30134";"24 Ilir, Kec. Bukit Kecil, Kota Palembang";"SUMATERA SELATAN";"30134";"Indonesia";" 0711350999";"";"";"-2.9851559";"104.7537026";"https://maps.google.com/?cid=0x0:0xdb7489509d864093";""
"mall";"Toko Rokok Elektrik";"Vape Layo Kingsman";"QMX4+6HJ, Timbangan, Kecamatan Indralaya Utara, Kabupaten Ogan Ilir, Sumatera Selatan 30862";"Timbangan, Kecamatan Indralaya Utara, Kabupaten Ogan Ilir";"SUMATERA SELATAN";"30862";"Indonesia";"";"";"";"-3.2019186";"104.6563853";"https://maps.google.com/?cid=0x0:0x5239071938141ad0";""
"mall";"Kantor Pemerintah";"Mal Pelayanan Publik Kabupaten Ogan Ilir";"QM78+93C, Indralaya Raya, Kec. Indralaya, Kabupaten Ogan Ilir, Sumatera Selatan 30862";"Indralaya Raya, Kec. Indralaya, Kabupaten Ogan Ilir";"SUMATERA SELATAN";"30862";"Indonesia";"";"";"";"-3.236571";"104.6651362";"https://maps.google.com/?cid=0x0:0xa2442be07a80428c";""
"mall";"Pusat Perbelanjaan";"Lapak Semangka David";"Jl. Raya Lintas Timur Palembang - Prabumulih No.20, Pulau Semambu, Kecamatan Indralaya Utara, Kabupaten Ogan Ilir, Sumatera Selatan 30862";"Pulau Semambu, Kecamatan Indralaya Utara, Kabupaten Ogan Ilir";"SUMATERA SELATAN";"30862";"Indonesia";" 082175336853";"";"";"-3.1765777";"104.6811002";"https://maps.google.com/?cid=0x0:0xa3da861abff42928";""
"mall";"Paket Makanan Pokok";"Kopi Asli Pagaralam Cap Gunung Dempo";"Indralaya Mulia, Kec. Indralaya, Kabupaten Ogan Ilir, Sumatera Selatan 30862";"Kec. Indralaya, Kabupaten Ogan Ilir";"SUMATERA SELATAN";"30862";"Indonesia";"";"";"";"-3.2418461";"104.6604824";"https://maps.google.com/?cid=0x0:0x7c6aff6c827141fe";""
"mall";"Toko bahan makanan";"INDOMARET JALAN NUSANTARA";"QMR2+6C4, Timbangan, Kecamatan Indralaya Utara, Kabupaten Ogan Ilir, Sumatera Selatan 30862";"Timbangan, Kecamatan Indralaya Utara, Kabupaten Ogan Ilir";"SUMATERA SELATAN";"30862";"Indonesia";"";"";"";"-3.209318";"104.6512747";"https://maps.google.com/?cid=0x0:0x8b35e51cf09ecede";""
"mall";"Toko Pertanian";"Smart Tani";"Jalan Raya Sp. Timbangan No.KM. 32, Timbangan, Kec. Indralaya, Kabupaten Ogan Ilir, Sumatera Selatan 30862";"Timbangan, Kec. Indralaya, Kabupaten Ogan Ilir";"SUMATERA SELATAN";"30862";"Indonesia";" 082163667691";"";"";"-3.1997263";"104.6578848";"https://maps.google.com/?cid=0x0:0x2ae7ff6287c4e90f";""
"mall";"Toko Ponsel";"ERAFONE RUKO INDRALAYA";"QM59+3GGIndralaya MuliaKec, Kec. Indralaya, Kabupaten Ogan Ilir, Sumatera Selatan 30862";"Kec. Indralaya, Kabupaten Ogan Ilir";"SUMATERA SELATAN";"30862";"Indonesia";" 081373670759";"";"";"-3.2422189";"104.6688659";"https://maps.google.com/?cid=0x0:0x1b2af5ce405b70b9";""
"mall";"mall";"Kec. Indralaya";"Kabupaten Ogan Ilir, Sumatera Selatan";"Kabupaten Ogan Ilir, Sumatera Selatan";"SUMATERA SELATAN";"";"Indonesia";"";"";"";"-3.2517551";"104.6731914";"https://maps.google.com/?cid=0x0:0x693ee87eec159cb9";""
"mall";"Pusat Perbelanjaan";"Indralaya Trade Center";"Indralaya Raya, Kec. Indralaya, Kabupaten Ogan Ilir, Sumatera Selatan 30653";"Kec. Indralaya, Kabupaten Ogan Ilir";"SUMATERA SELATAN";"30653";"Indonesia";"";"";"";"-3.2343406";"104.6649533";"https://maps.google.com/?cid=0x0:0xae3f0c3500918fdb";""
"mall";"Pusat Perbelanjaan";"Seribandung";"QM98+R2M, Jl. Nurul Persada, Indralaya Indah, Kec. Indralaya, Kabupaten Ogan Ilir, Sumatera Selatan 30862";"Jl. Nurul Persada, Indralaya Indah, Kec. Indralaya, Kabupaten Ogan Ilir";"SUMATERA SELATAN";"30862";"Indonesia";"";"";"";"-3.2304139";"104.6650398";"https://maps.google.com/?cid=0x0:0x4a38b57abc2f0d38";""
"mall";"Pusat Perbelanjaan";"BC HNI Ogan Ilir";"QMC7+487 Masjid Nurul Persada, Komplek Persada Blok C1 No 15, Samping, Jl. Nurul Persada, Indralaya Indah, Indralaya, Ogan Ilir Regency, South Sumatra 30862";"Komplek Persada Blok C1 No 15, Samping, Jl. Nurul Persada, Indralaya Indah, Indralaya, Ogan Ilir Regency";"SUMATERA SELATAN";"30862";"Indonesia";" 07117584732";"";"";"-3.2297125";"104.6632777";"https://maps.google.com/?cid=0x0:0x6862d5c0b163989a";""
"mall";"Toko bahan makanan";"Azriel Shop";"QM87+CG9, Jl. Muhajirin, Indralaya Raya, Kec. Indralaya, Kabupaten Ogan Ilir, Sumatera Selatan 30862";"Jl. Muhajirin, Indralaya Raya, Kec. Indralaya, Kabupaten Ogan Ilir";"SUMATERA SELATAN";"30862";"Indonesia";"";"";"";"-3.2339605";"104.6638592";"https://maps.google.com/?cid=0x0:0x493a9f0a52d2586";""
"mall";"Toko bahan makanan";"INDOMARET JALAN NUSANTARA";"QMR2+6C4, Timbangan, Kecamatan Indralaya Utara, Kabupaten Ogan Ilir, Sumatera Selatan 30862";"Timbangan, Kecamatan Indralaya Utara, Kabupaten Ogan Ilir";"SUMATERA SELATAN";"30862";"Indonesia";"";"";"";"-3.209318";"104.6512747";"https://maps.google.com/?cid=0x0:0x8b35e51cf09ecede";""
"mall";"Toko Ponsel";"HERRI CELL";"PMWG+VQV, Indralaya Mulia, Kec. Indralaya, Kabupaten Ogan Ilir, Sumatera Selatan 30862";"Indralaya Mulia, Kec. Indralaya, Kabupaten Ogan Ilir";"SUMATERA SELATAN";"30862";"Indonesia";" 082371566040";"";"";"-3.2527271";"104.6770615";"https://maps.google.com/?cid=0x0:0x8f464193df2d6472";""
"mall";"Pusat Perbelanjaan";"Mardy celluler";"RM4M+X5C, Unnamed Road, Palem Raya, Kecamatan Indralaya Utara, Kabupaten Ogan Ilir, Sumatera Selatan 30817";"Unnamed Road, Palem Raya, Kecamatan Indralaya Utara, Kabupaten Ogan Ilir";"SUMATERA SELATAN";"30817";"Indonesia";" 082176391979";"";"";"-3.192551";"104.68288";"https://maps.google.com/?cid=0x0:0x29cda7ccc48f63e4";""
"mall";"Toko";"Toko Jana";"QM8H+F6R, Tj. Seteko, Kec. Indralaya, Kabupaten Ogan Ilir, Sumatera Selatan 30862";"Tj. Seteko, Kec. Indralaya, Kabupaten Ogan Ilir";"SUMATERA SELATAN";"30862";"Indonesia";"";"";"";"-3.2337511";"104.6780039";"https://maps.google.com/?cid=0x0:0xb1ae87b0b87b98b9";""
"mall";"Toko Swalayan";"Indomart";"RM7G+P29, Jl. Lintas Sumatra, Palem Raya, Kecamatan Indralaya Utara, Kabupaten Ogan Ilir, Sumatera Selatan 30862";"Jl. Lintas Sumatra, Palem Raya, Kecamatan Indralaya Utara, Kabupaten Ogan Ilir";"SUMATERA SELATAN";"30862";"Indonesia";"";"";"";"-3.1857093";"104.6751139";"https://maps.google.com/?cid=0x0:0x81046d98b36d11d4";""
"mall";"Paket Makanan Pokok";"Kopi Asli Pagaralam Cap Gunung Dempo";"Indralaya Mulia, Kec. Indralaya, Kabupaten Ogan Ilir, Sumatera Selatan 30862";"Kec. Indralaya, Kabupaten Ogan Ilir";"SUMATERA SELATAN";"30862";"Indonesia";"";"";"";"-3.2418461";"104.6604824";"https://maps.google.com/?cid=0x0:0x7c6aff6c827141fe";""
"mall";"Pusat Perbelanjaan";"CROSS REGIONAL GROWTH CENTERS";"QJVF+4WG, Tj. Baru, Kecamatan Indralaya Utara, Kabupaten Ogan Ilir, Sumatera Selatan 30862";"Tj. Baru, Kecamatan Indralaya Utara, Kabupaten Ogan Ilir";"SUMATERA SELATAN";"30862";"Indonesia";" 08176011162";"";"";"-3.2071904";"104.6248248";"https://maps.google.com/?cid=0x0:0xa7623411a063fc67";""
"mall";"Toko";"Toko TH. Pelangi Tanjung Raya";"QM45+58M, Indralaya Mulia, Kec. Indralaya, Kabupaten Ogan Ilir, Sumatera Selatan 30862";"Indralaya Mulia, Kec. Indralaya, Kabupaten Ogan Ilir";"SUMATERA SELATAN";"30862";"Indonesia";"";"";"";"-3.2445505";"104.658627";"https://maps.google.com/?cid=0x0:0x107099f47223ebeb";""
"mall";"Pusat Perbelanjaan";"Pasar Indralaya";"PMWG+FPV, Jl. Lintas Timur KM. 38, Komp Pasar Indralaya Kel, Jl. Lintas Sumatra Pasar, Indralaya Mulia, Indralaya, Ogan Ilir Regency, South Sumatra 30862";"Jl. Lintas Timur KM. 38, Komp Pasar Indralaya Kel, Jl. Lintas Sumatra Pasar, Indralaya Mulia, Indralaya, Ogan Ilir Regency";"SUMATERA SELATAN";"30862";"Indonesia";" 07117584085";"";"";"-3.2527653";"104.6767456";"https://maps.google.com/?cid=0x0:0xd5ee1ccabb05e505";""
"mall";"Toko Swalayan";"Indomaret Indralaya indah";"Ruko Langgeng Residence, Depan RRI, Jl. Lintas Sumatra Jl. Nurul Persada No.KM.35, Indralaya Indah, Kec. Indralaya, Kabupaten Ogan Ilir, Sumatera Selatan 30862";"Depan RRI, Jl. Lintas Sumatra Jl. Nurul Persada No.KM.35, Indralaya Indah, Kec. Indralaya, Kabupaten Ogan Ilir";"SUMATERA SELATAN";"30862";"Indonesia";"";"";"";"-3.2304524";"104.6650408";"https://maps.google.com/?cid=0x0:0xf6f05a35f566846a";""
"mall";"Pusat Perbelanjaan";"Izdihaar";"RM48+J26, Unnamed Road, Palem Raya, Kecamatan Indralaya Utara, Kabupaten Ogan Ilir, Sumatera Selatan 30862";"Unnamed Road, Palem Raya, Kecamatan Indralaya Utara, Kabupaten Ogan Ilir";"SUMATERA SELATAN";"30862";"Indonesia";" 082122867243";"";"";"-3.1934652";"104.6650208";"https://maps.google.com/?cid=0x0:0x8849ba184357508";""
"mall";"Pasar";"Pasar Tradisional Indralaya Ogan Ilir";"QM2J+5R5, Sakatiga, Kec. Indralaya, Kabupaten Ogan Ilir, Sumatera Selatan 30817";"Sakatiga, Kec. Indralaya, Kabupaten Ogan Ilir";"SUMATERA SELATAN";"30817";"Indonesia";"";"";"";"-3.2496006";"104.6821048";"https://maps.google.com/?cid=0x0:0x7c844f9e784711c9";""
"mall";"Toko Kosmetik";"SyamakeUp";"Jl. Anggrek No.30, Timbangan, Kecamatan Indralaya Utara, Kabupaten Ogan Ilir, Sumatera Selatan 30862";"Timbangan, Kecamatan Indralaya Utara, Kabupaten Ogan Ilir";"SUMATERA SELATAN";"30862";"Indonesia";" 085267314627";"";"";"-3.2046287";"104.6571643";"https://maps.google.com/?cid=0x0:0x5c1075cd08043492";""
"mall";"Toko";"Model Mang Yan Seluler";"RM48+732, Palem Raya, Kecamatan Indralaya Utara, Kabupaten Ogan Ilir, Sumatera Selatan 30862";"Palem Raya, Kecamatan Indralaya Utara, Kabupaten Ogan Ilir";"SUMATERA SELATAN";"30862";"Indonesia";"";"";"";"-3.1944731";"104.6649445";"https://maps.google.com/?cid=0x0:0x68e292fee67fcdeb";""
"mall";"Pempek";"Warung Model Ujok Neli";"QM6X+G7H dsn, RT.2/RW.2, Muara P. Ulu, Kec. Indralaya, Kabupaten Ogan Ilir, Sumatera Selatan 30862";"RT.2/RW.2, Muara P. Ulu, Kec. Indralaya, Kabupaten Ogan Ilir";"SUMATERA SELATAN";"30862";"Indonesia";" 082181678621";"";"";"-3.238681";"104.6982272";"https://maps.google.com/?cid=0x0:0x96d977dd0f38a63c";""
"mall";"Toko";"Mr. DIY indralaya";"Jl. Lintas Sumatra No.Km 37, Indralaya Mulia, Kec. Indralaya, Kabupaten Ogan Ilir, Sumatera Selatan 30862";"Indralaya Mulia, Kec. Indralaya, Kabupaten Ogan Ilir";"SUMATERA SELATAN";"30862";"Indonesia";"";"";"";"-3.2458145";"104.6700944";"https://maps.google.com/?cid=0x0:0x1f3ac5a5edb6127c";""
"mall";"Pasar";"Pasar Kalangan Palem Raya";"RM5M+3CF, Palem Raya, Kecamatan Indralaya Utara, Kabupaten Ogan Ilir, Sumatera Selatan 30817";"Palem Raya, Kecamatan Indralaya Utara, Kabupaten Ogan Ilir";"SUMATERA SELATAN";"30817";"Indonesia";" 085267100550";"";"";"-3.1923195";"104.6835578";"https://maps.google.com/?cid=0x0:0x20204b55e7d14ccc";""
"mall";"Toko Pakaian";"Mepa Market Parit";"Parit, Kecamatan Indralaya Utara, Kabupaten Ogan Ilir, Sumatera Selatan 30862";"Kecamatan Indralaya Utara, Kabupaten Ogan Ilir";"SUMATERA SELATAN";"30862";"Indonesia";"";"";"";"-3.1992237";"104.5875284";"https://maps.google.com/?cid=0x0:0xb15f93e7c4464cff";""
"mall";"Pusat Perbelanjaan";"Kaiia Fashion  Dapur Kaiia (Palemraya blok N No. 64)";"Perumahan palemraya, Palem Raya, Kecamatan Indralaya Utara, Kabupaten Ogan Ilir, Sumatera Selatan 30862";"Palem Raya, Kecamatan Indralaya Utara, Kabupaten Ogan Ilir";"SUMATERA SELATAN";"30862";"Indonesia";" 085769632289";"";"";"-3.1920806";"104.6817647";"https://maps.google.com/?cid=0x0:0xdfda89ee2b9a6e2f";""
"mall";"Toko Ponsel";"ERAFONE RUKO INDRALAYA";"QM59+3GGIndralaya MuliaKec, Kec. Indralaya, Kabupaten Ogan Ilir, Sumatera Selatan 30862";"Kec. Indralaya, Kabupaten Ogan Ilir";"SUMATERA SELATAN";"30862";"Indonesia";" 081373670759";"";"";"-3.2422189";"104.6688659";"https://maps.google.com/?cid=0x0:0x1b2af5ce405b70b9";""
"mall";"mall";"Kec. Indralaya Sel.";"Kabupaten Ogan Ilir, Sumatera Selatan";"Kabupaten Ogan Ilir, Sumatera Selatan";"SUMATERA SELATAN";"";"Indonesia";"";"";"";"-3.2968696";"104.6900617";"https://maps.google.com/?cid=0x0:0x8c1bf26a5b252d71";""
"mall";"Pusat Perbelanjaan";"Indralaya Trade Center";"Indralaya Raya, Kec. Indralaya, Kabupaten Ogan Ilir, Sumatera Selatan 30653";"Kec. Indralaya, Kabupaten Ogan Ilir";"SUMATERA SELATAN";"30653";"Indonesia";"";"";"";"-3.2343406";"104.6649533";"https://maps.google.com/?cid=0x0:0xae3f0c3500918fdb";""
"mall";"Toko Aksesori Pakaian";"Olshop by Sri Maryati";"MMHX+RMQ, Tj. Dayang Sel., Kec. Indralaya Sel., Kabupaten Ogan Ilir, Sumatera Selatan 30862";"Tj. Dayang Sel., Kec. Indralaya Sel., Kabupaten Ogan Ilir";"SUMATERA SELATAN";"30862";"Indonesia";"";"";"";"-3.3204225";"104.6992353";"https://maps.google.com/?cid=0x0:0xabd0aa5cc09c935e";""
"mall";"Pusat Perbelanjaan";"Mang fir";"Jl. Lintas Sumatra No.100, Sukaraja Baru, Kec. Indralaya Sel., Kabupaten Ogan Ilir, Sumatera Selatan 30862";"Sukaraja Baru, Kec. Indralaya Sel., Kabupaten Ogan Ilir";"SUMATERA SELATAN";"30862";"Indonesia";" 085383090909";"";"";"-3.3031456";"104.7080134";"https://maps.google.com/?cid=0x0:0x19474ab85b3ca77f";""
"mall";"Toko Ponsel";"Pusat Grosir Aksesoris HP";"MMPG+W48, Jl. Raya Tanah Tinggi, Meranjat II, Kec. Indralaya Sel., Kabupaten Ogan Ilir, Sumatera Selatan 30862";"Jl. Raya Tanah Tinggi, Meranjat II, Kec. Indralaya Sel., Kabupaten Ogan Ilir";"SUMATERA SELATAN";"30862";"Indonesia";" 081317024303";"";"";"-3.3127169";"104.6753347";"https://maps.google.com/?cid=0x0:0xa96fd7e519d05c29";""
"mall";"Pusat Perbelanjaan";"BC HNI Ogan Ilir";"QMC7+487 Masjid Nurul Persada, Komplek Persada Blok C1 No 15, Samping, Jl. Nurul Persada, Indralaya Indah, Indralaya, Ogan Ilir Regency, South Sumatra 30862";"Komplek Persada Blok C1 No 15, Samping, Jl. Nurul Persada, Indralaya Indah, Indralaya, Ogan Ilir Regency";"SUMATERA SELATAN";"30862";"Indonesia";" 07117584732";"";"";"-3.2297125";"104.6632777";"https://maps.google.com/?cid=0x0:0x6862d5c0b163989a";""
"mall";"Pasar";"Pasar Meranti. (Meranjat dan Beti)";"MMVH+9H4, Meranjat Ilir, Kec. Indralaya Sel., Kabupaten Ogan Ilir, Sumatera Selatan 30862";"Meranjat Ilir, Kec. Indralaya Sel., Kabupaten Ogan Ilir";"SUMATERA SELATAN";"30862";"Indonesia";"";"";"";"-3.3066148";"104.6789598";"https://maps.google.com/?cid=0x0:0x6140d6f78cb17253";""
"mall";"Pusat Perbelanjaan";"Alma bibit";"MPW5+QX3, Jl. Lintas Sumatra, Sukaraja Baru, Kec. Indralaya Sel., Kabupaten Ogan Ilir, Sumatera Selatan 30862";"Jl. Lintas Sumatra, Sukaraja Baru, Kec. Indralaya Sel., Kabupaten Ogan Ilir";"SUMATERA SELATAN";"30862";"Indonesia";" 085267874505";"";"";"-3.3031085";"104.7099067";"https://maps.google.com/?cid=0x0:0xc1d80c1c5659ae3";""
"mall";"Pusat Perbelanjaan";"CROSS REGIONAL GROWTH CENTERS";"QJVF+4WG, Tj. Baru, Kecamatan Indralaya Utara, Kabupaten Ogan Ilir, Sumatera Selatan 30862";"Tj. Baru, Kecamatan Indralaya Utara, Kabupaten Ogan Ilir";"SUMATERA SELATAN";"30862";"Indonesia";" 08176011162";"";"";"-3.2071904";"104.6248248";"https://maps.google.com/?cid=0x0:0xa7623411a063fc67";""
"mall";"Pusat Perbelanjaan";"Sri bibit";"Jl. Lintas Sumatra No.100, Sukaraja Baru, Kec. Indralaya Sel., Kabupaten Ogan Ilir, Sumatera Selatan 30862";"Sukaraja Baru, Kec. Indralaya Sel., Kabupaten Ogan Ilir";"SUMATERA SELATAN";"30862";"Indonesia";"";"";"";"-3.307794";"104.7052304";"https://maps.google.com/?cid=0x0:0xefe428de7344302";""
"mall";"Toko Perlengkapan Rumah";"Agen Cleanoz Ogan Ilir";"MMRV+6QM Lrg. Ridho Pratama, Tj. Dayang Utara, Kec. Indralaya Sel., Kabupaten Ogan Ilir, Sumatera Selatan 30862";"Tj. Dayang Utara, Kec. Indralaya Sel., Kabupaten Ogan Ilir";"SUMATERA SELATAN";"30862";"Indonesia";" 082177018497";"";"";"-3.3094087";"104.6944335";"https://maps.google.com/?cid=0x0:0xe9c9ac485873f9bf";""
"mall";"Toko Perlengkapan Rumah";"Pengerajin Kelempang Yus Toyo";"PM5R+FM7, Tebing Gerinting Sel., Kec. Indralaya Sel., Kabupaten Ogan Ilir, Sumatera Selatan 30862";"Tebing Gerinting Sel., Kec. Indralaya Sel., Kabupaten Ogan Ilir";"SUMATERA SELATAN";"30862";"Indonesia";" 085378974521";"";"";"-3.2913388";"104.6916571";"https://maps.google.com/?cid=0x0:0x258089c2069ad022";""
"mall";"Pusat Perbelanjaan";"Seribandung";"QM98+R2M, Jl. Nurul Persada, Indralaya Indah, Kec. Indralaya, Kabupaten Ogan Ilir, Sumatera Selatan 30862";"Jl. Nurul Persada, Indralaya Indah, Kec. Indralaya, Kabupaten Ogan Ilir";"SUMATERA SELATAN";"30862";"Indonesia";"";"";"";"-3.2304139";"104.6650398";"https://maps.google.com/?cid=0x0:0x4a38b57abc2f0d38";""
"mall";"Toko";"Model Mang Yan Seluler";"RM48+732, Palem Raya, Kecamatan Indralaya Utara, Kabupaten Ogan Ilir, Sumatera Selatan 30862";"Palem Raya, Kecamatan Indralaya Utara, Kabupaten Ogan Ilir";"SUMATERA SELATAN";"30862";"Indonesia";"";"";"";"-3.1944731";"104.6649445";"https://maps.google.com/?cid=0x0:0x68e292fee67fcdeb";""
"mall";"Toko bahan makanan";"Azriel Shop";"QM87+CG9, Jl. Muhajirin, Indralaya Raya, Kec. Indralaya, Kabupaten Ogan Ilir, Sumatera Selatan 30862";"Jl. Muhajirin, Indralaya Raya, Kec. Indralaya, Kabupaten Ogan Ilir";"SUMATERA SELATAN";"30862";"Indonesia";"";"";"";"-3.2339605";"104.6638592";"https://maps.google.com/?cid=0x0:0x493a9f0a52d2586";""
"mall";"Toko Ponsel";"HERRI CELL";"PMWG+VQV, Indralaya Mulia, Kec. Indralaya, Kabupaten Ogan Ilir, Sumatera Selatan 30862";"Indralaya Mulia, Kec. Indralaya, Kabupaten Ogan Ilir";"SUMATERA SELATAN";"30862";"Indonesia";" 082371566040";"";"";"-3.2527271";"104.6770615";"https://maps.google.com/?cid=0x0:0x8f464193df2d6472";""
"mall";"Pusat Perbelanjaan";"Izdihaar";"RM48+J26, Unnamed Road, Palem Raya, Kecamatan Indralaya Utara, Kabupaten Ogan Ilir, Sumatera Selatan 30862";"Unnamed Road, Palem Raya, Kecamatan Indralaya Utara, Kabupaten Ogan Ilir";"SUMATERA SELATAN";"30862";"Indonesia";" 082122867243";"";"";"-3.1934652";"104.6650208";"https://maps.google.com/?cid=0x0:0x8849ba184357508";""
"mall";"Paket Makanan Pokok";"Kopi Asli Pagaralam Cap Gunung Dempo";"Indralaya Mulia, Kec. Indralaya, Kabupaten Ogan Ilir, Sumatera Selatan 30862";"Kec. Indralaya, Kabupaten Ogan Ilir";"SUMATERA SELATAN";"30862";"Indonesia";"";"";"";"-3.2418461";"104.6604824";"https://maps.google.com/?cid=0x0:0x7c6aff6c827141fe";""
"mall";"Toko Kosmetik";"SyamakeUp";"Jl. Anggrek No.30, Timbangan, Kecamatan Indralaya Utara, Kabupaten Ogan Ilir, Sumatera Selatan 30862";"Timbangan, Kecamatan Indralaya Utara, Kabupaten Ogan Ilir";"SUMATERA SELATAN";"30862";"Indonesia";" 085267314627";"";"";"-3.2046287";"104.6571643";"https://maps.google.com/?cid=0x0:0x5c1075cd08043492";""
"mall";"Pempek";"Warung Model Ujok Neli";"QM6X+G7H dsn, RT.2/RW.2, Muara P. Ulu, Kec. Indralaya, Kabupaten Ogan Ilir, Sumatera Selatan 30862";"RT.2/RW.2, Muara P. Ulu, Kec. Indralaya, Kabupaten Ogan Ilir";"SUMATERA SELATAN";"30862";"Indonesia";" 082181678621";"";"";"-3.238681";"104.6982272";"https://maps.google.com/?cid=0x0:0x96d977dd0f38a63c";""
"mall";"Toko";"Toko Jana";"QM8H+F6R, Tj. Seteko, Kec. Indralaya, Kabupaten Ogan Ilir, Sumatera Selatan 30862";"Tj. Seteko, Kec. Indralaya, Kabupaten Ogan Ilir";"SUMATERA SELATAN";"30862";"Indonesia";"";"";"";"-3.2337511";"104.6780039";"https://maps.google.com/?cid=0x0:0xb1ae87b0b87b98b9";""
"mall";"Toko Pakaian";"Warung Adam";"QP78+295, Tunas Aur, Kec. Indralaya, Kabupaten Ogan Ilir, Sumatera Selatan 30862";"Tunas Aur, Kec. Indralaya, Kabupaten Ogan Ilir";"SUMATERA SELATAN";"30862";"Indonesia";"";"";"";"-3.2374937";"104.7159709";"https://maps.google.com/?cid=0x0:0x64c20991066c2e4e";""
"mall";"Toko";"Toko TH. Pelangi Tanjung Raya";"QM45+58M, Indralaya Mulia, Kec. Indralaya, Kabupaten Ogan Ilir, Sumatera Selatan 30862";"Indralaya Mulia, Kec. Indralaya, Kabupaten Ogan Ilir";"SUMATERA SELATAN";"30862";"Indonesia";"";"";"";"-3.2445505";"104.658627";"https://maps.google.com/?cid=0x0:0x107099f47223ebeb";""
"mall";"Pusat Perbelanjaan";"warung DedekIzal";"QM6X+J9J, Muara P. Ilir, Kec. Indralaya, Kabupaten Ogan Ilir, Sumatera Selatan 30862";"Muara P. Ilir, Kec. Indralaya, Kabupaten Ogan Ilir";"SUMATERA SELATAN";"30862";"Indonesia";"";"";"";"-3.238417";"104.698386";"https://maps.google.com/?cid=0x0:0xce74e5ad3712f95e";""
"mall";"Toko bahan makanan";"INDOMARET JALAN NUSANTARA";"QMR2+6C4, Timbangan, Kecamatan Indralaya Utara, Kabupaten Ogan Ilir, Sumatera Selatan 30862";"Timbangan, Kecamatan Indralaya Utara, Kabupaten Ogan Ilir";"SUMATERA SELATAN";"30862";"Indonesia";"";"";"";"-3.209318";"104.6512747";"https://maps.google.com/?cid=0x0:0x8b35e51cf09ecede";""
"mall";"mall";"Kecamatan Indralaya Utara";"Kabupaten Ogan Ilir, Sumatera Selatan";"Kabupaten Ogan Ilir, Sumatera Selatan";"SUMATERA SELATAN";"";"Indonesia";"";"";"";"-3.1977093";"104.6065333";"https://maps.google.com/?cid=0x0:0x8c751cee8a3639ed";""
"mall";"Pusat Perbelanjaan";"Indralaya Trade Center";"Indralaya Raya, Kec. Indralaya, Kabupaten Ogan Ilir, Sumatera Selatan 30653";"Kec. Indralaya, Kabupaten Ogan Ilir";"SUMATERA SELATAN";"30653";"Indonesia";"";"";"";"-3.2343406";"104.6649533";"https://maps.google.com/?cid=0x0:0xae3f0c3500918fdb";""
"mall";"Pusat Perbelanjaan";"BC HNI Ogan Ilir";"QMC7+487 Masjid Nurul Persada, Komplek Persada Blok C1 No 15, Samping, Jl. Nurul Persada, Indralaya Indah, Indralaya, Ogan Ilir Regency, South Sumatra 30862";"Komplek Persada Blok C1 No 15, Samping, Jl. Nurul Persada, Indralaya Indah, Indralaya, Ogan Ilir Regency";"SUMATERA SELATAN";"30862";"Indonesia";" 07117584732";"";"";"-3.2297125";"104.6632777";"https://maps.google.com/?cid=0x0:0x6862d5c0b163989a";""
"mall";"Pusat Perbelanjaan";"Izdihaar";"RM48+J26, Unnamed Road, Palem Raya, Kecamatan Indralaya Utara, Kabupaten Ogan Ilir, Sumatera Selatan 30862";"Unnamed Road, Palem Raya, Kecamatan Indralaya Utara, Kabupaten Ogan Ilir";"SUMATERA SELATAN";"30862";"Indonesia";" 082122867243";"";"";"-3.1934652";"104.6650208";"https://maps.google.com/?cid=0x0:0x8849ba184357508";""
"mall";"Toko Pakaian";"Mepa Market Parit";"Parit, Kecamatan Indralaya Utara, Kabupaten Ogan Ilir, Sumatera Selatan 30862";"Kecamatan Indralaya Utara, Kabupaten Ogan Ilir";"SUMATERA SELATAN";"30862";"Indonesia";"";"";"";"-3.1992237";"104.5875284";"https://maps.google.com/?cid=0x0:0xb15f93e7c4464cff";""
"mall";"Pusat Perbelanjaan";"CROSS REGIONAL GROWTH CENTERS";"QJVF+4WG, Tj. Baru, Kecamatan Indralaya Utara, Kabupaten Ogan Ilir, Sumatera Selatan 30862";"Tj. Baru, Kecamatan Indralaya Utara, Kabupaten Ogan Ilir";"SUMATERA SELATAN";"30862";"Indonesia";" 08176011162";"";"";"-3.2071904";"104.6248248";"https://maps.google.com/?cid=0x0:0xa7623411a063fc67";""
"mall";"Toko Kosmetik";"SyamakeUp";"Jl. Anggrek No.30, Timbangan, Kecamatan Indralaya Utara, Kabupaten Ogan Ilir, Sumatera Selatan 30862";"Timbangan, Kecamatan Indralaya Utara, Kabupaten Ogan Ilir";"SUMATERA SELATAN";"30862";"Indonesia";" 085267314627";"";"";"-3.2046287";"104.6571643";"https://maps.google.com/?cid=0x0:0x5c1075cd08043492";""
"mall";"Pusat Perbelanjaan";"Seribandung";"QM98+R2M, Jl. Nurul Persada, Indralaya Indah, Kec. Indralaya, Kabupaten Ogan Ilir, Sumatera Selatan 30862";"Jl. Nurul Persada, Indralaya Indah, Kec. Indralaya, Kabupaten Ogan Ilir";"SUMATERA SELATAN";"30862";"Indonesia";"";"";"";"-3.2304139";"104.6650398";"https://maps.google.com/?cid=0x0:0x4a38b57abc2f0d38";""
"mall";"Toko bahan makanan";"INDOMARET JALAN NUSANTARA";"QMR2+6C4, Timbangan, Kecamatan Indralaya Utara, Kabupaten Ogan Ilir, Sumatera Selatan 30862";"Timbangan, Kecamatan Indralaya Utara, Kabupaten Ogan Ilir";"SUMATERA SELATAN";"30862";"Indonesia";"";"";"";"-3.209318";"104.6512747";"https://maps.google.com/?cid=0x0:0x8b35e51cf09ecede";""
"mall";"Kantor Perusahaan";"Pasar Desa Lorok";"RHG9+277, Lorok, Kecamatan Indralaya Utara, Kabupaten Ogan Ilir, Sumatera Selatan 30862";"Lorok, Kecamatan Indralaya Utara, Kabupaten Ogan Ilir";"SUMATERA SELATAN";"30862";"Indonesia";" 082188569628";"";"";"-3.174963";"104.5681621";"https://maps.google.com/?cid=0x0:0x968729afaef7b9cf";""
"mall";"Toko";"Model Mang Yan Seluler";"RM48+732, Palem Raya, Kecamatan Indralaya Utara, Kabupaten Ogan Ilir, Sumatera Selatan 30862";"Palem Raya, Kecamatan Indralaya Utara, Kabupaten Ogan Ilir";"SUMATERA SELATAN";"30862";"Indonesia";"";"";"";"-3.1944731";"104.6649445";"https://maps.google.com/?cid=0x0:0x68e292fee67fcdeb";""
"mall";"Toko";"Toko Suardi";"RH5C+P5F, Lorok, Kecamatan Indralaya Utara, Kabupaten Ogan Ilir, Sumatera Selatan 30862";"Lorok, Kecamatan Indralaya Utara, Kabupaten Ogan Ilir";"SUMATERA SELATAN";"30862";"Indonesia";" 081367557544";"";"";"-3.1906839";"104.5704165";"https://maps.google.com/?cid=0x0:0xe1fe47c439c6540e";""
"mall";"Pusat Perbelanjaan";"Mardy celluler";"RM4M+X5C, Unnamed Road, Palem Raya, Kecamatan Indralaya Utara, Kabupaten Ogan Ilir, Sumatera Selatan 30817";"Unnamed Road, Palem Raya, Kecamatan Indralaya Utara, Kabupaten Ogan Ilir";"SUMATERA SELATAN";"30817";"Indonesia";" 082176391979";"";"";"-3.192551";"104.68288";"https://maps.google.com/?cid=0x0:0x29cda7ccc48f63e4";""
"mall";"Pasar";"Pasar Kalangan Palem Raya";"RM5M+3CF, Palem Raya, Kecamatan Indralaya Utara, Kabupaten Ogan Ilir, Sumatera Selatan 30817";"Palem Raya, Kecamatan Indralaya Utara, Kabupaten Ogan Ilir";"SUMATERA SELATAN";"30817";"Indonesia";" 085267100550";"";"";"-3.1923195";"104.6835578";"https://maps.google.com/?cid=0x0:0x20204b55e7d14ccc";""
"mall";"Pusat Perbelanjaan";"Toko CHIKA GROUP";"Jl. Indralaya Raya No.18, Timbangan, Kecamatan Indralaya Utara, Kabupaten Ogan Ilir, Sumatera Selatan 30862";"Timbangan, Kecamatan Indralaya Utara, Kabupaten Ogan Ilir";"SUMATERA SELATAN";"30862";"Indonesia";" 081368371577";"";"";"-3.1985752";"104.6598006";"https://maps.google.com/?cid=0x0:0xce7f839f3458435";""
"mall";"Toko bahan makanan";"SRC NIKO Toko Lea";"Tj. Pule, Kecamatan Indralaya Utara, Kabupaten Ogan Ilir, Sumatera Selatan 30862";"Kecamatan Indralaya Utara, Kabupaten Ogan Ilir";"SUMATERA SELATAN";"30862";"Indonesia";" 082185802114";"";"";"-3.1159298";"104.6026907";"https://maps.google.com/?cid=0x0:0xfb3d70d3dcdc9a7";""
"mall";"Pusat Perbelanjaan";"Toko Fira";"RM66+H6F, Unnamed Road, Palem Raya, Kecamatan Indralaya Utara, Kabupaten Ogan Ilir, Sumatera Selatan 30862";"Unnamed Road, Palem Raya, Kecamatan Indralaya Utara, Kabupaten Ogan Ilir";"SUMATERA SELATAN";"30862";"Indonesia";"";"";"";"-3.1885605";"104.660556";"https://maps.google.com/?cid=0x0:0xe169d6a15a184820";""
"mall";"Pusat Perbelanjaan";"Lapak Semangka David";"Jl. Raya Lintas Timur Palembang - Prabumulih No.20, Pulau Semambu, Kecamatan Indralaya Utara, Kabupaten Ogan Ilir, Sumatera Selatan 30862";"Pulau Semambu, Kecamatan Indralaya Utara, Kabupaten Ogan Ilir";"SUMATERA SELATAN";"30862";"Indonesia";" 082175336853";"";"";"-3.1765777";"104.6811002";"https://maps.google.com/?cid=0x0:0xa3da861abff42928";""
"mall";"Toko Swalayan";"Indomaret Indralaya indah";"Ruko Langgeng Residence, Depan RRI, Jl. Lintas Sumatra Jl. Nurul Persada No.KM.35, Indralaya Indah, Kec. Indralaya, Kabupaten Ogan Ilir, Sumatera Selatan 30862";"Depan RRI, Jl. Lintas Sumatra Jl. Nurul Persada No.KM.35, Indralaya Indah, Kec. Indralaya, Kabupaten Ogan Ilir";"SUMATERA SELATAN";"30862";"Indonesia";"";"";"";"-3.2304524";"104.6650408";"https://maps.google.com/?cid=0x0:0xf6f05a35f566846a";""
"mall";"Pusat Perbelanjaan";"Rajab Cell";"Jl. Lintas Tengah No.Km. 33, Timbangan, Kecamatan Indralaya Utara, Kabupaten Ogan Ilir, Sumatera Selatan 30862";"Timbangan, Kecamatan Indralaya Utara, Kabupaten Ogan Ilir";"SUMATERA SELATAN";"30862";"Indonesia";" 0895361237720";"";"";"-3.2093943";"104.6493458";"https://maps.google.com/?cid=0x0:0xb6f1443145e1a88a";""
"mall";"Toko";"Toko Bagas";"RM75+6X8, Palem Raya, Kecamatan Indralaya Utara, Kabupaten Ogan Ilir, Sumatera Selatan 30862";"Palem Raya, Kecamatan Indralaya Utara, Kabupaten Ogan Ilir";"SUMATERA SELATAN";"30862";"Indonesia";"";"";"";"-3.1869616";"104.6599638";"https://maps.google.com/?cid=0x0:0x236c1e12342cb258";""
"mall";"mall";"Kecamatan Indralaya Utara";"Kabupaten Ogan Ilir, Sumatera Selatan";"Kabupaten Ogan Ilir, Sumatera Selatan";"SUMATERA SELATAN";"";"Indonesia";"";"";"";"-3.1977093";"104.6065333";"https://maps.google.com/?cid=0x0:0x8c751cee8a3639ed";""
"mall";"Pusat Perbelanjaan";"Indralaya Trade Center";"Indralaya Raya, Kec. Indralaya, Kabupaten Ogan Ilir, Sumatera Selatan 30653";"Kec. Indralaya, Kabupaten Ogan Ilir";"SUMATERA SELATAN";"30653";"Indonesia";"";"";"";"-3.2343406";"104.6649533";"https://maps.google.com/?cid=0x0:0xae3f0c3500918fdb";""
"mall";"Toko Swalayan";"Indomart";"RM7G+P29, Jl. Lintas Sumatra, Palem Raya, Kecamatan Indralaya Utara, Kabupaten Ogan Ilir, Sumatera Selatan 30862";"Jl. Lintas Sumatra, Palem Raya, Kecamatan Indralaya Utara, Kabupaten Ogan Ilir";"SUMATERA SELATAN";"30862";"Indonesia";"";"";"";"-3.1857093";"104.6751139";"https://maps.google.com/?cid=0x0:0x81046d98b36d11d4";""
"mall";"Pusat Perbelanjaan";"BC HNI Ogan Ilir";"QMC7+487 Masjid Nurul Persada, Komplek Persada Blok C1 No 15, Samping, Jl. Nurul Persada, Indralaya Indah, Indralaya, Ogan Ilir Regency, South Sumatra 30862";"Komplek Persada Blok C1 No 15, Samping, Jl. Nurul Persada, Indralaya Indah, Indralaya, Ogan Ilir Regency";"SUMATERA SELATAN";"30862";"Indonesia";" 07117584732";"";"";"-3.2297125";"104.6632777";"https://maps.google.com/?cid=0x0:0x6862d5c0b163989a";""
"mall";"Toko";"Toko Suardi";"RH5C+P5F, Lorok, Kecamatan Indralaya Utara, Kabupaten Ogan Ilir, Sumatera Selatan 30862";"Lorok, Kecamatan Indralaya Utara, Kabupaten Ogan Ilir";"SUMATERA SELATAN";"30862";"Indonesia";" 081367557544";"";"";"-3.1906839";"104.5704165";"https://maps.google.com/?cid=0x0:0xe1fe47c439c6540e";""
"mall";"Pusat Perbelanjaan";"CROSS REGIONAL GROWTH CENTERS";"QJVF+4WG, Tj. Baru, Kecamatan Indralaya Utara, Kabupaten Ogan Ilir, Sumatera Selatan 30862";"Tj. Baru, Kecamatan Indralaya Utara, Kabupaten Ogan Ilir";"SUMATERA SELATAN";"30862";"Indonesia";" 08176011162";"";"";"-3.2071904";"104.6248248";"https://maps.google.com/?cid=0x0:0xa7623411a063fc67";""
"mall";"Toko bahan makanan";"INDOMARET JALAN NUSANTARA";"QMR2+6C4, Timbangan, Kecamatan Indralaya Utara, Kabupaten Ogan Ilir, Sumatera Selatan 30862";"Timbangan, Kecamatan Indralaya Utara, Kabupaten Ogan Ilir";"SUMATERA SELATAN";"30862";"Indonesia";"";"";"";"-3.209318";"104.6512747";"https://maps.google.com/?cid=0x0:0x8b35e51cf09ecede";""
"mall";"Toko Kosmetik";"SyamakeUp";"Jl. Anggrek No.30, Timbangan, Kecamatan Indralaya Utara, Kabupaten Ogan Ilir, Sumatera Selatan 30862";"Timbangan, Kecamatan Indralaya Utara, Kabupaten Ogan Ilir";"SUMATERA SELATAN";"30862";"Indonesia";" 085267314627";"";"";"-3.2046287";"104.6571643";"https://maps.google.com/?cid=0x0:0x5c1075cd08043492";""
"mall";"Pusat Perbelanjaan";"Toko Fira";"RM66+H6F, Unnamed Road, Palem Raya, Kecamatan Indralaya Utara, Kabupaten Ogan Ilir, Sumatera Selatan 30862";"Unnamed Road, Palem Raya, Kecamatan Indralaya Utara, Kabupaten Ogan Ilir";"SUMATERA SELATAN";"30862";"Indonesia";"";"";"";"-3.1885605";"104.660556";"https://maps.google.com/?cid=0x0:0xe169d6a15a184820";""
"mall";"Pusat Perbelanjaan";"Mardy celluler";"RM4M+X5C, Unnamed Road, Palem Raya, Kecamatan Indralaya Utara, Kabupaten Ogan Ilir, Sumatera Selatan 30817";"Unnamed Road, Palem Raya, Kecamatan Indralaya Utara, Kabupaten Ogan Ilir";"SUMATERA SELATAN";"30817";"Indonesia";" 082176391979";"";"";"-3.192551";"104.68288";"https://maps.google.com/?cid=0x0:0x29cda7ccc48f63e4";""
"mall";"Toko bahan makanan";"SRC NIKO Toko Lea";"Tj. Pule, Kecamatan Indralaya Utara, Kabupaten Ogan Ilir, Sumatera Selatan 30862";"Kecamatan Indralaya Utara, Kabupaten Ogan Ilir";"SUMATERA SELATAN";"30862";"Indonesia";" 082185802114";"";"";"-3.1159298";"104.6026907";"https://maps.google.com/?cid=0x0:0xfb3d70d3dcdc9a7";""
"mall";"Pusat Perbelanjaan";"Toko CHIKA GROUP";"Jl. Indralaya Raya No.18, Timbangan, Kecamatan Indralaya Utara, Kabupaten Ogan Ilir, Sumatera Selatan 30862";"Timbangan, Kecamatan Indralaya Utara, Kabupaten Ogan Ilir";"SUMATERA SELATAN";"30862";"Indonesia";" 081368371577";"";"";"-3.1985752";"104.6598006";"https://maps.google.com/?cid=0x0:0xce7f839f3458435";""
"mall";"Toko";"Model Mang Yan Seluler";"RM48+732, Palem Raya, Kecamatan Indralaya Utara, Kabupaten Ogan Ilir, Sumatera Selatan 30862";"Palem Raya, Kecamatan Indralaya Utara, Kabupaten Ogan Ilir";"SUMATERA SELATAN";"30862";"Indonesia";"";"";"";"-3.1944731";"104.6649445";"https://maps.google.com/?cid=0x0:0x68e292fee67fcdeb";""
"mall";"Toko bahan makanan";"Azriel Shop";"QM87+CG9, Jl. Muhajirin, Indralaya Raya, Kec. Indralaya, Kabupaten Ogan Ilir, Sumatera Selatan 30862";"Jl. Muhajirin, Indralaya Raya, Kec. Indralaya, Kabupaten Ogan Ilir";"SUMATERA SELATAN";"30862";"Indonesia";"";"";"";"-3.2339605";"104.6638592";"https://maps.google.com/?cid=0x0:0x493a9f0a52d2586";""
"mall";"Toko Pakaian";"Mepa Market Parit";"Parit, Kecamatan Indralaya Utara, Kabupaten Ogan Ilir, Sumatera Selatan 30862";"Kecamatan Indralaya Utara, Kabupaten Ogan Ilir";"SUMATERA SELATAN";"30862";"Indonesia";"";"";"";"-3.1992237";"104.5875284";"https://maps.google.com/?cid=0x0:0xb15f93e7c4464cff";""
"mall";"Kantor Perusahaan";"Pasar Desa Lorok";"RHG9+277, Lorok, Kecamatan Indralaya Utara, Kabupaten Ogan Ilir, Sumatera Selatan 30862";"Lorok, Kecamatan Indralaya Utara, Kabupaten Ogan Ilir";"SUMATERA SELATAN";"30862";"Indonesia";" 082188569628";"";"";"-3.174963";"104.5681621";"https://maps.google.com/?cid=0x0:0x968729afaef7b9cf";""
"mall";"Pasar";"Pasar Kalangan Palem Raya";"RM5M+3CF, Palem Raya, Kecamatan Indralaya Utara, Kabupaten Ogan Ilir, Sumatera Selatan 30817";"Palem Raya, Kecamatan Indralaya Utara, Kabupaten Ogan Ilir";"SUMATERA SELATAN";"30817";"Indonesia";" 085267100550";"";"";"-3.1923195";"104.6835578";"https://maps.google.com/?cid=0x0:0x20204b55e7d14ccc";""
"mall";"Toko";"Toko Bagas";"RM75+6X8, Palem Raya, Kecamatan Indralaya Utara, Kabupaten Ogan Ilir, Sumatera Selatan 30862";"Palem Raya, Kecamatan Indralaya Utara, Kabupaten Ogan Ilir";"SUMATERA SELATAN";"30862";"Indonesia";"";"";"";"-3.1869616";"104.6599638";"https://maps.google.com/?cid=0x0:0x236c1e12342cb258";""
"mall";"Pusat Perbelanjaan";"Seribandung";"QM98+R2M, Jl. Nurul Persada, Indralaya Indah, Kec. Indralaya, Kabupaten Ogan Ilir, Sumatera Selatan 30862";"Jl. Nurul Persada, Indralaya Indah, Kec. Indralaya, Kabupaten Ogan Ilir";"SUMATERA SELATAN";"30862";"Indonesia";"";"";"";"-3.2304139";"104.6650398";"https://maps.google.com/?cid=0x0:0x4a38b57abc2f0d38";""
"mall";"Pusat Perbelanjaan";"Rajab Cell";"Jl. Lintas Tengah No.Km. 33, Timbangan, Kecamatan Indralaya Utara, Kabupaten Ogan Ilir, Sumatera Selatan 30862";"Timbangan, Kecamatan Indralaya Utara, Kabupaten Ogan Ilir";"SUMATERA SELATAN";"30862";"Indonesia";" 0895361237720";"";"";"-3.2093943";"104.6493458";"https://maps.google.com/?cid=0x0:0xb6f1443145e1a88a";""
"mall";"Toko";"Toko Jana";"QM8H+F6R, Tj. Seteko, Kec. Indralaya, Kabupaten Ogan Ilir, Sumatera Selatan 30862";"Tj. Seteko, Kec. Indralaya, Kabupaten Ogan Ilir";"SUMATERA SELATAN";"30862";"Indonesia";"";"";"";"-3.2337511";"104.6780039";"https://maps.google.com/?cid=0x0:0xb1ae87b0b87b98b9";""
"mall";"mall";"Sumatera Selatan 30862";"Kabupaten Ogan Ilir, Sumatera Selatan";"Kabupaten Ogan Ilir, Sumatera Selatan";"SUMATERA SELATAN";"";"Indonesia";"";"";"";"-3.1723264";"104.6354631";"https://maps.google.com/?cid=0x0:0x1e275f9f80375b8f";""
"mall";"Pusat Perbelanjaan";"Indralaya Trade Center";"Indralaya Raya, Kec. Indralaya, Kabupaten Ogan Ilir, Sumatera Selatan 30653";"Kec. Indralaya, Kabupaten Ogan Ilir";"SUMATERA SELATAN";"30653";"Indonesia";"";"";"";"-3.2343406";"104.6649533";"https://maps.google.com/?cid=0x0:0xae3f0c3500918fdb";""
"mall";"Pusat Perbelanjaan";"BC HNI Ogan Ilir";"QMC7+487 Masjid Nurul Persada, Komplek Persada Blok C1 No 15, Samping, Jl. Nurul Persada, Indralaya Indah, Indralaya, Ogan Ilir Regency, South Sumatra 30862";"Komplek Persada Blok C1 No 15, Samping, Jl. Nurul Persada, Indralaya Indah, Indralaya, Ogan Ilir Regency";"SUMATERA SELATAN";"30862";"Indonesia";" 07117584732";"";"";"-3.2297125";"104.6632777";"https://maps.google.com/?cid=0x0:0x6862d5c0b163989a";""
"mall";"Toko Swalayan";"Indomart";"RM7G+P29, Jl. Lintas Sumatra, Palem Raya, Kecamatan Indralaya Utara, Kabupaten Ogan Ilir, Sumatera Selatan 30862";"Jl. Lintas Sumatra, Palem Raya, Kecamatan Indralaya Utara, Kabupaten Ogan Ilir";"SUMATERA SELATAN";"30862";"Indonesia";"";"";"";"-3.1857093";"104.6751139";"https://maps.google.com/?cid=0x0:0x81046d98b36d11d4";""
"mall";"Toko Pakaian";"Mepa Market Parit";"Parit, Kecamatan Indralaya Utara, Kabupaten Ogan Ilir, Sumatera Selatan 30862";"Kecamatan Indralaya Utara, Kabupaten Ogan Ilir";"SUMATERA SELATAN";"30862";"Indonesia";"";"";"";"-3.1992237";"104.5875284";"https://maps.google.com/?cid=0x0:0xb15f93e7c4464cff";""
"mall";"Pusat Perbelanjaan";"CROSS REGIONAL GROWTH CENTERS";"QJVF+4WG, Tj. Baru, Kecamatan Indralaya Utara, Kabupaten Ogan Ilir, Sumatera Selatan 30862";"Tj. Baru, Kecamatan Indralaya Utara, Kabupaten Ogan Ilir";"SUMATERA SELATAN";"30862";"Indonesia";" 08176011162";"";"";"-3.2071904";"104.6248248";"https://maps.google.com/?cid=0x0:0xa7623411a063fc67";""
"mall";"Pusat Perbelanjaan";"Izdihaar";"RM48+J26, Unnamed Road, Palem Raya, Kecamatan Indralaya Utara, Kabupaten Ogan Ilir, Sumatera Selatan 30862";"Unnamed Road, Palem Raya, Kecamatan Indralaya Utara, Kabupaten Ogan Ilir";"SUMATERA SELATAN";"30862";"Indonesia";" 082122867243";"";"";"-3.1934652";"104.6650208";"https://maps.google.com/?cid=0x0:0x8849ba184357508";""
"mall";"Toko";"Model Mang Yan Seluler";"RM48+732, Palem Raya, Kecamatan Indralaya Utara, Kabupaten Ogan Ilir, Sumatera Selatan 30862";"Palem Raya, Kecamatan Indralaya Utara, Kabupaten Ogan Ilir";"SUMATERA SELATAN";"30862";"Indonesia";"";"";"";"-3.1944731";"104.6649445";"https://maps.google.com/?cid=0x0:0x68e292fee67fcdeb";""
"mall";"Toko Kosmetik";"SyamakeUp";"Jl. Anggrek No.30, Timbangan, Kecamatan Indralaya Utara, Kabupaten Ogan Ilir, Sumatera Selatan 30862";"Timbangan, Kecamatan Indralaya Utara, Kabupaten Ogan Ilir";"SUMATERA SELATAN";"30862";"Indonesia";" 085267314627";"";"";"-3.2046287";"104.6571643";"https://maps.google.com/?cid=0x0:0x5c1075cd08043492";""
"mall";"Toko Aksesori Pakaian";"Olshop by Sri Maryati";"MMHX+RMQ, Tj. Dayang Sel., Kec. Indralaya Sel., Kabupaten Ogan Ilir, Sumatera Selatan 30862";"Tj. Dayang Sel., Kec. Indralaya Sel., Kabupaten Ogan Ilir";"SUMATERA SELATAN";"30862";"Indonesia";"";"";"";"-3.3204225";"104.6992353";"https://maps.google.com/?cid=0x0:0xabd0aa5cc09c935e";""
"mall";"Toko";"Toko Suardi";"RH5C+P5F, Lorok, Kecamatan Indralaya Utara, Kabupaten Ogan Ilir, Sumatera Selatan 30862";"Lorok, Kecamatan Indralaya Utara, Kabupaten Ogan Ilir";"SUMATERA SELATAN";"30862";"Indonesia";" 081367557544";"";"";"-3.1906839";"104.5704165";"https://maps.google.com/?cid=0x0:0xe1fe47c439c6540e";""
"mall";"Toko bahan makanan";"INDOMARET JALAN NUSANTARA";"QMR2+6C4, Timbangan, Kecamatan Indralaya Utara, Kabupaten Ogan Ilir, Sumatera Selatan 30862";"Timbangan, Kecamatan Indralaya Utara, Kabupaten Ogan Ilir";"SUMATERA SELATAN";"30862";"Indonesia";"";"";"";"-3.209318";"104.6512747";"https://maps.google.com/?cid=0x0:0x8b35e51cf09ecede";""
"mall";"Pusat Perbelanjaan";"Seribandung";"QM98+R2M, Jl. Nurul Persada, Indralaya Indah, Kec. Indralaya, Kabupaten Ogan Ilir, Sumatera Selatan 30862";"Jl. Nurul Persada, Indralaya Indah, Kec. Indralaya, Kabupaten Ogan Ilir";"SUMATERA SELATAN";"30862";"Indonesia";"";"";"";"-3.2304139";"104.6650398";"https://maps.google.com/?cid=0x0:0x4a38b57abc2f0d38";""
"mall";"Pusat Perbelanjaan";"Toko Fira";"RM66+H6F, Unnamed Road, Palem Raya, Kecamatan Indralaya Utara, Kabupaten Ogan Ilir, Sumatera Selatan 30862";"Unnamed Road, Palem Raya, Kecamatan Indralaya Utara, Kabupaten Ogan Ilir";"SUMATERA SELATAN";"30862";"Indonesia";"";"";"";"-3.1885605";"104.660556";"https://maps.google.com/?cid=0x0:0xe169d6a15a184820";""
"mall";"Pusat Perbelanjaan";"Mardy celluler";"RM4M+X5C, Unnamed Road, Palem Raya, Kecamatan Indralaya Utara, Kabupaten Ogan Ilir, Sumatera Selatan 30817";"Unnamed Road, Palem Raya, Kecamatan Indralaya Utara, Kabupaten Ogan Ilir";"SUMATERA SELATAN";"30817";"Indonesia";" 082176391979";"";"";"-3.192551";"104.68288";"https://maps.google.com/?cid=0x0:0x29cda7ccc48f63e4";""
"mall";"Pusat Perbelanjaan";"Lapak Semangka David";"Jl. Raya Lintas Timur Palembang - Prabumulih No.20, Pulau Semambu, Kecamatan Indralaya Utara, Kabupaten Ogan Ilir, Sumatera Selatan 30862";"Pulau Semambu, Kecamatan Indralaya Utara, Kabupaten Ogan Ilir";"SUMATERA SELATAN";"30862";"Indonesia";" 082175336853";"";"";"-3.1765777";"104.6811002";"https://maps.google.com/?cid=0x0:0xa3da861abff42928";""
"mall";"Kantor Perusahaan";"Pasar Desa Lorok";"RHG9+277, Lorok, Kecamatan Indralaya Utara, Kabupaten Ogan Ilir, Sumatera Selatan 30862";"Lorok, Kecamatan Indralaya Utara, Kabupaten Ogan Ilir";"SUMATERA SELATAN";"30862";"Indonesia";" 082188569628";"";"";"-3.174963";"104.5681621";"https://maps.google.com/?cid=0x0:0x968729afaef7b9cf";""
"mall";"Toko bahan makanan";"SRC NIKO Toko Lea";"Tj. Pule, Kecamatan Indralaya Utara, Kabupaten Ogan Ilir, Sumatera Selatan 30862";"Kecamatan Indralaya Utara, Kabupaten Ogan Ilir";"SUMATERA SELATAN";"30862";"Indonesia";" 082185802114";"";"";"-3.1159298";"104.6026907";"https://maps.google.com/?cid=0x0:0xfb3d70d3dcdc9a7";""
"mall";"Pusat Perbelanjaan";"Toko CHIKA GROUP";"Jl. Indralaya Raya No.18, Timbangan, Kecamatan Indralaya Utara, Kabupaten Ogan Ilir, Sumatera Selatan 30862";"Timbangan, Kecamatan Indralaya Utara, Kabupaten Ogan Ilir";"SUMATERA SELATAN";"30862";"Indonesia";" 081368371577";"";"";"-3.1985752";"104.6598006";"https://maps.google.com/?cid=0x0:0xce7f839f3458435";""
"mall";"Toko bahan makanan";"Azriel Shop";"QM87+CG9, Jl. Muhajirin, Indralaya Raya, Kec. Indralaya, Kabupaten Ogan Ilir, Sumatera Selatan 30862";"Jl. Muhajirin, Indralaya Raya, Kec. Indralaya, Kabupaten Ogan Ilir";"SUMATERA SELATAN";"30862";"Indonesia";"";"";"";"-3.2339605";"104.6638592";"https://maps.google.com/?cid=0x0:0x493a9f0a52d2586";""
"mall";"Pasar";"Pasar Kalangan Palem Raya";"RM5M+3CF, Palem Raya, Kecamatan Indralaya Utara, Kabupaten Ogan Ilir, Sumatera Selatan 30817";"Palem Raya, Kecamatan Indralaya Utara, Kabupaten Ogan Ilir";"SUMATERA SELATAN";"30817";"Indonesia";" 085267100550";"";"";"-3.1923195";"104.6835578";"https://maps.google.com/?cid=0x0:0x20204b55e7d14ccc";""
"mall";"Pusat Perbelanjaan";"Pasar Indralaya";"PMWG+FPV, Jl. Lintas Timur KM. 38, Komp Pasar Indralaya Kel, Jl. Lintas Sumatra Pasar, Indralaya Mulia, Indralaya, Ogan Ilir Regency, South Sumatra 30862";"Jl. Lintas Timur KM. 38, Komp Pasar Indralaya Kel, Jl. Lintas Sumatra Pasar, Indralaya Mulia, Indralaya, Ogan Ilir Regency";"SUMATERA SELATAN";"30862";"Indonesia";" 07117584085";"";"";"-3.2527653";"104.6767456";"https://maps.google.com/?cid=0x0:0xd5ee1ccabb05e505";""
"mall";"Pusat Perbelanjaan";"Mang fir";"Jl. Lintas Sumatra No.100, Sukaraja Baru, Kec. Indralaya Sel., Kabupaten Ogan Ilir, Sumatera Selatan 30862";"Sukaraja Baru, Kec. Indralaya Sel., Kabupaten Ogan Ilir";"SUMATERA SELATAN";"30862";"Indonesia";" 085383090909";"";"";"-3.3031456";"104.7080134";"https://maps.google.com/?cid=0x0:0x19474ab85b3ca77f";""
"mall";"Pusat Perbelanjaan";"Simpang Parit";"RH2Q+827, Jl. Letnan Muchtar Saleh, Parit, Kecamatan Indralaya Utara, Kabupaten Ogan Ilir, Sumatera Selatan 30862";"Jl. Letnan Muchtar Saleh, Parit, Kecamatan Indralaya Utara, Kabupaten Ogan Ilir";"SUMATERA SELATAN";"30862";"Indonesia";"";"";"";"-3.1992075";"104.5875552";"https://maps.google.com/?cid=0x0:0xcf5c196f1246a322";""
"mall";"Pusat Perbelanjaan";"Kaiia Fashion  Dapur Kaiia (Palemraya blok N No. 64)";"Perumahan palemraya, Palem Raya, Kecamatan Indralaya Utara, Kabupaten Ogan Ilir, Sumatera Selatan 30862";"Palem Raya, Kecamatan Indralaya Utara, Kabupaten Ogan Ilir";"SUMATERA SELATAN";"30862";"Indonesia";" 085769632289";"";"";"-3.1920806";"104.6817647";"https://maps.google.com/?cid=0x0:0xdfda89ee2b9a6e2f";""
"mall";"Paket Makanan Pokok";"Kopi Asli Pagaralam Cap Gunung Dempo";"Indralaya Mulia, Kec. Indralaya, Kabupaten Ogan Ilir, Sumatera Selatan 30862";"Kec. Indralaya, Kabupaten Ogan Ilir";"SUMATERA SELATAN";"30862";"Indonesia";"";"";"";"-3.2418461";"104.6604824";"https://maps.google.com/?cid=0x0:0x7c6aff6c827141fe";""
"mall";"mall";"Riau 28686";"Kec. Kandis, Kabupaten Siak, Riau";"Kabupaten Siak, Riau";"SUMATERA SELATAN";"";"Indonesia";"";"";"";"0.925852";"101.207047";"https://maps.google.com/?cid=0x0:0xfd51117d4c0a6660";""
"mall";"Pusat Perbelanjaan";"Toko Perlindungan";"W6XV+VMR, Jl. Lintas Sumatra, Kandis Kota, Kec. Kandis, Kabupaten Siak, Riau 28686";"Jl. Lintas Sumatra, Kandis Kota, Kec. Kandis, Kabupaten Siak";"SUMATERA SELATAN";"28686";"Indonesia";"";"";"";"0.9497431";"101.2441377";"https://maps.google.com/?cid=0x0:0xf8dcc2ac1b7b4126";""
"mall";"Toko";"IDA";"HQPP+896, Santapan Bar., Kec. Kandis, Kabupaten Ogan Ilir, Sumatera Selatan 30867";"Santapan Bar., Kec. Kandis, Kabupaten Ogan Ilir";"SUMATERA SELATAN";"30867";"Indonesia";" 081274302126";"";"";"-3.4142167";"104.7858767";"https://maps.google.com/?cid=0x0:0xbfd97302eeb81aed";""
"mall";"Pusat Perbelanjaan";"KANDISBUAH";"Jl. Lintas Sumatra No.KM 74, Simpang Belutu, Kec. Kandis, Kabupaten Siak, Riau";"Kabupaten Siak, Riau";"SUMATERA SELATAN";"";"Indonesia";" 082286323616";"";"";"0.9020435";"101.2350105";"https://maps.google.com/?cid=0x0:0x12769ea191d9d108";""
"mall";"mall";"Sumatera Selatan";"";"Sumatera Selatan";"SUMATERA SELATAN";"";"Indonesia";"";"";"";"-3.3194374";"103.914399";"https://maps.google.com/?cid=0x0:0x18fc8101e201c4cf";""
"mall";"Pusat Perbelanjaan";"Kandis Foodcourt";"V6RV+5HP, Simpang Belutu, Kec. Kandis, Kabupaten Siak, Riau 28686";"Simpang Belutu, Kec. Kandis, Kabupaten Siak";"SUMATERA SELATAN";"28686";"Indonesia";"";"";"";"0.8904606";"101.243962";"https://maps.google.com/?cid=0x0:0x4758aebf812fe51f";""
"mall";"Jembatan";"Jembatan Kandis";"HQPM+PXF, Santapan Bar., Kec. Kandis, Kabupaten Ogan Ilir, Sumatera Selatan 30867";"Santapan Bar., Kec. Kandis, Kabupaten Ogan Ilir";"SUMATERA SELATAN";"30867";"Indonesia";"";"";"";"-3.4131969";"104.7849104";"https://maps.google.com/?cid=0x0:0x22a011ddccbaedd1";""
"mall";"Toko";"Toko INTAN JAYA";"jl lintas duri No.km 80, Kandis Kota, Kec. Kandis, Kabupaten Siak, Riau 28686";"Kandis Kota, Kec. Kandis, Kabupaten Siak";"SUMATERA SELATAN";"28686";"Indonesia";"";"";"";"0.9491859";"101.2434989";"https://maps.google.com/?cid=0x0:0x429c9385ba43209e";""
"mall";"Pusat Perbelanjaan";"MzOke";"V6XJ+FQ2, Jl. Oil Field, Telaga Sam Sam, Kec. Kandis, Kabupaten Siak, Riau 28686";"Jl. Oil Field, Telaga Sam Sam, Kec. Kandis, Kabupaten Siak";"SUMATERA SELATAN";"28686";"Indonesia";" 081233659956";"";"";"0.8986259";"101.231883";"https://maps.google.com/?cid=0x0:0x911ec93ef4dbf2a5";""
"mall";"Toko";"Stockist DXN Kandis";"W6PP+2VC, Jl. Lintas Sumatra, Kandis Kota, Kec. Kandis, Kabupaten Siak, Riau 28686";"Jl. Lintas Sumatra, Kandis Kota, Kec. Kandis, Kabupaten Siak";"SUMATERA SELATAN";"28686";"Indonesia";" 085373050373";"";"";"0.9350602";"101.2371333";"https://maps.google.com/?cid=0x0:0x91a18351722eddb9";""
"mall";"Toko bahan makanan";"Toko anto";"X5J2+G8R, Unnamed Road, Sam Sam, Kec. Kandis, Kabupaten Siak, Riau 28686";"Unnamed Road, Sam Sam, Kec. Kandis, Kabupaten Siak";"SUMATERA SELATAN";"28686";"Indonesia";"";"";"";"0.9813669";"101.1507552";"https://maps.google.com/?cid=0x0:0x4b5af0071ba0077c";""
"mall";"Toko bahan makanan";"Pasar Minggu Kandis";"Kandis Kota, Kec. Kandis, Kabupaten Siak, Riau 28686";"Kec. Kandis, Kabupaten Siak";"SUMATERA SELATAN";"28686";"Indonesia";"";"";"";"0.9495029";"101.2437246";"https://maps.google.com/?cid=0x0:0xc984eea638de3c29";""
"mall";"Loket Tol";"Gerbang Tol Kandis Selatan";"V75J+72F, Unnamed Road, Telaga Sam Sam, Kandis, Siak Regency, Riau 28686";"Unnamed Road, Telaga Sam Sam, Kandis, Siak Regency";"SUMATERA SELATAN";"28686";"Indonesia";"";"";"";"0.858199";"101.2800625";"https://maps.google.com/?cid=0x0:0x60be987723527a70";""
"mall";"Toko Perbaikan Ponsel";"Dita Store";"V7J2+25, Telaga Sam Sam, Kec. Kandis, Kabupaten Siak, Riau 28686";"Telaga Sam Sam, Kec. Kandis, Kabupaten Siak";"SUMATERA SELATAN";"28686";"Indonesia";" 082297072281";"";"";"0.8801297";"101.2513673";"https://maps.google.com/?cid=0x0:0x3b28d191f8512c28";""
"mall";"Toko Aksesori Pakaian";"Intan store";"depan capella Honda, Jl.Pekanbaru duri No.km 72, Wonorejo, Kec. Kandis, Kota Pekanbaru, Riau 28686";"Jl.Pekanbaru duri No.km 72, Wonorejo, Kec. Kandis, Kota Pekanbaru";"SUMATERA SELATAN";"28686";"Indonesia";" 082385015056";"";"";"0.5070964";"101.4477536";"https://maps.google.com/?cid=0x0:0x98efa4d8efe0ad2f";""
"mall";"Minimarket";"SENJA COFFE KANDIS";"Kantor camat lama kandis km 72, Kabupaten Siak, Riau 28686";"Kabupaten Siak";"SUMATERA SELATAN";"28686";"Indonesia";" 082384057327";"";"";"0.9233243";"101.2081341";"https://maps.google.com/?cid=0x0:0xa2ac6c5bff0748da";""
"mall";"Toko";"Toko Leni";"HQPP+FRH, Kandis I, Kec. Kandis, Kabupaten Ogan Ilir, Sumatera Selatan 30867";"Kandis I, Kec. Kandis, Kabupaten Ogan Ilir";"SUMATERA SELATAN";"30867";"Indonesia";"";"";"";"-3.4138171";"104.7871045";"https://maps.google.com/?cid=0x0:0x2da4271d3f4939b6";""
"mall";"Toko";"IDA";"HQPP+896, Santapan Bar., Kec. Kandis, Kabupaten Ogan Ilir, Sumatera Selatan 30867";"Santapan Bar., Kec. Kandis, Kabupaten Ogan Ilir";"SUMATERA SELATAN";"30867";"Indonesia";" 081274302126";"";"";"-3.4142167";"104.7858767";"https://maps.google.com/?cid=0x0:0xbfd97302eeb81aed";""
"mall";"mall";"Sumatera Selatan 30867";"Sumatera Selatan";"Sumatera Selatan";"SUMATERA SELATAN";"";"Indonesia";"";"";"";"-3.4136583";"104.8104424";"https://maps.google.com/?cid=0x0:0xc0533328a1fd3b44";""
"mall";"Minimarket";"lorong ganefo";"JR5M+M8P, Mangun Jaya, Kec. Kayu Agung, Kabupaten Ogan Komering Ilir, Sumatera Selatan 30614";"Mangun Jaya, Kec. Kayu Agung, Kabupaten Ogan Komering Ilir";"SUMATERA SELATAN";"30614";"Indonesia";" 08779771556";"";"";"-3.3907941";"104.8333143";"https://maps.google.com/?cid=0x0:0x2fe5b5f8050a68f7";""
"mall";"Pusat Perbelanjaan";"Parkiran Pasar Kayu Agung";"JR6H+H5W, AREA PARKIR PASAR KAYUAGUNG, Cintaraja, Kec. Kayu Agung, Kabupaten Ogan Komering Ilir, Sumatera Selatan 30867";"AREA PARKIR PASAR KAYUAGUNG, Cintaraja, Kec. Kayu Agung, Kabupaten Ogan Komering Ilir";"SUMATERA SELATAN";"30867";"Indonesia";" 081300001111";"";"";"-3.3885155";"104.8279582";"https://maps.google.com/?cid=0x0:0x93d263833496818";""
"mall";"Pusat Perbelanjaan";"Kijang tanjung alai";"HQ56+C3, Tj. Mas, Kec. Rantau Alai, Kabupaten Ogan Ilir, Sumatera Selatan";"Kabupaten Ogan Ilir, Sumatera Selatan";"SUMATERA SELATAN";"";"Indonesia";"";"";"";"-3.441467";"104.760131";"https://maps.google.com/?cid=0x0:0xd13e54bbd578484d";""
"mall";"Pusat Perbelanjaan";"Novitriadarini Olsp";"JR5J+JFR, Jl. Merdeka, Mangun Jaya, Kec. Kayu Agung, Kabupaten Ogan Komering Ilir, Sumatera Selatan 30867";"Jl. Merdeka, Mangun Jaya, Kec. Kayu Agung, Kabupaten Ogan Komering Ilir";"SUMATERA SELATAN";"30867";"Indonesia";" 085380968563";"";"";"-3.3908761";"104.8311307";"https://maps.google.com/?cid=0x0:0x423b9f072ceb14dd";""
"mall";"Pusat Perbelanjaan";"Rumah Olshop Ranrin";"HRWG+8PM, Jl. Pratu Ahmad Gulu, Jua Jua, Kec. Kayu Agung, Kabupaten Ogan Komering Ilir, Sumatera Selatan 30867";"Jl. Pratu Ahmad Gulu, Jua Jua, Kec. Kayu Agung, Kabupaten Ogan Komering Ilir";"SUMATERA SELATAN";"30867";"Indonesia";"";"";"";"-3.4041555";"104.8267827";"https://maps.google.com/?cid=0x0:0x7e23c7a88732d0c8";""
"mall";"Toserba";"KayuAgung ShOpping Centre";"shopping center, Jl. Letnan Mukhtar Saleh, Cintaraja, Kec. Kayu Agung, Kabupaten Ogan Komering Ilir, Sumatera Selatan 30614";"Jl. Letnan Mukhtar Saleh, Cintaraja, Kec. Kayu Agung, Kabupaten Ogan Komering Ilir";"SUMATERA SELATAN";"30614";"Indonesia";"";"";"";"-3.387921";"104.8279252";"https://maps.google.com/?cid=0x0:0x3f0db4fb7664780e";""
"mall";"Jasa pasang stiker kendaraan";"Alula Variasi";"HRVH+XV7, Jua Jua, Kec. Kayu Agung, Kabupaten Ogan Komering Ilir, Sumatera Selatan 30867";"Jua Jua, Kec. Kayu Agung, Kabupaten Ogan Komering Ilir";"SUMATERA SELATAN";"30867";"Indonesia";" 081253131434";"";"";"-3.4050909";"104.8296677";"https://maps.google.com/?cid=0x0:0x6e6301fde46367cd";""
"mall";"Toko Kosmetik";"ILYAS "Warung dan MUA By : Weni Ralline"";"Santapan Bar., Kec. Kandis, Kabupaten Ogan Ilir, Sumatera Selatan 30867";"Kec. Kandis, Kabupaten Ogan Ilir";"SUMATERA SELATAN";"30867";"Indonesia";" 082176959496";"";"";"-3.4088727";"104.7791645";"https://maps.google.com/?cid=0x0:0xa89c6881275ee646";""
"mall";"Komplek perumahan";"Portal Gerbang Santapan";"HQQJ+65P, Santapan Bar., Kec. Kandis, Kabupaten Ogan Ilir, Sumatera Selatan 30867";"Santapan Bar., Kec. Kandis, Kabupaten Ogan Ilir";"SUMATERA SELATAN";"30867";"Indonesia";"";"";"";"-3.4119171";"104.7804559";"https://maps.google.com/?cid=0x0:0xed86429f78702ddb";""
"mall";"Toko Swalayan";"Toko Rinda";"JQ6X+F6M, Jl. Pinang Raya, Talang Dukun, Kec. Sungai Pinang, Kabupaten Ogan Ilir, Sumatera Selatan 30867";"Jl. Pinang Raya, Talang Dukun, Kec. Sungai Pinang, Kabupaten Ogan Ilir";"SUMATERA SELATAN";"30867";"Indonesia";"";"";"";"-3.3887752";"104.7980535";"https://maps.google.com/?cid=0x0:0x78f58138c86b01d3";""
"mall";"Toko Bahan Bangunan";"Toko Makmur";"Jalan, Cintaraja, Kec. Kayu Agung, Kabupaten Ogan Komering Ilir, Sumatera Selatan 30618";"Cintaraja, Kec. Kayu Agung, Kabupaten Ogan Komering Ilir";"SUMATERA SELATAN";"30618";"Indonesia";" 085382080777";"";"";"-3.3896819";"104.8247667";"https://maps.google.com/?cid=0x0:0xe6481d144c0cce58";""
"mall";"Toko bahan makanan";"Pasar Minggu Kandis";"Kandis Kota, Kec. Kandis, Kabupaten Siak, Riau 28686";"Kec. Kandis, Kabupaten Siak";"SUMATERA SELATAN";"28686";"Indonesia";"";"";"";"0.9495029";"101.2437246";"https://maps.google.com/?cid=0x0:0xc984eea638de3c29";""
"mall";"mall";"Sumatera Selatan 30868";"Kec. Lubuk Keliat, Kabupaten Ogan Ilir, Sumatera Selatan";"Kabupaten Ogan Ilir, Sumatera Selatan";"SUMATERA SELATAN";"";"Indonesia";"";"";"";"-3.4849548";"104.6354631";"https://maps.google.com/?cid=0x0:0xf2dd1589c69800e3";""
"mall";"Area Mendaki";"Pasar Lubuk Keliat";"GJ24+65G, Lubuk Keliat, Kec. Lubuk Keliat, Kabupaten Ogan Ilir, Sumatera Selatan 30868";"Lubuk Keliat, Kec. Lubuk Keliat, Kabupaten Ogan Ilir";"SUMATERA SELATAN";"30868";"Indonesia";"";"";"";"-3.4994464";"104.6054583";"https://maps.google.com/?cid=0x0:0x91ee9b00d8a6cddc";""
"mall";"Toko Alat Kecantikan";"Harry NASA distributor Resmi PT. Natural Nusantara";"Payalingkung, Kec. Lubuk Keliat, Kabupaten Ogan Ilir, Sumatera Selatan 30862";"Kec. Lubuk Keliat, Kabupaten Ogan Ilir";"SUMATERA SELATAN";"30862";"Indonesia";" 081365054610";"";"";"-3.437535";"104.6765146";"https://maps.google.com/?cid=0x0:0xd13022cb3047a83e";""
"mall";"Toko Pakaian";"Toko " BUNDA"";"GMW9+X22, Talang Tengah Darat, Kec. Lubuk Keliat, Kabupaten Ogan Ilir, Sumatera Selatan 30868";"Talang Tengah Darat, Kec. Lubuk Keliat, Kabupaten Ogan Ilir";"SUMATERA SELATAN";"30868";"Indonesia";" 082176396746";"";"";"-3.4526061";"104.6675277";"https://maps.google.com/?cid=0x0:0x81e6469736b6cf4f";""
"mall";"Toko";"Warung kemplang pangagang";"HM37+R9, Ketiau, Kec. Lubuk Keliat, Kabupaten Ogan Ilir, Sumatera Selatan 30868";"Ketiau, Kec. Lubuk Keliat, Kabupaten Ogan Ilir";"SUMATERA SELATAN";"30868";"Indonesia";" 088206844520";"";"";"-3.445482";"104.663477";"https://maps.google.com/?cid=0x0:0x36eea32a54eaf15";""
"mall";"Pusat Perbelanjaan";"Nando PARFUME";"HM59+7XF, Ketiau, Kec. Lubuk Keliat, Kabupaten Ogan Ilir, Sumatera Selatan 30868";"Ketiau, Kec. Lubuk Keliat, Kabupaten Ogan Ilir";"SUMATERA SELATAN";"30868";"Indonesia";" 081367133667";"";"";"-3.4418001";"104.6699147";"https://maps.google.com/?cid=0x0:0xbc31626164efaa94";""
"mall";"Pusat Perbelanjaan";"Toko muslim H.syarnubi";"HM6F+5G5, Jl. Patas, Ketiau, Kec. Lubuk Keliat, Kabupaten Ogan Ilir, Sumatera Selatan 30862";"Jl. Patas, Ketiau, Kec. Lubuk Keliat, Kabupaten Ogan Ilir";"SUMATERA SELATAN";"30862";"Indonesia";" 081384292262";"";"";"-3.4396053";"104.6738479";"https://maps.google.com/?cid=0x0:0x6266706edb410a2d";""
"mall";"Toko Sepatu";"Toko Sepatu ALI";"HM59+5XM, Ketiau, Kec. Lubuk Keliat, Kabupaten Ogan Ilir, Sumatera Selatan 30868";"Ketiau, Kec. Lubuk Keliat, Kabupaten Ogan Ilir";"SUMATERA SELATAN";"30868";"Indonesia";" 082186604119";"";"";"-3.4420293";"104.6699161";"https://maps.google.com/?cid=0x0:0x97505e4131b59abd";""
"mall";"Gedung Apartemen";"RUKO BASUKI KALAMPADU";"CJR4+CG4, Kelampadu, Kec. Muara Kuang, Kabupaten Ogan Ilir, Sumatera Selatan";"Kabupaten Ogan Ilir, Sumatera Selatan";"SUMATERA SELATAN";"";"Indonesia";"";"";"";"-3.5589938";"104.6063192";"https://maps.google.com/?cid=0x0:0x77688b9690726276";""
"mall";"Toko Elektronik";"Rizal Cell";"HH4M+QW, Betung II, Kec. Lubuk Keliat, Kabupaten Ogan Ilir, Sumatera Selatan";"Kabupaten Ogan Ilir, Sumatera Selatan";"SUMATERA SELATAN";"";"Indonesia";"";"";"";"-3.443025";"104.5848495";"https://maps.google.com/?cid=0x0:0x39d97e22e85d9ea8";""
"mall";"Pusat Perbelanjaan";"Agen BNI/SRC SYARNUBI Toko Kelontong";"HM5F+867, Unnamed Road, Talang Tengah Darat, Kec. Lubuk Keliat, Kabupaten Ogan Ilir, Sumatera Selatan 30868";"Unnamed Road, Talang Tengah Darat, Kec. Lubuk Keliat, Kabupaten Ogan Ilir";"SUMATERA SELATAN";"30868";"Indonesia";" 08127974799";"";"";"-3.4417037";"104.6730446";"https://maps.google.com/?cid=0x0:0xa81b312b817b16b9";""
"mall";"Bengkel Motor Skuter";"Bengkel kdrt";"HH5X+4GW, Betung I, Kec. Lubuk Keliat, Kabupaten Ogan Ilir, Sumatera Selatan 30664";"Betung I, Kec. Lubuk Keliat, Kabupaten Ogan Ilir";"SUMATERA SELATAN";"30664";"Indonesia";" 087811642830";"";"";"-3.4421408";"104.5988151";"https://maps.google.com/?cid=0x0:0x36ac6b9208cae21c";""
"mall";"Pasar";"Pasar Betung";"HH4V+GHW, Unnamed Road,, Betung II, Kec. Lubuk Keliat, Kabupaten Ogan Ilir, Sumatera Selatan 30664";"Unnamed Road,, Betung II, Kec. Lubuk Keliat, Kabupaten Ogan Ilir";"SUMATERA SELATAN";"30664";"Indonesia";"";"";"";"-3.4436334";"104.5939418";"https://maps.google.com/?cid=0x0:0x1fb804d169540b5e";""
"mall";"Pusat Perbelanjaan";"Kijang tanjung alai";"HQ56+C3, Tj. Mas, Kec. Rantau Alai, Kabupaten Ogan Ilir, Sumatera Selatan";"Kabupaten Ogan Ilir, Sumatera Selatan";"SUMATERA SELATAN";"";"Indonesia";"";"";"";"-3.441467";"104.760131";"https://maps.google.com/?cid=0x0:0xd13e54bbd578484d";""
"mall";"Bioskop";"OPI MALL";"Jakabaring Sport City, Jl. Gubernur H. A Bastari, Sungai Kedukan, Kec. Rambutan, Kab. Banyuasin, Sumatera Selatan 30257";"Jl. Gubernur H. A Bastari, Sungai Kedukan, Kec. Rambutan, Kab. Banyuasin";"SUMATERA SELATAN";"30257";"Indonesia";" 07115620477";"";"";"-3.0361406";"104.791564";"https://maps.google.com/?cid=0x0:0x179a245e68ec1ef";""
"mall";"Pusat Perbelanjaan";"Berkah Oi store";"GGM5+GPV, Tebedak II, Kec. Payaraman, Kabupaten Ogan Ilir, Sumatera Selatan 30664";"Tebedak II, Kec. Payaraman, Kabupaten Ogan Ilir";"SUMATERA SELATAN";"30664";"Indonesia";" 081353864499";"";"";"-3.4661434";"104.5092923";"https://maps.google.com/?cid=0x0:0xd12621cf752c0a15";""
"mall";"mall";"H.Gani";"HM49+QMX, Talang Tengah Darat, Kec. Lubuk Keliat, Kabupaten Ogan Ilir, Sumatera Selatan 30868";"Talang Tengah Darat, Kec. Lubuk Keliat, Kabupaten Ogan Ilir";"SUMATERA SELATAN";"30868";"Indonesia";"";"";"";"-3.44304";"104.6691446";"https://maps.google.com/?cid=0x0:0xfc5b416c3da1c78d";""
"mall";"Minimarket";"Alfamart_Sukajadi";"CH9R+6C7, Jl raya, Sukajadi, Kec. Muara Kuang, Kabupaten Ogan Ilir, Sumatera Selatan";"Kabupaten Ogan Ilir, Sumatera Selatan";"SUMATERA SELATAN";"";"Indonesia";"";"";"";"-3.581953";"104.5910615";"https://maps.google.com/?cid=0x0:0xd4af5c3a2152268a";""
"mall";"Pembangunan Perumahan";"Pasar Cinta Manis";"HM49+RQ3, Talang Tengah Darat, Kec. Lubuk Keliat, Kabupaten Ogan Ilir, Sumatera Selatan 30868";"Talang Tengah Darat, Kec. Lubuk Keliat, Kabupaten Ogan Ilir";"SUMATERA SELATAN";"30868";"Indonesia";"";"";"";"-3.4429906";"104.669407";"https://maps.google.com/?cid=0x0:0x2f772acfae312110";""
"mall";"Pusat Perbelanjaan";"Madiya Manaf";"CPCG+VG3, Sukarami, Kec. Tj. Lubuk, Kabupaten Ogan Komering Ilir, Sumatera Selatan 30671";"Sukarami, Kec. Tj. Lubuk, Kabupaten Ogan Komering Ilir";"SUMATERA SELATAN";"30671";"Indonesia";" 081270303559";"";"";"-3.5778622";"104.7263088";"https://maps.google.com/?cid=0x0:0xb9dc78f5727a6f68";""
"mall";"Pasar tradisional";"Kalangan Sabtu Desa Seri Tanjung";"JH6P+FFG, Seri Tj., Kec. Tj. Batu, Kabupaten Ogan Ilir, Sumatera Selatan 30664";"Seri Tj., Kec. Tj. Batu, Kabupaten Ogan Ilir";"SUMATERA SELATAN";"30664";"Indonesia";"";"";"";"-3.3888158";"104.586205";"https://maps.google.com/?cid=0x0:0xff78ffeb455a29c";""
"mall";"Pusat Perbelanjaan";"Palembang Icon Mall";"Jl. POM IX, Lorok Pakjo, Kec. Ilir Bar. I, Kota Palembang, Sumatera Selatan 30137";"Lorok Pakjo, Kec. Ilir Bar. I, Kota Palembang";"SUMATERA SELATAN";"30137";"Indonesia";" 07115649366";"";"";"-2.97928";"104.745102";"https://maps.google.com/?cid=0x0:0x4f51deef4db78c49";""
"mall";"Pasar";"Pasar Jumat Seri Kembang OI";"9HHJ+M99, Seri Kembang, Kec. Muara Kuang, Kabupaten Ogan Ilir, Sumatera Selatan 30865";"Seri Kembang, Kec. Muara Kuang, Kabupaten Ogan Ilir";"SUMATERA SELATAN";"30865";"Indonesia";" 081226114287";"";"";"-3.6208362";"104.5809931";"https://maps.google.com/?cid=0x0:0x2bf0f8489bbedefc";""
"mall";"Pusat Perbelanjaan";"Palembang Icon Mall";"Jl. POM IX, Lorok Pakjo, Kec. Ilir Bar. I, Kota Palembang, Sumatera Selatan 30137";"Lorok Pakjo, Kec. Ilir Bar. I, Kota Palembang";"SUMATERA SELATAN";"30137";"Indonesia";" 07115649366";"";"";"-2.97928";"104.745102";"https://maps.google.com/?cid=0x0:0x4f51deef4db78c49";""
"mall";"Pusat Perbelanjaan";"Palembang Square";"Jl. Angkatan 45, Lorok Pakjo, Kec. Ilir Bar. I, Kota Palembang, Sumatera Selatan 30137";"Lorok Pakjo, Kec. Ilir Bar. I, Kota Palembang";"SUMATERA SELATAN";"30137";"Indonesia";" 0711380001";"";"";"-2.9761223";"104.7417611";"https://maps.google.com/?cid=0x0:0xa673f79fd841a344";""
"mall";"Pusat Perbelanjaan";"Palembang Indah Mall";"Jl. Letkol Iskandar No.18, 24 Ilir, Kec. Bukit Kecil, Kota Palembang, Sumatera Selatan 30134";"24 Ilir, Kec. Bukit Kecil, Kota Palembang";"SUMATERA SELATAN";"30134";"Indonesia";" 0711350999";"";"";"-2.9851559";"104.7537026";"https://maps.google.com/?cid=0x0:0xdb7489509d864093";""
"mall";"Bioskop";"Cinepolis Palembang Icon";"Palembang Icon Mall Lantai 3 No. 55 (L3-55, Jl. POM IX, Lorok Pakjo, Kec. Ilir Bar. I, Kota Palembang, Sumatera Selatan 30137";"Jl. POM IX, Lorok Pakjo, Kec. Ilir Bar. I, Kota Palembang";"SUMATERA SELATAN";"30137";"Indonesia";" 07115649395";"";"";"-2.9791667";"104.7455556";"https://maps.google.com/?cid=0x0:0x30b3198eb5f6f0f";""
"mall";"Thailand";"Raa Cha Suki  BBQ Palembang Icon";"2PCW+74P, Jl. POM IX, Lorok Pakjo, Kec. Ilir Bar. I, Kota Palembang, Sumatera Selatan";"Kota Palembang, Sumatera Selatan";"SUMATERA SELATAN";"";"Indonesia";" 08573689830";"";"";"-2.9792948";"104.7453324";"https://maps.google.com/?cid=0x0:0xec001b1de87eac13";""
"mall";"Kantor Pemerintahan Daerah";"Simpang Empat Desa Seri Kembang OI";"9HCM+P6J, Seri Kembang, Kec. Muara Kuang, Kabupaten Ogan Ilir, Sumatera Selatan 30865";"Seri Kembang, Kec. Muara Kuang, Kabupaten Ogan Ilir";"SUMATERA SELATAN";"30865";"Indonesia";" 081226114287";"";"";"-3.6281504";"104.5830082";"https://maps.google.com/?cid=0x0:0x65b963cc35a3103";""
"mall";"Toko Perhiasan";"The Palace National Jeweler- Palembang Icon";"Palembang Icon, Jl. POM IX GF 11, Lorok Pakjo, Kec. Ilir Bar. I, Kota Palembang, Sumatera Selatan 30137";"Jl. POM IX GF 11, Lorok Pakjo, Kec. Ilir Bar. I, Kota Palembang";"SUMATERA SELATAN";"30137";"Indonesia";" 081119901081";"";"";"-2.9795927";"104.7450922";"https://maps.google.com/?cid=0x0:0xa819c07aee0bebc7";""
