Category;Real Category;Business Name;Address;City;State;Postal Code;Country;Phone;Email;Website;Latitude;Longitude;Map Link;Details Link
"komplek housing";"Komplek perumahan";"Perumahan Queen Garden V";"Jl. Mangesti Raya, Dusun II, Waru, Kec. Baki, Kabupaten Sukoharjo, Jawa Tengah 57556";"Dusun II, Waru, Kec. Baki, Kabupaten Sukoharjo";"JAWA TENGAH";"57556";"Indonesia";" 081326679261";"";"";"-7.583604";"110.7708043";"https://maps.google.com/?cid=0x0:0xb0be8d4b071099cb";""
"komplek housing";"Komplek perumahan";"Noah living";"9QM9+J83, Jl. Gawok, Rw. VI, Jetis, Kec. Baki, Kabupaten Sukoharjo, Jawa Tengah 57556";"Jl. Gawok, Rw. VI, Jetis, Kec. Baki, Kabupaten Sukoharjo";"JAWA TENGAH";"57556";"Indonesia";" 0895363657056";"";"";"-7.615992";"110.7682817";"https://maps.google.com/?cid=0x0:0x7cd6a24116479636";""
"komplek housing";"Komplek perumahan";"Nindhi";"9QQH+56Q, Gabahan, Menuran, Kec. Baki, Kabupaten Sukoharjo, Jawa Tengah 57556";"Gabahan, Menuran, Kec. Baki, Kabupaten Sukoharjo";"JAWA TENGAH";"57556";"Indonesia";"";"";"";"-7.6120447";"110.7780959";"https://maps.google.com/?cid=0x0:0x80cd45bdb8f28c66";""
"komplek housing";"Komplek perumahan";"Perumahan Queen Garden II, Waru, Baki, Kabupaten Sukoharjo, Jawa Tengah 57556";"Blok C1 Queen Garden II, Dusun II, Waru, Kec. Baki, Kabupaten Sukoharjo, Jawa Tengah 57556";"Dusun II, Waru, Kec. Baki, Kabupaten Sukoharjo";"JAWA TENGAH";"57556";"Indonesia";" 081392347229";"";"";"-7.5847804";"110.7700324";"https://maps.google.com/?cid=0x0:0xb8117432ebe9b843";""
"komplek housing";"Komplek perumahan";"AL OLSHOP";"Jl. Pd. Teduh Asri No.6, Dusun I, Kadilangu, Kec. Baki, Kabupaten Sukoharjo, Jawa Tengah 57556";"Dusun I, Kadilangu, Kec. Baki, Kabupaten Sukoharjo";"JAWA TENGAH";"57556";"Indonesia";"";"";"";"-7.6001083";"110.7854647";"https://maps.google.com/?cid=0x0:0x1b5f19825291fcab";""
"komplek housing";"Komplek perumahan";"C13";"9QPM+9C2, Sawah, Kudu, Kec. Baki, Kabupaten Sukoharjo, Jawa Tengah 57556";"Sawah, Kudu, Kec. Baki, Kabupaten Sukoharjo";"JAWA TENGAH";"57556";"Indonesia";"";"";"";"-7.614084";"110.783405";"https://maps.google.com/?cid=0x0:0xd0d5cb6d0a483f21";""
"komplek housing";"Pembangunan Perumahan";"Dwii Veaa Home";"9QJJ+MGF, Bentakan, Kec. Baki, Kabupaten Sukoharjo, Jawa Tengah 57556";"Bentakan, Kec. Baki, Kabupaten Sukoharjo";"JAWA TENGAH";"57556";"Indonesia";"";"";"";"-7.6183139";"110.781284";"https://maps.google.com/?cid=0x0:0x759bdebcb1711c66";""
"komplek housing";"Komplek perumahan";"NAKAZA OLSHOP";"Jl. Pd. Teduh Asri No.6, Dusun I, Kadilangu, Kec. Baki, Kabupaten Sukoharjo, Jawa Tengah 57556";"Dusun I, Kadilangu, Kec. Baki, Kabupaten Sukoharjo";"JAWA TENGAH";"57556";"Indonesia";"";"";"";"-7.6000226";"110.7854907";"https://maps.google.com/?cid=0x0:0x6d7ded309fdab92f";""
"komplek housing";"Perumahan";"PERUMAHAN GRIYA SEMESTA MENURAN BAKl";"Sawah, Menuran, Kec. Baki, Kabupaten Sukoharjo, Jawa Tengah";"Kabupaten Sukoharjo, Jawa Tengah";"JAWA TENGAH";"";"Indonesia";" 087734841552";"";"";"-7.6137977";"110.7768996";"https://maps.google.com/?cid=0x0:0xfa7708618bb2b4b3";""
"komplek housing";"Penginapan";"Perumahan tower hunian teduh blok D20 Baki kudu";"Perumahan tower hunian teduh, blok D20, Sawah, Kudu, Kec. Baki, Kabupaten Sukoharjo, Jawa Tengah 57556";"blok D20, Sawah, Kudu, Kec. Baki, Kabupaten Sukoharjo";"JAWA TENGAH";"57556";"Indonesia";" 085799599800";"";"";"-7.6144984";"110.78328";"https://maps.google.com/?cid=0x0:0x809f5614ff4d78da";""
"komplek housing";"Komplek perumahan";"iniitn";"9QP9+P3H, Rw. XI, Jetis, Kec. Baki, Kabupaten Sukoharjo, Jawa Tengah 57556";"Rw. XI, Jetis, Kec. Baki, Kabupaten Sukoharjo";"JAWA TENGAH";"57556";"Indonesia";"";"";"";"-7.6131799";"110.7677446";"https://maps.google.com/?cid=0x0:0x43841086eff24fb8";""
"komplek housing";"Pembangunan Perumahan";"My Home in Menuran";"9QMH+VVP, Baki Duwur, Menuran, Kec. Baki, Kabupaten Sukoharjo, Jawa Tengah 57556";"Baki Duwur, Menuran, Kec. Baki, Kabupaten Sukoharjo";"JAWA TENGAH";"57556";"Indonesia";"";"";"";"-7.6144173";"110.7791401";"https://maps.google.com/?cid=0x0:0x850f93d3bdf9df5";""
"komplek housing";"Komplek perumahan";"Baki Residence";"9QRM+RQ3, Unnamed Road, Sawah, Kudu, Kec. Baki, Kabupaten Sukoharjo, Jawa Tengah 57556";"Unnamed Road, Sawah, Kudu, Kec. Baki, Kabupaten Sukoharjo";"JAWA TENGAH";"57556";"Indonesia";" 085526383699";"";"";"-7.6079764";"110.7844116";"https://maps.google.com/?cid=0x0:0x912c12c8330583ce";""
"komplek housing";"Perumahan";"Perumahan Mulya Residence";"Jalan Jetis Permai No.Gang 2, Rw. VI, Gentan, Kec. Baki, Kabupaten Sukoharjo, Jawa Tengah 57556";"Rw. VI, Gentan, Kec. Baki, Kabupaten Sukoharjo";"JAWA TENGAH";"57556";"Indonesia";"";"";"";"-7.6152104";"110.7675652";"https://maps.google.com/?cid=0x0:0xecd029a1de13fcc0";""
"komplek housing";"Perhimpunan Pengembang Perumahan";"Hendrawan Secti";"Perum Jl. Pd. Teduh Asri No.68, Dusun I, Kadilangu, Kec. Baki, Kabupaten Sukoharjo, Jawa Tengah 57556";"Dusun I, Kadilangu, Kec. Baki, Kabupaten Sukoharjo";"JAWA TENGAH";"57556";"Indonesia";"";"";"";"-7.6000178";"110.7853882";"https://maps.google.com/?cid=0x0:0xc661e71af12d06be";""
"komplek housing";"Perumahan";"Santika Land Sukoharjo";"Sawah, Kudu, Kec. Baki, Kabupaten Sukoharjo, Jawa Tengah 57556";"Kudu, Kec. Baki, Kabupaten Sukoharjo";"JAWA TENGAH";"57556";"Indonesia";" 081228857548";"";"/url?q>>u003dhttps://santikaland.com/>>u0026opi>>u003d79508299>>u0026sa>>u003dU>>u0026ved>>u003d0ahUKEwiZ1_Xnu4qMAxU-7jgGHcpGFi0Q61gIFigS>>u0026usg>>u003dAOvVaw1Z1Cm4OGrl7B4PhQwM5DI8";"-7.6142646";"110.787557";"https://maps.google.com/?cid=0x0:0xaaf9174a1b026c94";""
"komplek housing";"Komplek perumahan";"Safira Mangesti - Perumahan";"Jl. Mangesti Raya, Dusun II, Purbayan, Kec. Baki, Kabupaten Sukoharjo, Jawa Tengah 57556";"Dusun II, Purbayan, Kec. Baki, Kabupaten Sukoharjo";"JAWA TENGAH";"57556";"Indonesia";" 082376156070";"";"";"-7.5816398";"110.7725375";"https://maps.google.com/?cid=0x0:0x8e1ce69adbb7ef9a";""
"komplek housing";"Perhimpunan Pengembang Perumahan";"Perumahan";"9QQR+6G8 Residen, Jl. Perumahan Alam Citra, RT.03/RW.01, Kudu, Kec. Baki, Kabupaten Sukoharjo, Jawa Tengah 57556";"Jl. Perumahan Alam Citra, RT.03/RW.01, Kudu, Kec. Baki, Kabupaten Sukoharjo";"JAWA TENGAH";"57556";"Indonesia";"";"";"";"-7.6119746";"110.7913125";"https://maps.google.com/?cid=0x0:0x36fc335d525aa2f6";""
"komplek housing";"Pembangunan Perumahan";"Dea  Nisa";"9QQR+735, Kudu, Kec. Baki, Kabupaten Sukoharjo, Jawa Tengah 57556";"Kudu, Kec. Baki, Kabupaten Sukoharjo";"JAWA TENGAH";"57556";"Indonesia";" 085899552918";"";"";"-7.6118689";"110.7902369";"https://maps.google.com/?cid=0x0:0xf48ddd3d0dd98bc1";""
"komplek housing";"komplek housing";"Jawa Tengah 57556";"Kabupaten Sukoharjo, Jawa Tengah";"Kabupaten Sukoharjo, Jawa Tengah";"JAWA TENGAH";"";"Indonesia";"";"";"";"-7.6061491";"110.7778071";"https://maps.google.com/?cid=0x0:0x1c00c5eb5b53d5a0";""
"komplek housing";"Kantor Perusahaan";"JASMINE RESIDENCE";"Ngrangutan RT 03/01, Dusun 2, Ngrombo, Kec. Baki, Kabupaten Sukoharjo, Jawa Tengah 57556";"Dusun 2, Ngrombo, Kec. Baki, Kabupaten Sukoharjo";"JAWA TENGAH";"57556";"Indonesia";"";"";"";"-7.636136";"110.7857687";"https://maps.google.com/?cid=0x0:0x4f119626d877c074";""
"komplek housing";"Perumahan";"Perumahan Gentan Baru No. 07";"Jl. Mangesti Raya No.9, Gentan, Kec. Baki, Kabupaten Sukoharjo, Jawa Tengah 57556";"Gentan, Kec. Baki, Kabupaten Sukoharjo";"JAWA TENGAH";"57556";"Indonesia";"";"";"";"-7.5817732";"110.7826706";"https://maps.google.com/?cid=0x0:0x65f57238ca94801b";""
"komplek housing";"Pembangunan Perumahan";"Rumah";"Griya Edelweis No.D6, Sawahan, Kudu, Kec. Baki, Kabupaten Sukoharjo, Jawa Tengah 57556";"Sawahan, Kudu, Kec. Baki, Kabupaten Sukoharjo";"JAWA TENGAH";"57556";"Indonesia";"";"";"";"-7.6113673";"110.7874926";"https://maps.google.com/?cid=0x0:0x5fc08ac82a6b9d3f";""
"komplek housing";"Pembangunan Perumahan";"Taman Mutiara Land Baki";"Jl. Mawar, Kebon, Menuran, Kec. Baki, Kabupaten Sukoharjo, Jawa Tengah 57556";"Kebon, Menuran, Kec. Baki, Kabupaten Sukoharjo";"JAWA TENGAH";"57556";"Indonesia";"";"";"";"-7.603942";"110.7687287";"https://maps.google.com/?cid=0x0:0x17114e2eeb03adf4";""
"komplek housing";"Komplek perumahan";"Rumah Baki Family";"9QPM+9C2, Sawah, Kudu, Kec. Baki, Kabupaten Sukoharjo, Jawa Tengah 57556";"Sawah, Kudu, Kec. Baki, Kabupaten Sukoharjo";"JAWA TENGAH";"57556";"Indonesia";"";"";"";"-7.6141008";"110.7835016";"https://maps.google.com/?cid=0x0:0x8cd88ec8b19e1bd9";""
"komplek housing";"Vila";"Gheta home";"CQ6J+43P, Sawah, Siwal, Kec. Baki, Kabupaten Sukoharjo, Jawa Tengah 57556";"Sawah, Siwal, Kec. Baki, Kabupaten Sukoharjo";"JAWA TENGAH";"57556";"Indonesia";"";"";"";"-7.5896497";"110.780208";"https://maps.google.com/?cid=0x0:0x600c7e90b7181789";""
"komplek housing";"komplek housing";"Kec. Baki";"Kabupaten Sukoharjo, Jawa Tengah";"Kabupaten Sukoharjo, Jawa Tengah";"JAWA TENGAH";"";"Indonesia";"";"";"";"-7.6074803";"110.7842146";"https://maps.google.com/?cid=0x0:0x4027a76e35301d0";""
"komplek housing";"Pembangunan Perumahan";"Abah House";"CQCM+VFQ, Jl. Mekarsari, Ngebrak, Gentan, Kec. Baki, Kabupaten Sukoharjo, Jawa Tengah 57556";"Jl. Mekarsari, Ngebrak, Gentan, Kec. Baki, Kabupaten Sukoharjo";"JAWA TENGAH";"57556";"Indonesia";"";"";"";"-7.5777762";"110.7837486";"https://maps.google.com/?cid=0x0:0x2477e7520b8327eb";""
"komplek housing";"Komplek perumahan";"Shakeela House";"9QM8+J66, Sawah, Jetis, Kec. Baki, Kabupaten Sukoharjo, Jawa Tengah 57556";"Sawah, Jetis, Kec. Baki, Kabupaten Sukoharjo";"JAWA TENGAH";"57556";"Indonesia";"";"";"";"-7.6159748";"110.765507";"https://maps.google.com/?cid=0x0:0xec4bca627b5e0260";""
"komplek housing";"Komplek perumahan";"kos depan las";"8RMV+8W9, Gadingan, Jombor, Kec. Bendosari, Kabupaten Sukoharjo, Jawa Tengah";"Kabupaten Sukoharjo, Jawa Tengah";"JAWA TENGAH";"";"Indonesia";"";"";"";"-7.6667194";"110.8448635";"https://maps.google.com/?cid=0x0:0x4e96ec787b1a85b0";""
"komplek housing";"komplek housing";"Neni Savitri";"8RGW+FR8, Kp. Gabahan, Gadingan, Jombor, Kec. Bendosari, Kabupaten Sukoharjo, Jawa Tengah 57521";"Kp. Gabahan, Gadingan, Jombor, Kec. Bendosari, Kabupaten Sukoharjo";"JAWA TENGAH";"57521";"Indonesia";"";"";"";"-7.6738262";"110.8470713";"https://maps.google.com/?cid=0x0:0x2c69242c7ddc499c";""
"komplek housing";"Komplek perumahan";"Hanif Home";"8VG3+55W, Jl. Hanton 2, Toriyo, Kec. Bendosari, Kabupaten Sukoharjo, Jawa Tengah 57528";"Jl. Hanton 2, Toriyo, Kec. Bendosari, Kabupaten Sukoharjo";"JAWA TENGAH";"57528";"Indonesia";"";"";"";"-7.6745139";"110.8529406";"https://maps.google.com/?cid=0x0:0x28f2bce7fdb2116d";""
"komplek housing";"Komplek perumahan";"Rumah Bp. Giyono";"8RMM+X97, Jl. Safa Regency, Gabusan, Jombor, Kec. Bendosari, Kabupaten Sukoharjo, Jawa Tengah 57521";"Jl. Safa Regency, Gabusan, Jombor, Kec. Bendosari, Kabupaten Sukoharjo";"JAWA TENGAH";"57521";"Indonesia";"";"";"";"-7.6650936";"110.8334256";"https://maps.google.com/?cid=0x0:0xe7ed1cec24f1a327";""
"komplek housing";"Perumahan";"Jombor Baru";"Gg. Kenanga baru No.5, RT.03/RW.07, Gadingan, Jombor, Kec. Bendosari, Kabupaten Sukoharjo, Jawa Tengah 57521";"RT.03/RW.07, Gadingan, Jombor, Kec. Bendosari, Kabupaten Sukoharjo";"JAWA TENGAH";"57521";"Indonesia";" 081225753802";"";"";"-7.6735571";"110.8417812";"https://maps.google.com/?cid=0x0:0x5bb6dcf74f0738b2";""
"komplek housing";"Perhimpunan Pengembang Perumahan";"bunga house";"8RRP+Q5W, Sidorejo, Kec. Bendosari, Kabupaten Sukoharjo, Jawa Tengah 57527";"Sidorejo, Kec. Bendosari, Kabupaten Sukoharjo";"JAWA TENGAH";"57527";"Indonesia";" 089680500678";"";"";"-7.6580192";"110.8354409";"https://maps.google.com/?cid=0x0:0x3b5539423e023214";""
"komplek housing";"Perhimpunan Pengembang Perumahan";"Gunadi Dompilan";"8RRM+7R2, Jl. Dompilan 2, Gabusan, Jombor, Kec. Bendosari, Kabupaten Sukoharjo, Jawa Tengah 57521";"Jl. Dompilan 2, Gabusan, Jombor, Kec. Bendosari, Kabupaten Sukoharjo";"JAWA TENGAH";"57521";"Indonesia";"";"";"";"-7.6591457";"110.8343801";"https://maps.google.com/?cid=0x0:0xecac7b6b2b437f6c";""
"komplek housing";"Pembangunan Perumahan";"Budi home";"8RQM+RMX, Gg. Suparlan, RT.3,Rw1/RW.Dimpilan, Gabusan, Jombor, Kec. Bendosari, Kabupaten Sukoharjo, Jawa Tengah 57521";"Gg. Suparlan, RT.3,Rw1/RW.Dimpilan, Gabusan, Jombor, Kec. Bendosari, Kabupaten Sukoharjo";"JAWA TENGAH";"57521";"Indonesia";"";"";"";"-7.6603943";"110.8342325";"https://maps.google.com/?cid=0x0:0x8c151cedb37ccbd2";""
"komplek housing";"Komplek perumahan";"Rumah Ehandoko";"8RPQ+2PR, Jl. Griya Teratai Permai, Gadingan, Jombor, Kec. Bendosari, Kabupaten Sukoharjo, Jawa Tengah 57521";"Jl. Griya Teratai Permai, Gadingan, Jombor, Kec. Bendosari, Kabupaten Sukoharjo";"JAWA TENGAH";"57521";"Indonesia";"";"";"";"-7.6648942";"110.8392674";"https://maps.google.com/?cid=0x0:0xd76ce76cb1510f2d";""
"komplek housing";"Komplek perumahan";"Zahra Zainul";"8VH2+22W, Toriyo, Kec. Bendosari, Kabupaten Sukoharjo, Jawa Tengah";"Kabupaten Sukoharjo, Jawa Tengah";"JAWA TENGAH";"";"Indonesia";"";"";"";"-7.6723997";"110.8500802";"https://maps.google.com/?cid=0x0:0x915bcd6162306824";""
"komplek housing";"Komplek perumahan";"KOS HUSNA (khusus putri)";"8RQP+X82, Jl. Wonogiri - Sukoharjo, Solo, Sidorejo, Kec. Bendosari, Kabupaten Sukoharjo, Jawa Tengah 57521";"Jl. Wonogiri - Sukoharjo, Solo, Sidorejo, Kec. Bendosari, Kabupaten Sukoharjo";"JAWA TENGAH";"57521";"Indonesia";"";"";"";"-7.6600543";"110.8358654";"https://maps.google.com/?cid=0x0:0x739c288115b92689";""
"komplek housing";"Komplek perumahan";"Omah Teduh";"8RFW+VM4, Gg. Uranus, Gadingan, Jombor, Kec. Bendosari, Kabupaten Sukoharjo, Jawa Tengah 57521";"Gg. Uranus, Gadingan, Jombor, Kec. Bendosari, Kabupaten Sukoharjo";"JAWA TENGAH";"57521";"Indonesia";"";"";"";"-7.6757723";"110.8465409";"https://maps.google.com/?cid=0x0:0xfbbd76df67496356";""
"komplek housing";"Perumahan";"Sri Widodo";"Jombor Permai No.blok A13, Gadingan, Jombor, Bendosari, Sukoharjo Regency, Central Java 57521";"Gadingan, Jombor, Bendosari, Sukoharjo Regency";"JAWA TENGAH";"57521";"Indonesia";"";"";"";"-7.665698";"110.8393468";"https://maps.google.com/?cid=0x0:0x2ebbad96c585627f";""
"komplek housing";"Perhimpunan Pengembang Perumahan";"Yoga Home";"8VF2+9W3, Toriyo, Kec. Bendosari, Kabupaten Sukoharjo, Jawa Tengah 57528";"Toriyo, Kec. Bendosari, Kabupaten Sukoharjo";"JAWA TENGAH";"57528";"Indonesia";"";"";"";"-7.6766115";"110.8523119";"https://maps.google.com/?cid=0x0:0x2b3ca9150abf09a4";""
"komplek housing";"Komplek perumahan";"Rumah pak sigit";"8RHW+56V, Gadingan, Jombor, Kec. Bendosari, Kabupaten Sukoharjo, Jawa Tengah 57521";"Gadingan, Jombor, Kec. Bendosari, Kabupaten Sukoharjo";"JAWA TENGAH";"57521";"Indonesia";"";"";"";"-7.67207";"110.8455147";"https://maps.google.com/?cid=0x0:0x421532c4b3ea3a87";""
"komplek housing";"Pembangunan Perumahan";"Home Yusuf";"8RGR+9PG, Gadingan, Jombor, Kec. Bendosari, Kabupaten Sukoharjo, Jawa Tengah 57521";"Gadingan, Jombor, Kec. Bendosari, Kabupaten Sukoharjo";"JAWA TENGAH";"57521";"Indonesia";"";"";"";"-7.6737888";"110.842547";"https://maps.google.com/?cid=0x0:0xe16f9a01364715b4";""
"komplek housing";"Pembangunan Perumahan";"Griya Almas Residence";"8RPM+3F6, Jl. Abu Tholib Sastrotenoyo, walang, Jombor, Kec. Bendosari, Kabupaten Sukoharjo, Jawa Tengah 57521";"Jl. Abu Tholib Sastrotenoyo, walang, Jombor, Kec. Bendosari, Kabupaten Sukoharjo";"JAWA TENGAH";"57521";"Indonesia";"";"";"";"-7.6648372";"110.8336359";"https://maps.google.com/?cid=0x0:0xa3efb455fd27390e";""
"komplek housing";"Komplek perumahan";"Kos";"8RMP+247, Gabusan, Jombor, Kec. Bendosari, Kabupaten Sukoharjo, Jawa Tengah 57521";"Gabusan, Jombor, Kec. Bendosari, Kabupaten Sukoharjo";"JAWA TENGAH";"57521";"Indonesia";"";"";"";"-7.6674654";"110.8352863";"https://maps.google.com/?cid=0x0:0x7a098d8b61fbca8d";""
"komplek housing";"Komplek perumahan";"Razino B8";"Jl. Letjend Sujono Humardani No.B8, Gabahan, Jombor, Kec. Bendosari, Kabupaten Sukoharjo, Jawa Tengah 57521";"Gabahan, Jombor, Kec. Bendosari, Kabupaten Sukoharjo";"JAWA TENGAH";"57521";"Indonesia";"";"";"";"-7.6677375";"110.8434238";"https://maps.google.com/?cid=0x0:0x7a84121b25c31f1c";""
"komplek housing";"komplek housing";"Jawa Tengah 57521";"Jombor, Kec. Bendosari, Kabupaten Sukoharjo, Jawa Tengah";"Kabupaten Sukoharjo, Jawa Tengah";"JAWA TENGAH";"";"Indonesia";"";"";"";"-7.6718461";"110.8463512";"https://maps.google.com/?cid=0x0:0x1c00c5eb5b53d400";""
"komplek housing";"Komplek perumahan";"nurul saidah";"Unnamed Road, Ngemul rt3/1, Ngemul, Sidorejo, Kec. Bendosari, Kabupaten Sukoharjo, Jawa Tengah 57527";"Ngemul rt3/1, Ngemul, Sidorejo, Kec. Bendosari, Kabupaten Sukoharjo";"JAWA TENGAH";"57527";"Indonesia";"";"";"";"-7.6574764";"110.8529881";"https://maps.google.com/?cid=0x0:0xcfc764c54618336b";""
"komplek housing";"Komplek perumahan";"Perum Griya Sakinah Jombor";"8RFV+HMR, Gadingan, Jombor, Kec. Bendosari, Kabupaten Sukoharjo, Jawa Tengah";"Kabupaten Sukoharjo, Jawa Tengah";"JAWA TENGAH";"";"Indonesia";"";"";"";"-7.6755361";"110.8443092";"https://maps.google.com/?cid=0x0:0x32e2e102e687c25a";""
"komplek housing";"Komplek perumahan";"Rumah Mbak Nitta";"Jl. Calen I No.19, Gabusan, Jombor, Kec. Bendosari, Kabupaten Sukoharjo, Jawa Tengah 57521";"Gabusan, Jombor, Kec. Bendosari, Kabupaten Sukoharjo";"JAWA TENGAH";"57521";"Indonesia";"";"";"";"-7.6694066";"110.8365751";"https://maps.google.com/?cid=0x0:0x2d4b2566fc8caf0a";""
"komplek housing";"Komplek perumahan";"Mbah Warno House";"8RGW+9V4, Jl. Hanton 1, Gadingan, Jombor, Kec. Bendosari, Kabupaten Sukoharjo, Jawa Tengah 57521";"Jl. Hanton 1, Gadingan, Jombor, Kec. Bendosari, Kabupaten Sukoharjo";"JAWA TENGAH";"57521";"Indonesia";"";"";"";"-7.6741158";"110.8472173";"https://maps.google.com/?cid=0x0:0x6234525a014ad3bc";""
"komplek housing";"Ruang berkarya";"Griya Teratai Permai ( GTP )";"8RMQ+JJG, Jl. Letjend Sujono Humardani, Gadingan, Jombor, Kec. Bendosari, Kabupaten Sukoharjo, Jawa Tengah 57521";"Jl. Letjend Sujono Humardani, Gadingan, Jombor, Kec. Bendosari, Kabupaten Sukoharjo";"JAWA TENGAH";"57521";"Indonesia";"";"";"";"-7.665942";"110.8390804";"https://maps.google.com/?cid=0x0:0xe1c605112f5ea4cb";""
"komplek housing";"Komplek perumahan";"Omah e pas iki";"8RHR+XMR, Gadingan, Jombor, Kec. Bendosari, Kabupaten Sukoharjo, Jawa Tengah 57521";"Gadingan, Jombor, Kec. Bendosari, Kabupaten Sukoharjo";"JAWA TENGAH";"57521";"Indonesia";"";"";"";"-7.6700013";"110.8416653";"https://maps.google.com/?cid=0x0:0x59cc21b4de2732";""
"komplek housing";"Komplek perumahan";"Aris Candra Home";"8RHV+7M3, Gadingan, Jombor, Kec. Bendosari, Kabupaten Sukoharjo, Jawa Tengah 57521";"Gadingan, Jombor, Kec. Bendosari, Kabupaten Sukoharjo";"JAWA TENGAH";"57521";"Indonesia";"";"";"";"-7.6718611";"110.8441835";"https://maps.google.com/?cid=0x0:0xdecbdb456aff9949";""
"komplek housing";"Komplek perumahan";"Dina house";"8RHX+2W5, Toriyo, Kec. Bendosari, Kabupaten Sukoharjo, Jawa Tengah 57521";"Toriyo, Kec. Bendosari, Kabupaten Sukoharjo";"JAWA TENGAH";"57521";"Indonesia";"";"";"";"-7.672554";"110.849993";"https://maps.google.com/?cid=0x0:0x199181647d8c08d1";""
"komplek housing";"Komplek perumahan";"Rumah shinta";"Jl. Jend. Sudirman No.190, Ngepeng, Jombor, Kec. Bendosari, Kabupaten Sukoharjo, Jawa Tengah 57521";"Ngepeng, Jombor, Kec. Bendosari, Kabupaten Sukoharjo";"JAWA TENGAH";"57521";"Indonesia";"";"";"";"-7.6706071";"110.8390092";"https://maps.google.com/?cid=0x0:0x236516e368b78423";""
"komplek housing";"Komplek perumahan";"ISNA House";"Ngaglik, RT.02/RW.07, Sidorejo, Bendosari, Sukoharjo Regency, Central Java 57527";"RT.02/RW.07, Sidorejo, Bendosari, Sukoharjo Regency";"JAWA TENGAH";"57527";"Indonesia";"";"";"";"-7.650028";"110.8335535";"https://maps.google.com/?cid=0x0:0x2e65b5ccda1e5f65";""
"komplek housing";"Kompleks Apartemen";"𝔓𝔢𝔯𝔲𝔪𝔞𝔥𝔞𝔫 𝔊𝔯𝔢𝔢𝔫 ℜ𝔬𝔶𝔞𝔩 ℜ𝔢𝔰𝔦𝔡𝔢𝔫𝔠𝔢 𝔖𝔦𝔡𝔬𝔯𝔢𝔧𝔬,";"8VQ4+696, Cendana, Sugihan, Kec. Bendosari, Kabupaten Sukoharjo, Jawa Tengah 57527";"Cendana, Sugihan, Kec. Bendosari, Kabupaten Sukoharjo";"JAWA TENGAH";"57527";"Indonesia";"";"";"";"-7.661955";"110.8558391";"https://maps.google.com/?cid=0x0:0x7203a7f60dd0235";""
"komplek housing";"Komplek perumahan";"kos depan las";"8RMV+8W9, Gadingan, Jombor, Kec. Bendosari, Kabupaten Sukoharjo, Jawa Tengah";"Kabupaten Sukoharjo, Jawa Tengah";"JAWA TENGAH";"";"Indonesia";"";"";"";"-7.6667194";"110.8448635";"https://maps.google.com/?cid=0x0:0x4e96ec787b1a85b0";""
"komplek housing";"Komplek perumahan";"nurul saidah";"Unnamed Road, Ngemul rt3/1, Ngemul, Sidorejo, Kec. Bendosari, Kabupaten Sukoharjo, Jawa Tengah 57527";"Ngemul rt3/1, Ngemul, Sidorejo, Kec. Bendosari, Kabupaten Sukoharjo";"JAWA TENGAH";"57527";"Indonesia";"";"";"";"-7.6574764";"110.8529881";"https://maps.google.com/?cid=0x0:0xcfc764c54618336b";""
"komplek housing";"Komplek perumahan";"Home 1987";"Ngemul RT 3, RW.2, Sidorejo, Kec. Bendosari, Kabupaten Sukoharjo, Jawa Tengah 57527";"RW.2, Sidorejo, Kec. Bendosari, Kabupaten Sukoharjo";"JAWA TENGAH";"57527";"Indonesia";"";"";"";"-7.6552565";"110.8528017";"https://maps.google.com/?cid=0x0:0xf522820bb46265f2";""
"komplek housing";"Komplek perumahan";"𝐑𝐮𝐦𝐚𝐡 Nana";"8VQ4+696, Cendana, Sugihan, Kec. Bendosari, Kabupaten Sukoharjo, Jawa Tengah 57527";"Cendana, Sugihan, Kec. Bendosari, Kabupaten Sukoharjo";"JAWA TENGAH";"57527";"Indonesia";"";"";"";"-7.661919";"110.855868";"https://maps.google.com/?cid=0x0:0x84daed6ff9408e90";""
"komplek housing";"Komplek perumahan";"Rumah Muchlis Endras";"8RWQ+64P, Ngepeng, Sidorejo, Kec. Bendosari, Kabupaten Sukoharjo, Jawa Tengah 57527";"Ngepeng, Sidorejo, Kec. Bendosari, Kabupaten Sukoharjo";"JAWA TENGAH";"57527";"Indonesia";"";"";"";"-7.6544576";"110.8378252";"https://maps.google.com/?cid=0x0:0x1f9f6bfe32a22dfc";""
"komplek housing";"Perhimpunan Pengembang Perumahan";"Keluarga bagio";"8RWM+W2R, Jl. Wonogiri - Sukoharjo, Ngepeng, Sidorejo, Kec. Bendosari, Kabupaten Sukoharjo, Jawa Tengah 57527";"Jl. Wonogiri - Sukoharjo, Ngepeng, Sidorejo, Kec. Bendosari, Kabupaten Sukoharjo";"JAWA TENGAH";"57527";"Indonesia";"";"";"";"-7.652382";"110.8324941";"https://maps.google.com/?cid=0x0:0xdba12ecda15c1575";""
"komplek housing";"Komplek perumahan";"Nuur faizah";"Ngemul rt3/1, Ngemul, Sidorejo, Kec. Bendosari, Kabupaten Sukoharjo, Jawa Tengah 57527";"Ngemul, Sidorejo, Kec. Bendosari, Kabupaten Sukoharjo";"JAWA TENGAH";"57527";"Indonesia";"";"";"";"-7.6571048";"110.853233";"https://maps.google.com/?cid=0x0:0x1ce73858738963d";""
"komplek housing";"Komplek perumahan";"Rumah kiki";"8RPQ+VW4, Sidorejo, Kec. Bendosari, Kabupaten Sukoharjo, Jawa Tengah 57527";"Sidorejo, Kec. Bendosari, Kabupaten Sukoharjo";"JAWA TENGAH";"57527";"Indonesia";"";"";"";"-7.6628615";"110.8397508";"https://maps.google.com/?cid=0x0:0x6ed542c011c0696a";""
"komplek housing";"Komplek perumahan";"gunawan house";"8VV2+CG7, Ngemul, Sidorejo, Kec. Bendosari, Kabupaten Sukoharjo, Jawa Tengah 57527";"Ngemul, Sidorejo, Kec. Bendosari, Kabupaten Sukoharjo";"JAWA TENGAH";"57527";"Indonesia";"";"";"";"-7.656791";"110.850919";"https://maps.google.com/?cid=0x0:0xb7a9d23bc0c7a8b2";""
"komplek housing";"Komplek perumahan";"Home Merlika";"Dompilan, RT.1/RW.9, Sidorejo, Kec. Bendosari, Kabupaten Sukoharjo, Jawa Tengah";"Kabupaten Sukoharjo, Jawa Tengah";"JAWA TENGAH";"";"Indonesia";"";"";"";"-7.6577206";"110.8351616";"https://maps.google.com/?cid=0x0:0x9778797423ab8ad0";""
"komplek housing";"Komplek perumahan";"Rumah Icha, ifa, ila";"8RJV+8H6, Gabahan, Jombor, Kec. Bendosari, Kabupaten Sukoharjo, Jawa Tengah 57521";"Gabahan, Jombor, Kec. Bendosari, Kabupaten Sukoharjo";"JAWA TENGAH";"57521";"Indonesia";"";"";"";"-7.6692026";"110.8438798";"https://maps.google.com/?cid=0x0:0x8a57853056263446";""
"komplek housing";"Komplek perumahan";"Rumah Ehandoko";"8RPQ+2PR, Jl. Griya Teratai Permai, Gadingan, Jombor, Kec. Bendosari, Kabupaten Sukoharjo, Jawa Tengah 57521";"Jl. Griya Teratai Permai, Gadingan, Jombor, Kec. Bendosari, Kabupaten Sukoharjo";"JAWA TENGAH";"57521";"Indonesia";"";"";"";"-7.6648942";"110.8392674";"https://maps.google.com/?cid=0x0:0xd76ce76cb1510f2d";""
"komplek housing";"Komplek perumahan";"Dian’s House";"8RVP+955, Jl. Puri Lestari Blok E5, Sidorejo, Kec. Bendosari, Kabupaten Sukoharjo, Jawa Tengah 57527";"Jl. Puri Lestari Blok E5, Sidorejo, Kec. Bendosari, Kabupaten Sukoharjo";"JAWA TENGAH";"57527";"Indonesia";"";"";"";"-7.6565048";"110.8354237";"https://maps.google.com/?cid=0x0:0xa6386acf968bbc79";""
"komplek housing";"Komplek perumahan";"dehan";"Jl. Wisma ll No.1, Sugihan, Gentan, Kec. Bendosari, Kabupaten Sukoharjo, Jawa Tengah 57528";"Sugihan, Gentan, Kec. Bendosari, Kabupaten Sukoharjo";"JAWA TENGAH";"57528";"Indonesia";"";"";"";"-7.6483506";"110.8552919";"https://maps.google.com/?cid=0x0:0xc8e58aa9b27eab3a";""
"komplek housing";"Komplek perumahan";"Rumah Nana ( Pembayaran Listrik)";"8VH3+4GP, RT.02/RW.02, Toriyo, Kec. Bendosari, Kabupaten Sukoharjo, Jawa Tengah";"Kabupaten Sukoharjo, Jawa Tengah";"JAWA TENGAH";"";"Indonesia";"";"";"";"-7.6721661";"110.8538345";"https://maps.google.com/?cid=0x0:0x3210d237db9a6668";""
"komplek housing";"Pembangunan Perumahan";"Budi home";"8RQM+RMX, Gg. Suparlan, RT.3,Rw1/RW.Dimpilan, Gabusan, Jombor, Kec. Bendosari, Kabupaten Sukoharjo, Jawa Tengah 57521";"Gg. Suparlan, RT.3,Rw1/RW.Dimpilan, Gabusan, Jombor, Kec. Bendosari, Kabupaten Sukoharjo";"JAWA TENGAH";"57521";"Indonesia";"";"";"";"-7.6603943";"110.8342325";"https://maps.google.com/?cid=0x0:0x8c151cedb37ccbd2";""
"komplek housing";"Komplek perumahan";"Rumah Edi";"8RRR+VV2 Ds.Krangkeng, RT.:001/Rw:004, Sidorejo, Kec. Bendosari, Kabupaten Sukoharjo, Jawa Tengah";"Kabupaten Sukoharjo, Jawa Tengah";"JAWA TENGAH";"";"Indonesia";"";"";"";"-7.6578682";"110.8421328";"https://maps.google.com/?cid=0x0:0x30171b99e016d7bd";""
"komplek housing";"komplek housing";"Jawa Tengah 57527";"Sidorejo, Kec. Bendosari, Kabupaten Sukoharjo, Jawa Tengah";"Kabupaten Sukoharjo, Jawa Tengah";"JAWA TENGAH";"";"Indonesia";"";"";"";"-7.656481";"110.8463512";"https://maps.google.com/?cid=0x0:0x1c00c5eb5b53d460";""
"komplek housing";"Perhimpunan Pengembang Perumahan";"Yoga Home";"8VF2+9W3, Toriyo, Kec. Bendosari, Kabupaten Sukoharjo, Jawa Tengah 57528";"Toriyo, Kec. Bendosari, Kabupaten Sukoharjo";"JAWA TENGAH";"57528";"Indonesia";"";"";"";"-7.6766115";"110.8523119";"https://maps.google.com/?cid=0x0:0x2b3ca9150abf09a4";""
"komplek housing";"Pembangunan Perumahan";"Rumah Shaddam";"8VW6+9RG, Sugihan, Gentan, Kec. Bendosari, Kabupaten Sukoharjo, Jawa Tengah 57528";"Sugihan, Gentan, Kec. Bendosari, Kabupaten Sukoharjo";"JAWA TENGAH";"57528";"Indonesia";"";"";"";"-7.6540559";"110.862083";"https://maps.google.com/?cid=0x0:0xfcb7a4e740dff2bb";""
"komplek housing";"Komplek perumahan";"zhar_iman";"9V35+JXQ, Sugihan, Gentan, Kec. Bendosari, Kabupaten Sukoharjo, Jawa Tengah 57528";"Sugihan, Gentan, Kec. Bendosari, Kabupaten Sukoharjo";"JAWA TENGAH";"57528";"Indonesia";"";"";"";"-7.6459135";"110.8599693";"https://maps.google.com/?cid=0x0:0x3e9888c30ed2d636";""
"komplek housing";"Komplek perumahan";"Home ulya";"Perumahan pondok baru permai No.23, Gabusan, Bulakrejo, Kec. Bendosari, Kabupaten Sukoharjo, Jawa Tengah 57551";"Gabusan, Bulakrejo, Kec. Bendosari, Kabupaten Sukoharjo";"JAWA TENGAH";"57551";"Indonesia";"";"";"";"-7.661563";"110.8309047";"https://maps.google.com/?cid=0x0:0x892be14a0fb3ec99";""
"komplek housing";"Taman";"Rumah";"Grand Sakinah Residence No.26, Ngepeng, Sidorejo, Kec. Bendosari, Kabupaten Sukoharjo, Jawa Tengah 57527";"Ngepeng, Sidorejo, Kec. Bendosari, Kabupaten Sukoharjo";"JAWA TENGAH";"57527";"Indonesia";"";"";"";"-7.6464057";"110.8322537";"https://maps.google.com/?cid=0x0:0xa2fea74f26d93d7e";""
"komplek housing";"Komplek perumahan";"Nizam house";"8RQP+WJ7, Sidorejo, Kec. Bendosari, Kabupaten Sukoharjo, Jawa Tengah 57527";"Sidorejo, Kec. Bendosari, Kabupaten Sukoharjo";"JAWA TENGAH";"57527";"Indonesia";"";"";"";"-7.660214";"110.8365526";"https://maps.google.com/?cid=0x0:0x489ea2ba72799ee5";""
"komplek housing";"Komplek perumahan";"Perum Blok B no 4";"8RVX+FF5, Sidorejo, Kec. Bendosari, Kabupaten Sukoharjo, Jawa Tengah 57527";"Sidorejo, Kec. Bendosari, Kabupaten Sukoharjo";"JAWA TENGAH";"57527";"Indonesia";"";"";"";"-7.65778";"110.84932";"https://maps.google.com/?cid=0x0:0xa0e2f8fdf195be2f";""
"komplek housing";"Komplek perumahan";"Talijiwo";"8RVP+955, Sidorejo, Kec. Bendosari, Kabupaten Sukoharjo, Jawa Tengah 57527";"Sidorejo, Kec. Bendosari, Kabupaten Sukoharjo";"JAWA TENGAH";"57527";"Indonesia";"";"";"";"-7.6565961";"110.8354794";"https://maps.google.com/?cid=0x0:0x73e8c7458eef497e";""
"komplek housing";"Komplek perumahan";"Rumah saya";"8RXM+JH4, Ngepeng, Sidorejo, Kec. Bendosari, Kabupaten Sukoharjo, Jawa Tengah 57527";"Ngepeng, Sidorejo, Kec. Bendosari, Kabupaten Sukoharjo";"JAWA TENGAH";"57527";"Indonesia";"";"";"";"-7.6509898";"110.8339476";"https://maps.google.com/?cid=0x0:0x69c7a63928f45c39";""
"komplek housing";"Komplek perumahan";"Rumah Sari";"Jl. Tengklik No.rt02/07, Pencil, Manisharjo, Kec. Bendosari, Kabupaten Sukoharjo, Jawa Tengah 57528";"Pencil, Manisharjo, Kec. Bendosari, Kabupaten Sukoharjo";"JAWA TENGAH";"57528";"Indonesia";"";"";"";"-7.7133878";"110.9071913";"https://maps.google.com/?cid=0x0:0x6e04f365a8fe615d";""
"komplek housing";"Komplek perumahan";"Rumah Yudhianto";"7VWG+J9J, Rejosari, RT.01/RW.04, Jagan, Kec. Bendosari, Kabupaten Sukoharjo, Jawa Tengah 57528";"Rejosari, RT.01/RW.04, Jagan, Kec. Bendosari, Kabupaten Sukoharjo";"JAWA TENGAH";"57528";"Indonesia";"";"";"";"-7.7034044";"110.8758881";"https://maps.google.com/?cid=0x0:0x5d14f76ab4193606";""
"komplek housing";"Komplek perumahan";"YD2GDR";"8V2F+JW8, Pojok, Mulur, Kec. Bendosari, Kabupaten Sukoharjo, Jawa Tengah 57528";"Pojok, Mulur, Kec. Bendosari, Kabupaten Sukoharjo";"JAWA TENGAH";"57528";"Indonesia";"";"";"";"-7.6984382";"110.8748089";"https://maps.google.com/?cid=0x0:0xeb14b85f8f10eb6b";""
"komplek housing";"Komplek perumahan";"Rumah gendut";"8W37+H2R, Sambilutung, Mojorejo, Kec. Bendosari, Kabupaten Sukoharjo, Jawa Tengah 57528";"Sambilutung, Mojorejo, Kec. Bendosari, Kabupaten Sukoharjo";"JAWA TENGAH";"57528";"Indonesia";"";"";"";"-7.6960009";"110.9125041";"https://maps.google.com/?cid=0x0:0x71a68675dae5f8d4";""
"komplek housing";"Komplek perumahan";"Rumah Mbah Dewo";"8V5X+WX2, Badran, Mertan, Kec. Bendosari, Kabupaten Sukoharjo, Jawa Tengah 57528";"Badran, Mertan, Kec. Bendosari, Kabupaten Sukoharjo";"JAWA TENGAH";"57528";"Indonesia";"";"";"";"-7.6902458";"110.8999004";"https://maps.google.com/?cid=0x0:0x1f196c51f77da92";""
"komplek housing";"Komplek perumahan";"YuHe";"Jl. Sugihan - Karanganyar, Mertan, Kec. Bendosari, Kabupaten Sukoharjo, Jawa Tengah 57528";"Mertan, Kec. Bendosari, Kabupaten Sukoharjo";"JAWA TENGAH";"57528";"Indonesia";"";"";"";"-7.6791592";"110.8856127";"https://maps.google.com/?cid=0x0:0x9bd184305c450315";""
"komplek housing";"Komplek perumahan";"Rumah Bp. Suyatno";"7VVV+753, Satu, Jagan, Kec. Bendosari, Kabupaten Sukoharjo, Jawa Tengah 57528";"Satu, Jagan, Kec. Bendosari, Kabupaten Sukoharjo";"JAWA TENGAH";"57528";"Indonesia";"";"";"";"-7.7068635";"110.8929072";"https://maps.google.com/?cid=0x0:0x6e93d02492fb7100";""
"komplek housing";"Komplek perumahan";"Suparmin Kepala Desa Bendosari";"8W6C+63J, Plimbangan, Bendosari, Kec. Bendosari, Kabupaten Sukoharjo, Jawa Tengah 57528";"Plimbangan, Bendosari, Kec. Bendosari, Kabupaten Sukoharjo";"JAWA TENGAH";"57528";"Indonesia";"";"";"";"-7.6893376";"110.9201891";"https://maps.google.com/?cid=0x0:0x961e0dec809af038";""
"komplek housing";"Komplek perumahan";"Gunawan Family";"8V2H+X9Q, Dondong, Mulur, Kec. Bendosari, Kabupaten Sukoharjo, Jawa Tengah 57528";"Dondong, Mulur, Kec. Bendosari, Kabupaten Sukoharjo";"JAWA TENGAH";"57528";"Indonesia";"";"";"";"-7.6975498";"110.8784843";"https://maps.google.com/?cid=0x0:0xc00b94e55f394396";""
"komplek housing";"Komplek perumahan";"RumahDepinbagusdw";"8V8J+47X, Mertan, Kec. Bendosari, Kabupaten Sukoharjo, Jawa Tengah 57528";"Mertan, Kec. Bendosari, Kabupaten Sukoharjo";"JAWA TENGAH";"57528";"Indonesia";"";"";"";"-7.6846346";"110.8807347";"https://maps.google.com/?cid=0x0:0xd49c61d42794a0bd";""
"komplek housing";"Komplek perumahan";"Rumah mas hanafi";"Bendungan, Mulur, Kec. Bendosari, Kabupaten Sukoharjo, Jawa Tengah 57528";"Mulur, Kec. Bendosari, Kabupaten Sukoharjo";"JAWA TENGAH";"57528";"Indonesia";"";"";"";"-7.7000926";"110.8743436";"https://maps.google.com/?cid=0x0:0xf08b4f1c2697f7c3";""
"komplek housing";"Pembangunan Perumahan";"Cheryn";"8V89+P53, Toriyo, Kec. Bendosari, Kabupaten Sukoharjo, Jawa Tengah 57528";"Toriyo, Kec. Bendosari, Kabupaten Sukoharjo";"JAWA TENGAH";"57528";"Indonesia";"";"";"";"-7.6832327";"110.8679325";"https://maps.google.com/?cid=0x0:0xbb0b366b9dfe1294";""
"komplek housing";"Komplek perumahan";"Rumah Yuni";"Jl. Sugihan, Mertan, Kec. Bendosari, Kabupaten Sukoharjo, Jawa Tengah 57528";"Mertan, Kec. Bendosari, Kabupaten Sukoharjo";"JAWA TENGAH";"57528";"Indonesia";"";"";"";"-7.6775377";"110.8941546";"https://maps.google.com/?cid=0x0:0xac47a5836bc2fd25";""
"komplek housing";"Pembangunan Perumahan";"Griya Pak D suroto";"8V58+V4G, Jatirejo, Mulur, Kec. Bendosari, Kabupaten Sukoharjo, Jawa Tengah 57528";"Jatirejo, Mulur, Kec. Bendosari, Kabupaten Sukoharjo";"JAWA TENGAH";"57528";"Indonesia";"";"";"";"-7.690304";"110.86532";"https://maps.google.com/?cid=0x0:0x46cfd6a203321dda";""
"komplek housing";"Komplek perumahan";"MbahModinVilageStay";"8W52+P5R, Badran, Mertan, Kec. Bendosari, Kabupaten Sukoharjo, Jawa Tengah 57528";"Badran, Mertan, Kec. Bendosari, Kabupaten Sukoharjo";"JAWA TENGAH";"57528";"Indonesia";"";"";"";"-7.6906441";"110.9003808";"https://maps.google.com/?cid=0x0:0xe08c5f1723bfd635";""
"komplek housing";"Komplek perumahan";"Rumah Mbah Loso";"Dusun Jagan. 79, Rt02, RW.01, Jagan, Kec. Bendosari, Kabupaten Sukoharjo, 57572";"Rt02, RW.01, Jagan, Kec. Bendosari";"JAWA TENGAH";"57572";"Indonesia";"";"";"";"-7.7007808";"110.8873495";"https://maps.google.com/?cid=0x0:0x60bc70830ce616a8";""
"komplek housing";"Pembangunan Perumahan";"Tasitu 02/V Mulur";"8V49+396, Tasitu, Mulur, Kec. Bendosari, Kabupaten Sukoharjo, Jawa Tengah 57528";"Tasitu, Mulur, Kec. Bendosari, Kabupaten Sukoharjo";"JAWA TENGAH";"57528";"Indonesia";"";"";"";"-7.69458";"110.867972";"https://maps.google.com/?cid=0x0:0x1de9c9e11ee98bea";""
"komplek housing";"komplek housing";"Rumah Pak Mujimin";"7WR4+8M8, Tungkluk, RT.01/RW.03, Tungkluk, Manisharjo, Kec. Bendosari, Kabupaten Sukoharjo, Jawa Tengah 57528";"Tungkluk, RT.01/RW.03, Tungkluk, Manisharjo, Kec. Bendosari, Kabupaten Sukoharjo";"JAWA TENGAH";"57528";"Indonesia";"";"";"";"-7.7092002";"110.9067078";"https://maps.google.com/?cid=0x0:0xca91a461e4fa8c1c";""
"komplek housing";"Komplek perumahan";"Rilz";"Rejosari, RT.02/RW.04, Dua, Jagan, Kabupaten Sukoharjo, Jawa Tengah 57528";"RT.02/RW.04, Dua, Jagan, Kabupaten Sukoharjo";"JAWA TENGAH";"57528";"Indonesia";"";"";"";"-7.7031403";"110.8758426";"https://maps.google.com/?cid=0x0:0x8a7428f7f4deb82b";""
"komplek housing";"komplek housing";"Jawa Tengah 57528";"Kec. Bendosari, Kabupaten Sukoharjo, Jawa Tengah";"Kabupaten Sukoharjo, Jawa Tengah";"JAWA TENGAH";"";"Indonesia";"";"";"";"-7.6977621";"110.8910556";"https://maps.google.com/?cid=0x0:0x1c00c5eb5b53d470";""
"komplek housing";"Perhimpunan Pengembang Perumahan";"S Family House";"8VQ7+RCQ, Sumedangan, Gentan, Kec. Bendosari, Kabupaten Sukoharjo, Jawa Tengah 57528";"Sumedangan, Gentan, Kec. Bendosari, Kabupaten Sukoharjo";"JAWA TENGAH";"57528";"Indonesia";"";"";"";"-7.6604204";"110.8636245";"https://maps.google.com/?cid=0x0:0x304857bc353b4d50";""
"komplek housing";"Perhimpunan Pengembang Perumahan";"Yoga Home";"8VF2+9W3, Toriyo, Kec. Bendosari, Kabupaten Sukoharjo, Jawa Tengah 57528";"Toriyo, Kec. Bendosari, Kabupaten Sukoharjo";"JAWA TENGAH";"57528";"Indonesia";"";"";"";"-7.6766115";"110.8523119";"https://maps.google.com/?cid=0x0:0x2b3ca9150abf09a4";""
"komplek housing";"Komplek perumahan";"Hanif Home";"8VG3+55W, Jl. Hanton 2, Toriyo, Kec. Bendosari, Kabupaten Sukoharjo, Jawa Tengah 57528";"Jl. Hanton 2, Toriyo, Kec. Bendosari, Kabupaten Sukoharjo";"JAWA TENGAH";"57528";"Indonesia";"";"";"";"-7.6745139";"110.8529406";"https://maps.google.com/?cid=0x0:0x28f2bce7fdb2116d";""
"komplek housing";"Pembangunan Perumahan";"Kediaman Sudarno Pawiro Diharjo";"8VV5+C48, Sumedangan, Gentan, Kec. Bendosari, Kabupaten Sukoharjo, Jawa Tengah 57528";"Sumedangan, Gentan, Kec. Bendosari, Kabupaten Sukoharjo";"JAWA TENGAH";"57528";"Indonesia";"";"";"";"-7.6564747";"110.8578281";"https://maps.google.com/?cid=0x0:0x9db7738b27a29092";""
"komplek housing";"Perhimpunan Pengembang Perumahan";"Sawah ISMIATI";"8RCX+8W5, Toriyo, Kec. Bendosari, Kabupaten Sukoharjo, Jawa Tengah 57528";"Toriyo, Kec. Bendosari, Kabupaten Sukoharjo";"JAWA TENGAH";"57528";"Indonesia";"";"";"";"-7.6790505";"110.8506212";"https://maps.google.com/?cid=0x0:0xa09da73571986ad3";""
"komplek housing";"Komplek perumahan";"Rmh bp.Tugiman,S.Pd.M.Pd";"8RFX+7GH, Toriyo, Kec. Bendosari, Kabupaten Sukoharjo, Jawa Tengah 57528";"Toriyo, Kec. Bendosari, Kabupaten Sukoharjo";"JAWA TENGAH";"57528";"Indonesia";"";"";"";"-7.6767266";"110.8486272";"https://maps.google.com/?cid=0x0:0x894ebe49acdb066a";""
"komplek housing";"Komplek perumahan";"Rumah srikuncoro dan sutarni";"8VJC+X3W, Siring, Sugihan, Kec. Bendosari, Kabupaten Sukoharjo, Jawa Tengah 57528";"Siring, Sugihan, Kec. Bendosari, Kabupaten Sukoharjo";"JAWA TENGAH";"57528";"Indonesia";"";"";"";"-7.667596";"110.8702248";"https://maps.google.com/?cid=0x0:0x937e752e226e9d2d";""
"komplek housing";"Komplek perumahan";"Surono Family";"Sugihan, Gentan, Kec. Bendosari, Kabupaten Sukoharjo, Jawa Tengah 57528";"Gentan, Kec. Bendosari, Kabupaten Sukoharjo";"JAWA TENGAH";"57528";"Indonesia";"";"";"";"-7.6516473";"110.8673162";"https://maps.google.com/?cid=0x0:0x51b852b6093cdce4";""
"komplek housing";"Komplek perumahan";"zhar_iman";"9V35+JXQ, Sugihan, Gentan, Kec. Bendosari, Kabupaten Sukoharjo, Jawa Tengah 57528";"Sugihan, Gentan, Kec. Bendosari, Kabupaten Sukoharjo";"JAWA TENGAH";"57528";"Indonesia";"";"";"";"-7.6459135";"110.8599693";"https://maps.google.com/?cid=0x0:0x3e9888c30ed2d636";""
"komplek housing";"Komplek perumahan";"Perumahan Karti Usada";"P478+FRG, Unnamed Road, Swatu, Campursari, Bulu, Temanggung Regency, Central Java 56253";"Unnamed Road, Swatu, Campursari, Bulu, Temanggung Regency";"JAWA TENGAH";"56253";"Indonesia";"";"";"";"-7.286306";"110.117081";"https://maps.google.com/?cid=0x0:0x2ea419bbc802a8ca";""
"komplek housing";"Komplek perumahan";"MD Home";"P45J+RRM, Wolodono, Bulu, Kec. Bulu, Kabupaten Temanggung, Jawa Tengah 56253";"Wolodono, Bulu, Kec. Bulu, Kabupaten Temanggung";"JAWA TENGAH";"56253";"Indonesia";"";"";"";"-7.2904177";"110.1320574";"https://maps.google.com/?cid=0x0:0x1efc3367c23c1898";""
"komplek housing";"Kompleks Kondominium";"Wolodono";"Temanggung - Pertigaan Bulu No.1-12, Wolodono, Bulu, Kec. Bulu, Kabupaten Temanggung, Jawa Tengah 56253";"Wolodono, Bulu, Kec. Bulu, Kabupaten Temanggung";"JAWA TENGAH";"56253";"Indonesia";"";"";"";"-7.2910722";"110.1318502";"https://maps.google.com/?cid=0x0:0x7dbe4d1a9584083a";""
"komplek housing";"Komplek perumahan";"Omah e Uzik";"P4CC+QVR, Tegalsari, Campursari, Kec. Bulu, Kabupaten Temanggung, Jawa Tengah 56253";"Tegalsari, Campursari, Kec. Bulu, Kabupaten Temanggung";"JAWA TENGAH";"56253";"Indonesia";"";"";"";"-7.2780231";"110.1221339";"https://maps.google.com/?cid=0x0:0x28f3033f59aa2914";""
"komplek housing";"Pembangunan Perumahan";"Cipling Home B.10";"M4PM+J3M, Sawah, Pandemulyo, Kec. Bulu, Kabupaten Temanggung, Jawa Tengah 56253";"Sawah, Pandemulyo, Kec. Bulu, Kabupaten Temanggung";"JAWA TENGAH";"56253";"Indonesia";"";"";"";"-7.3134014";"110.1326788";"https://maps.google.com/?cid=0x0:0xb91504e11ff1ba73";""
"komplek housing";"Komplek perumahan";"Kampong Sawah";"Jl. Temanggung Bulu No.184, Kauman, Ngimbrang, Kec. Bulu, Kabupaten Temanggung, Jawa Tengah 56253";"Kauman, Ngimbrang, Kec. Bulu, Kabupaten Temanggung";"JAWA TENGAH";"56253";"Indonesia";"";"";"";"-7.2981591";"110.1388598";"https://maps.google.com/?cid=0x0:0x7b147a8bbe56acba";""
"komplek housing";"Komplek perumahan";"kampung baru kwadungan";"M3GJ+CHP, Kwadungan, Wonotirto, Kec. Bulu, Kabupaten Temanggung, Jawa Tengah 56253";"Kwadungan, Wonotirto, Kec. Bulu, Kabupaten Temanggung";"JAWA TENGAH";"56253";"Indonesia";"";"";"";"-7.3239037";"110.0814429";"https://maps.google.com/?cid=0x0:0x61eb7f722ccd5a48";""
"komplek housing";"Komplek perumahan";"Rumah Pare Bulu";"M4XV+V88, Pare, Danupayan, Kec. Bulu, Kabupaten Temanggung, Jawa Tengah 56253";"Pare, Danupayan, Kec. Bulu, Kabupaten Temanggung";"JAWA TENGAH";"56253";"Indonesia";"";"";"";"-7.3003317";"110.1433327";"https://maps.google.com/?cid=0x0:0x65cb7c8d363b0609";""
"komplek housing";"Pembangunan Perumahan";"Tompak gandurejo bulu temanggung";"M3QW+5VM, Gandusari, Gandurejo, Kec. Bulu, Kabupaten Temanggung, Jawa Tengah";"Kabupaten Temanggung, Jawa Tengah";"JAWA TENGAH";"";"Indonesia";"";"";"";"-7.3120283";"110.0971565";"https://maps.google.com/?cid=0x0:0x159352faaba95717";""
"komplek housing";"Komplek perumahan";"Rumah";"M4PJ+PWG, Sawah, Pandemulyo, Kec. Bulu, Kabupaten Temanggung, Jawa Tengah 56253";"Sawah, Pandemulyo, Kec. Bulu, Kabupaten Temanggung";"JAWA TENGAH";"56253";"Indonesia";"";"";"";"-7.3131915";"110.1323142";"https://maps.google.com/?cid=0x0:0x40c764722869e835";""
"komplek housing";"Pembangunan Perumahan";"Sembawang Bumi Asri RT04 RW01";"Jl. Mayar Baru III, Sojaya, Campursari, Kec. Bulu, Kabupaten Temanggung, Jawa Tengah 56253";"Sojaya, Campursari, Kec. Bulu, Kabupaten Temanggung";"JAWA TENGAH";"56253";"Indonesia";" 085882698343";"";"";"-7.2841504";"110.1217";"https://maps.google.com/?cid=0x0:0xce08fd47cd41e168";""
"komplek housing";"Komplek perumahan";"Warehouse";"M4WC+8GF, Jetis, Pengilon, Kec. Bulu, Kabupaten Temanggung, Jawa Tengah 56253";"Jetis, Pengilon, Kec. Bulu, Kabupaten Temanggung";"JAWA TENGAH";"56253";"Indonesia";"";"";"";"-7.3042493";"110.1212123";"https://maps.google.com/?cid=0x0:0xb5566217f2f5ff09";""
"komplek housing";"Pembangunan Perumahan";"RumahQ Blok C17";"Bulu Permai, Blok C17, Sawah, Danupayan, Kec. Bulu, Kabupaten Temanggung, Jawa Tengah 56253";"Blok C17, Sawah, Danupayan, Kec. Bulu, Kabupaten Temanggung";"JAWA TENGAH";"56253";"Indonesia";"";"";"";"-7.3056513";"110.1501995";"https://maps.google.com/?cid=0x0:0x9b502e549d50c561";""
"komplek housing";"Komplek perumahan";"Rafayola 48";"P47C+742, Sojaya, Campursari, Kec. Bulu, Kabupaten Temanggung, Jawa Tengah 56253";"Sojaya, Campursari, Kec. Bulu, Kabupaten Temanggung";"JAWA TENGAH";"56253";"Indonesia";"";"";"";"-7.2868712";"110.1202633";"https://maps.google.com/?cid=0x0:0xfbed40243783fee5";""
"komplek housing";"Komplek perumahan";"Repto home";"M4XV+X68, Pare, Danupayan, Kec. Bulu, Kabupaten Temanggung, Jawa Tengah 56253";"Pare, Danupayan, Kec. Bulu, Kabupaten Temanggung";"JAWA TENGAH";"56253";"Indonesia";"";"";"";"-7.3000976";"110.1430675";"https://maps.google.com/?cid=0x0:0xcad6b1857b9b9d84";""
"komplek housing";"Komplek perumahan";"Home Ulfa";"M4W3+WXW, Salakan, Gondosuli, Kec. Bulu, Kabupaten Temanggung, Jawa Tengah 56253";"Salakan, Gondosuli, Kec. Bulu, Kabupaten Temanggung";"JAWA TENGAH";"56253";"Indonesia";"";"";"";"-7.3026473";"110.1049557";"https://maps.google.com/?cid=0x0:0x6189fad1eec5b638";""
"komplek housing";"Komplek perumahan";"Adi s";"M3FJ+WCW, Kwadungan, Wonotirto, Kec. Bulu, Kabupaten Temanggung, Jawa Tengah 56253";"Kwadungan, Wonotirto, Kec. Bulu, Kabupaten Temanggung";"JAWA TENGAH";"56253";"Indonesia";"";"";"";"-7.3251423";"110.081067";"https://maps.google.com/?cid=0x0:0x3f855379a5035b4a";""
"komplek housing";"Komplek perumahan";"Rumah";"M4V9+JQH, Mlarang, Pengilon, Kec. Bulu, Kabupaten Temanggung, Jawa Tengah 56253";"Mlarang, Pengilon, Kec. Bulu, Kabupaten Temanggung";"JAWA TENGAH";"56253";"Indonesia";"";"";"";"-7.3059402";"110.1194765";"https://maps.google.com/?cid=0x0:0x41a86ddf79c66997";""
"komplek housing";"Komplek perumahan";"SUPRIYADI ColT";"M3CP+CXC, RT.WunutRT.07/RW.01, Wunut, Wonotirto, Kec. Bulu, Kabupaten Temanggung, Jawa Tengah 56253";"RT.WunutRT.07/RW.01, Wunut, Wonotirto, Kec. Bulu, Kabupaten Temanggung";"JAWA TENGAH";"56253";"Indonesia";"";"";"";"-7.3289467";"110.0873812";"https://maps.google.com/?cid=0x0:0xe36ae255ef93582";""
"komplek housing";"komplek housing";"Jawa Tengah 56253";"Kabupaten Temanggung, Jawa Tengah";"Kabupaten Temanggung, Jawa Tengah";"JAWA TENGAH";"";"Indonesia";"";"";"";"-7.3263037";"110.1045229";"https://maps.google.com/?cid=0x0:0x1c00c5eb5b53c720";""
"komplek housing";"Komplek perumahan";"RUMAH HEKANSYAH";"M3GJ+5RX, Kwadungan, Wonotirto, Kec. Bulu, Kabupaten Temanggung, Jawa Tengah 56253";"Kwadungan, Wonotirto, Kec. Bulu, Kabupaten Temanggung";"JAWA TENGAH";"56253";"Indonesia";"";"";"";"-7.3245233";"110.0822675";"https://maps.google.com/?cid=0x0:0x218da165abed2666";""
"komplek housing";"Komplek perumahan";"Rumah Billi Home Sweet Home";"Tegalurung Rt06/Rw01, Tegallurung, Campursari, Kec. Bulu, Kabupaten Temanggung, Jawa Tengah 56253";"Tegallurung, Campursari, Kec. Bulu, Kabupaten Temanggung";"JAWA TENGAH";"56253";"Indonesia";"";"";"";"-7.2894945";"110.1174464";"https://maps.google.com/?cid=0x0:0xd93b9047af4f6471";""
"komplek housing";"komplek housing";"Kec. Bulu";"Kabupaten Temanggung, Jawa Tengah";"Kabupaten Temanggung, Jawa Tengah";"JAWA TENGAH";"";"Indonesia";"";"";"";"-7.3014756";"110.1066436";"https://maps.google.com/?cid=0x0:0x4027a76e352f4b0";""
"komplek housing";"Komplek perumahan";"Pondok Gede Housing 1";"Jl. Cipta Raya No.45-3, RT.001/RW.003, Jatirahayu, Kec. Pd. Melati, Kota Bks, Jawa Barat 17414";"RT.001/RW.003, Jatirahayu, Kec. Pd. Melati, Kota Bks";"JAWA TENGAH";"17414";"Indonesia";"";"";"";"-6.2852504";"106.9163397";"https://maps.google.com/?cid=0x0:0x3132afedbf38cd61";""
"komplek housing";"Otoritas Perumahan";"KTW Bougenville";"Ktw blok b10 No.21, Bahagia, Kec. Babelan, Kabupaten Bekasi, Jawa Barat 17610";"Bahagia, Kec. Babelan, Kabupaten Bekasi";"JAWA TENGAH";"17610";"Indonesia";"";"";"";"-6.1812202";"107.0142529";"https://maps.google.com/?cid=0x0:0x18588d4a16778c02";""
"komplek housing";"Toko";"Griya Asri Pamulang";"Griya asri pamulang, blok E No.3 no 31, Bakti Jaya, Kec. Setu, Kota Tangerang Selatan, Banten 15315";"blok E No.3 no 31, Bakti Jaya, Kec. Setu, Kota Tangerang Selatan";"JAWA TENGAH";"15315";"Indonesia";"";"";"";"-6.3579545";"106.7113797";"https://maps.google.com/?cid=0x0:0x74a39dd3161d1da9";""
"komplek housing";"Otoritas Perumahan";"Pondok Gede Permai";"Jl. Pondok Gede Permai, RT.009/RW.003, Jatirasa, Kec. Jatiasih, Bekasi Kota, Jawa Barat 17424";"RT.009/RW.003, Jatirasa, Kec. Jatiasih, Bekasi Kota";"JAWA TENGAH";"17424";"Indonesia";"";"";"";"-6.2982893";"106.9707439";"https://maps.google.com/?cid=0x0:0xfa7dc2055773ba94";""
"komplek housing";"Komplek perumahan";"Rumah Lubna";"6RVP+8Q7, Jl. Gempeng, Gempang, Bulu, Kec. Bulu, Kabupaten Sukoharjo, Jawa Tengah 57563";"Jl. Gempeng, Gempang, Bulu, Kec. Bulu, Kabupaten Sukoharjo";"JAWA TENGAH";"57563";"Indonesia";"";"";"";"-7.7567246";"110.8369349";"https://maps.google.com/?cid=0x0:0x81a325211b85ed00";""
"komplek housing";"Komplek perumahan";"Gubug LintangAya";"6RVP+HVJ, Jl. Dusun Jl. Gempeng, Gempeng, Bulu, Kec. Bulu, Kabupaten Sukoharjo, Jawa Tengah 57563";"Jl. Dusun Jl. Gempeng, Gempeng, Bulu, Kec. Bulu, Kabupaten Sukoharjo";"JAWA TENGAH";"57563";"Indonesia";"";"";"";"-7.7560483";"110.8371467";"https://maps.google.com/?cid=0x0:0x3603e317ebefcc3d";""
"komplek housing";"Komplek perumahan";"Rumah Ajeng";"7R6J+4MX, Ngasinan, Kec. Bulu, Kabupaten Sukoharjo, Jawa Tengah 57563";"Ngasinan, Kec. Bulu, Kabupaten Sukoharjo";"JAWA TENGAH";"57563";"Indonesia";"";"";"";"-7.7396428";"110.8317394";"https://maps.google.com/?cid=0x0:0x937565edc90cb832";""
"komplek housing";"Pembangunan Perumahan";"Rumah Agus Watik";"RT.02/RW.02, Dukuh kepuh, Kunden, Kec. Bulu, Kabupaten Sukoharjo, Jawa Tengah 57563";"Dukuh kepuh, Kunden, Kec. Bulu, Kabupaten Sukoharjo";"JAWA TENGAH";"57563";"Indonesia";"";"";"";"-7.7632732";"110.8137354";"https://maps.google.com/?cid=0x0:0xca06fc41387ea04f";""
"komplek housing";"Komplek perumahan";"Nabhan Home Desha";"Puthuk Mulworejo, Kamal, Kec. Bulu, Kabupaten Sukoharjo, Jawa Tengah 57563";"Kamal, Kec. Bulu, Kabupaten Sukoharjo";"JAWA TENGAH";"57563";"Indonesia";"";"";"";"-7.7755913";"110.8277721";"https://maps.google.com/?cid=0x0:0x14ba3457762be820";""
"komplek housing";"Perhimpunan Pengembang Perumahan";"Home";"7R4H+59X, Kedung Batang, Ngasinan, Kec. Bulu, Kabupaten Sukoharjo, Jawa Tengah";"Kabupaten Sukoharjo, Jawa Tengah";"JAWA TENGAH";"";"Indonesia";"";"";"";"-7.7445059";"110.8284698";"https://maps.google.com/?cid=0x0:0x9d6a16cf97c7ca89";""
"komplek housing";"Perhimpunan Pengembang Perumahan";"Kampung KB Pulo";"6RMR+P99, Sepat, Bulu, Kec. Bulu, Kabupaten Sukoharjo, Jawa Tengah 57563";"Sepat, Bulu, Kec. Bulu, Kabupaten Sukoharjo";"JAWA TENGAH";"57563";"Indonesia";"";"";"";"-7.7657016";"110.8409883";"https://maps.google.com/?cid=0x0:0xd68cfa5e35c173df";""
"komplek housing";"Perhimpunan Pengembang Perumahan";"Marmo The House";"Jalan Sumber Mulyo No.Rt 1/6, Dusun III, Puron, Kec. Bulu, Kabupaten Sukoharjo, Jawa Tengah 57563";"Dusun III, Puron, Kec. Bulu, Kabupaten Sukoharjo";"JAWA TENGAH";"57563";"Indonesia";" 0716122417";"";"";"-7.7578924";"110.8050197";"https://maps.google.com/?cid=0x0:0xe5b8b617ed971069";""
"komplek housing";"Pembangunan Perumahan";"Nay";"7R8C+FF6, Dusun II, Lengking, Kec. Bulu, Kabupaten Sukoharjo, Jawa Tengah 57563";"Dusun II, Lengking, Kec. Bulu, Kabupaten Sukoharjo";"JAWA TENGAH";"57563";"Indonesia";"";"";"";"-7.7338431";"110.8211393";"https://maps.google.com/?cid=0x0:0xfe3a3228a1684616";""
"komplek housing";"Komplek perumahan";"Home sweet home";"7R3Q+8J3 Kebon Arsen, Jl. Pagergunung, Kedung Batang, Ngasinan, Kec. Bulu, Kabupaten Sukoharjo, Jawa Tengah 57563";"Jl. Pagergunung, Kedung Batang, Ngasinan, Kec. Bulu, Kabupaten Sukoharjo";"JAWA TENGAH";"57563";"Indonesia";"";"";"";"-7.7474996";"110.8386766";"https://maps.google.com/?cid=0x0:0x77d998f98537a0c2";""
"komplek housing";"Pembangunan Perumahan";"DYSAN";"Mranggen, RT.02/RW.03, Malangan, Kec. Bulu, Kabupaten Sukoharjo, Jawa Tengah 57563";"RT.02/RW.03, Malangan, Kec. Bulu, Kabupaten Sukoharjo";"JAWA TENGAH";"57563";"Indonesia";"";"";"";"-7.7457772";"110.8051051";"https://maps.google.com/?cid=0x0:0x701a412120f10feb";""
"komplek housing";"Komplek perumahan";"GRIYO DZEMBLIZ";"7R4J+PC6, Kedung Batang, Ngasinan, Kec. Bulu, Kabupaten Sukoharjo, Jawa Tengah 57563";"Kedung Batang, Ngasinan, Kec. Bulu, Kabupaten Sukoharjo";"JAWA TENGAH";"57563";"Indonesia";"";"";"";"-7.7432045";"110.8310229";"https://maps.google.com/?cid=0x0:0xb6330ddab30fefbf";""
"komplek housing";"Komplek perumahan";"Dikromo's House";"7R6M+X5H, Jl. Prau, Ngasinan, Kec. Bulu, Kabupaten Sukoharjo, Jawa Tengah 57571";"Jl. Prau, Ngasinan, Kec. Bulu, Kabupaten Sukoharjo";"JAWA TENGAH";"57571";"Indonesia";"";"";"";"-7.7375594";"110.8329739";"https://maps.google.com/?cid=0x0:0x4179dedd81303a48";""
"komplek housing";"Komplek perumahan";"Badran";"6RJ5+JFQ, Dusun I, Kamal, Kec. Bulu, Kabupaten Sukoharjo, Jawa Tengah 57563";"Dusun I, Kamal, Kec. Bulu, Kabupaten Sukoharjo";"JAWA TENGAH";"57563";"Indonesia";"";"";"";"-7.768196";"110.808411";"https://maps.google.com/?cid=0x0:0x689f1864a3364e92";""
"komplek housing";"Perhimpunan Pengembang Perumahan";"Didik_Rodhiyah";"6RH8+MJV, Banaran, RT.01/RW.08, Bulu, Kec. Bulu, Kabupaten Sukoharjo, Jawa Tengah 57563";"Banaran, RT.01/RW.08, Bulu, Kec. Bulu, Kabupaten Sukoharjo";"JAWA TENGAH";"57563";"Indonesia";"";"";"";"-7.7707605";"110.816549";"https://maps.google.com/?cid=0x0:0x6642918220e7a309";""
"komplek housing";"Komplek perumahan";"Home";"7R72+HQF, Gatak, Malangan, Kec. Bulu, Kabupaten Sukoharjo, Jawa Tengah 57563";"Gatak, Malangan, Kec. Bulu, Kabupaten Sukoharjo";"JAWA TENGAH";"57563";"Indonesia";"";"";"";"-7.7368667";"110.8017349";"https://maps.google.com/?cid=0x0:0xbe58ee4407094c91";""
"komplek housing";"Komplek perumahan";"Suwardi P";"Pak Pelo, Dusun II, Kunden, Kec. Bulu, Kabupaten Sukoharjo, Jawa Tengah 57563";"Dusun II, Kunden, Kec. Bulu, Kabupaten Sukoharjo";"JAWA TENGAH";"57563";"Indonesia";"";"";"";"-7.7604996";"110.816549";"https://maps.google.com/?cid=0x0:0xe298ac5d0e3baebb";""
"komplek housing";"Komplek perumahan";"yanto ngesong";"6RM9+2F2, Dusun III, Kamal, Kec. Bulu, Kabupaten Sukoharjo, Jawa Tengah 57563";"Dusun III, Kamal, Kec. Bulu, Kabupaten Sukoharjo";"JAWA TENGAH";"57563";"Indonesia";" 081931646480";"";"";"-7.7674861";"110.8186443";"https://maps.google.com/?cid=0x0:0xad0ecc3489e15dd";""
"komplek housing";"Komplek perumahan";"Rumah juanda";"6RV4+7FQ, Jl. Margo Mulyo, Dusun III, Puron, Kec. Bulu, Kabupaten Sukoharjo, Jawa Tengah 57563";"Jl. Margo Mulyo, Dusun III, Puron, Kec. Bulu, Kabupaten Sukoharjo";"JAWA TENGAH";"57563";"Indonesia";"";"";"";"-7.7567975";"110.8062454";"https://maps.google.com/?cid=0x0:0x8ebcec0c7f1bfb85";""
"komplek housing";"komplek housing";"Jawa Tengah 57563";"Kec. Bulu, Kabupaten Sukoharjo, Jawa Tengah";"Kabupaten Sukoharjo, Jawa Tengah";"JAWA TENGAH";"";"Indonesia";"";"";"";"-7.7423957";"110.8195292";"https://maps.google.com/?cid=0x0:0x1c00c5eb5b53d640";""
"komplek housing";"komplek housing";"Bowo harni";"Bodeh, Gentan, Kec. Bulu, Kabupaten Sukoharjo, Jawa Tengah 57563";"Gentan, Kec. Bulu, Kabupaten Sukoharjo";"JAWA TENGAH";"57563";"Indonesia";"";"";"";"-7.7815986";"110.8371048";"https://maps.google.com/?cid=0x0:0xd88ef13dbc98591b";""
"komplek housing";"Komplek perumahan";"Griya Sunardi";"6VP6+JG4, Klile, Karangasem, Kec. Bulu, Kabupaten Sukoharjo, Jawa Tengah 57563";"Klile, Karangasem, Kec. Bulu, Kabupaten Sukoharjo";"JAWA TENGAH";"57563";"Indonesia";"";"";"";"-7.7634803";"110.8613416";"https://maps.google.com/?cid=0x0:0x446b76e6986fbf9f";""
"komplek housing";"Komplek perumahan";"WANTO";"Dranjang No.Rt01/06, Banjarsari, Sanggang, Kec. Bulu, Kabupaten Sukoharjo, Jawa Tengah 57563";"Banjarsari, Sanggang, Kec. Bulu, Kabupaten Sukoharjo";"JAWA TENGAH";"57563";"Indonesia";"";"";"";"-7.7938081";"110.8231584";"https://maps.google.com/?cid=0x0:0xaa5b97a1604638e";""
"komplek housing";"Komplek perumahan";"Oemah Mbah Wondo";"7R4R+FP9, Mloyo, Ngasinan, Kec. Bulu, Kabupaten Sukoharjo, Jawa Tengah 57563";"Mloyo, Ngasinan, Kec. Bulu, Kabupaten Sukoharjo";"JAWA TENGAH";"57563";"Indonesia";"";"";"";"-7.7437364";"110.8423791";"https://maps.google.com/?cid=0x0:0x1804afa27c74c33e";""
"komplek housing";"Komplek perumahan";"O'Mahe Tukiman";"6RV4+Q3G, Dusun III, Puron, Kec. Bulu, Kabupaten Sukoharjo, Jawa Tengah 57563";"Dusun III, Puron, Kec. Bulu, Kabupaten Sukoharjo";"JAWA TENGAH";"57563";"Indonesia";"";"";"";"-7.7554665";"110.8061168";"https://maps.google.com/?cid=0x0:0xa90c79b8b97d167c";""
"komplek housing";"Pembangunan Perumahan";"Rumah Rafisqi";"6RHF+92, Dusun III, Kamal, Kec. Bulu, Kabupaten Sukoharjo, Jawa Tengah 57563";"Dusun III, Kamal, Kec. Bulu, Kabupaten Sukoharjo";"JAWA TENGAH";"57563";"Indonesia";"";"";"";"-7.7717737";"110.8223503";"https://maps.google.com/?cid=0x0:0x16e07f077def85c5";""
"komplek housing";"Komplek perumahan";"Rumah";"6V45+Q32, Jl. Rajawali, Malang Lor, Kedungsono, Kec. Bulu, Kabupaten Sukoharjo, Jawa Tengah 57563";"Jl. Rajawali, Malang Lor, Kedungsono, Kec. Bulu, Kabupaten Sukoharjo";"JAWA TENGAH";"57563";"Indonesia";"";"";"";"-7.792675";"110.8580063";"https://maps.google.com/?cid=0x0:0x41a0262211cf8c6e";""
"komplek housing";"Perumahan";"Putuk Mulworejo";"6RGG+445, Dusun II, Kamal, Kec. Bulu, Kabupaten Sukoharjo, Jawa Tengah 57563";"Dusun II, Kamal, Kec. Bulu, Kabupaten Sukoharjo";"JAWA TENGAH";"57563";"Indonesia";"";"";"";"-7.7749052";"110.8254344";"https://maps.google.com/?cid=0x0:0x9c1b8db41ab8979c";""
"komplek housing";"Pembangunan Perumahan";"Joe Mranggen";"7R33+7FR, Dusun I, Malangan, Kec. Bulu, Kabupaten Sukoharjo, Jawa Tengah 57563";"Dusun I, Malangan, Kec. Bulu, Kabupaten Sukoharjo";"JAWA TENGAH";"57563";"Indonesia";"";"";"";"-7.7467723";"110.8036367";"https://maps.google.com/?cid=0x0:0xe13258390f019564";""
"komplek housing";"komplek housing";"Ard Audio  Guppy farm";"4CV4+3QX, Bulu, Kec. Bulu, Kabupaten Rembang, Jawa Tengah 59255";"Bulu, Kec. Bulu, Kabupaten Rembang";"JAWA TENGAH";"59255";"Indonesia";"";"";"";"-6.857324";"111.407224";"https://maps.google.com/?cid=0x0:0xe769be4863952d68";""
"komplek housing";"Komplek perumahan";"pak sutaji home";"5934+M3W, Guo, Cabean, Kec. Bulu, Kabupaten Rembang, Jawa Tengah 59255";"Guo, Cabean, Kec. Bulu, Kabupaten Rembang";"JAWA TENGAH";"59255";"Indonesia";"";"";"";"-6.8457558";"111.3551943";"https://maps.google.com/?cid=0x0:0xc7034b6b7e731fea";""
"komplek housing";"Pembangunan Perumahan";"Dukuh Coban, Desa Jukung";"Dukuh, Coban, Jukung, Kec. Bulu, Kabupaten Rembang, Jawa Tengah 59255";"Coban, Jukung, Kec. Bulu, Kabupaten Rembang";"JAWA TENGAH";"59255";"Indonesia";"";"";"";"-6.852553";"111.4215797";"https://maps.google.com/?cid=0x0:0x2f6729e42b3acd7e";""
"komplek housing";"Kantor Perusahaan";"Markas Bully Grup";"Kompleks Makam R.A. Kartini, RT.: 004/RW.: 001, Bulu, Kec. Bulu, Kabupaten Rembang, Jawa Tengah 59255";"RT.: 004/RW.: 001, Bulu, Kec. Bulu, Kabupaten Rembang";"JAWA TENGAH";"59255";"Indonesia";"";"";"";"-6.8629981";"111.4072068";"https://maps.google.com/?cid=0x0:0xc23daf2ff4815453";""
"komplek housing";"Komplek perumahan";"Rumah Diana_Agus";"4CR4+H8J, Jl. Raya Rembang-Blo, Bulu, Kec. Bulu, Kabupaten Rembang, Jawa Tengah 59255";"Jl. Raya Rembang-Blo, Bulu, Kec. Bulu, Kabupaten Rembang";"JAWA TENGAH";"59255";"Indonesia";"";"";"";"-6.8585518";"111.4056218";"https://maps.google.com/?cid=0x0:0x4f14fa5631b9b453";""
"komplek housing";"Komplek perumahan";"Rumah nagio";"4CV3+7QP, Jl. Raya Blora - Rembang, Area Sawah, Bulu, Kec. Bulu, Kabupaten Rembang, Jawa Tengah 59255";"Jl. Raya Blora - Rembang, Area Sawah, Bulu, Kec. Bulu, Kabupaten Rembang";"JAWA TENGAH";"59255";"Indonesia";"";"";"";"-6.8560172";"111.404339";"https://maps.google.com/?cid=0x0:0x773e2b915ece0100";""
"komplek housing";"Pembangunan Perumahan";"Awang Karangasem Bulu Rembang";"49X8+WQQ, Wetan, Karangasem, Kec. Bulu, Kabupaten Rembang, Jawa Tengah 59255";"Wetan, Karangasem, Kec. Bulu, Kabupaten Rembang";"JAWA TENGAH";"59255";"Indonesia";"";"";"";"-6.8497064";"111.3669808";"https://maps.google.com/?cid=0x0:0xbf75a6ac8c49aeff";""
"komplek housing";"Komplek perumahan";"Anak e Modot";"5C53+4J7, Unnamed Road, Jukung, Kec. Bulu, Kabupaten Rembang, Jawa Tengah 59255";"Unnamed Road, Jukung, Kec. Bulu, Kabupaten Rembang";"JAWA TENGAH";"59255";"Indonesia";"";"";"";"-6.8422202";"111.4040577";"https://maps.google.com/?cid=0x0:0x6211d4f0bbc08181";""
"komplek housing";"Pembangunan Perumahan";"Rumah Sam Maestroooo nyellll";"59F7+9V5, Lambangan Wetan, Kec. Bulu, Kabupaten Rembang, Jawa Tengah 59255";"Lambangan Wetan, Kec. Bulu, Kabupaten Rembang";"JAWA TENGAH";"59255";"Indonesia";"";"";"";"-6.8266064";"111.3647484";"https://maps.google.com/?cid=0x0:0xe40e97c2b68cd49c";""
"komplek housing";"Komplek perumahan";"Hsh";"4CQJ+WMJ, Kadiwono, Kec. Bulu, Kabupaten Rembang, Jawa Tengah 59255";"Kadiwono, Kec. Bulu, Kabupaten Rembang";"JAWA TENGAH";"59255";"Indonesia";"";"";"";"-6.8601579";"111.4316289";"https://maps.google.com/?cid=0x0:0xa875325ac929b28c";""
"komplek housing";"Komplek perumahan";"Dimas HOUSE";"5995+P23, Jl. Sulang-Sumber, Area Sawah  Kebun, Lambangan Kulon, Kec. Bulu, Kabupaten Rembang, Jawa Tengah";"Kabupaten Rembang, Jawa Tengah";"JAWA TENGAH";"";"Indonesia";"";"";"";"-6.8307265";"111.3575523";"https://maps.google.com/?cid=0x0:0xc5f08da1424ccdb0";""
"komplek housing";"Komplek perumahan";"Mas Ridwan Jambean";"4CWC+3MF, Area Sawah  Hutan, Mantingan, Kec. Bulu, Kabupaten Rembang, Jawa Tengah 59255";"Area Sawah  Hutan, Mantingan, Kec. Bulu, Kabupaten Rembang";"JAWA TENGAH";"59255";"Indonesia";"";"";"";"-6.8548292";"111.4218485";"https://maps.google.com/?cid=0x0:0x54b5cbb1cbcd43bc";""
"komplek housing";"Komplek perumahan";"Dukuh pejaten";"4CV3+62W, Pejanten, Pasedan, Kec. Bulu, Kabupaten Rembang, Jawa Tengah 59255";"Pejanten, Pasedan, Kec. Bulu, Kabupaten Rembang";"JAWA TENGAH";"59255";"Indonesia";"";"";"";"-6.8568874";"111.4025931";"https://maps.google.com/?cid=0x0:0x52157b6a025a4dd5";""
"komplek housing";"Pembangunan Perumahan";"Home wulan";"48XF+J3F, Krajan Tengah, Sendangmulyo, Kec. Bulu, Kabupaten Rembang, Jawa Tengah 59255";"Krajan Tengah, Sendangmulyo, Kec. Bulu, Kabupaten Rembang";"JAWA TENGAH";"59255";"Indonesia";"";"";"";"-6.8509435";"111.3226788";"https://maps.google.com/?cid=0x0:0xd304d916f3801f46";""
"komplek housing";"Komplek perumahan";"Tank fish";"4CR4+W82, Bulu, Kec. Bulu, Kabupaten Rembang, Jawa Tengah 59255";"Bulu, Kec. Bulu, Kabupaten Rembang";"JAWA TENGAH";"59255";"Indonesia";"";"";"";"-6.8577367";"111.4057717";"https://maps.google.com/?cid=0x0:0x3ee99d1ec7e673d8";""
"komplek housing";"Komplek perumahan";"Rumah sederhana";"59C8+P4F, Lambangan Wetan, Kec. Bulu, Kabupaten Rembang, Jawa Tengah 59255";"Lambangan Wetan, Kec. Bulu, Kabupaten Rembang";"JAWA TENGAH";"59255";"Indonesia";"";"";"";"-6.8281838";"111.3653025";"https://maps.google.com/?cid=0x0:0xe830fcf98393b4d7";""
"komplek housing";"Komplek perumahan";"Rumah Ery";"5963+QFG, Ngaglik, Warugunung, Kec. Bulu, Kabupaten Rembang, Jawa Tengah 59255";"Ngaglik, Warugunung, Kec. Bulu, Kabupaten Rembang";"JAWA TENGAH";"59255";"Indonesia";"";"";"";"-6.8380731";"111.3537137";"https://maps.google.com/?cid=0x0:0xdabb0c6dd34c7000";""
"komplek housing";"Pembangunan Perumahan";"b.ita";"48XF+J8J, RT.07/RW.01, Krajan Tengah, Sendangmulyo, Kec. Bulu, Kabupaten Rembang, Jawa Tengah 59255";"RT.07/RW.01, Krajan Tengah, Sendangmulyo, Kec. Bulu, Kabupaten Rembang";"JAWA TENGAH";"59255";"Indonesia";"";"";"";"-6.8509221";"111.3232655";"https://maps.google.com/?cid=0x0:0x3de523292398208f";""
"komplek housing";"Komplek perumahan";"Sarira Tunggal Productions";"5933+932, Jambe, Cabean, Kec. Bulu, Kabupaten Rembang, Jawa Tengah 59255";"Jambe, Cabean, Kec. Bulu, Kabupaten Rembang";"JAWA TENGAH";"59255";"Indonesia";"";"";"";"-6.846365";"111.352734";"https://maps.google.com/?cid=0x0:0xb23aa786c3e3de90";""
"komplek housing";"komplek housing";"Jawa Tengah 59255";"Kec. Bulu, Kabupaten Rembang, Jawa Tengah";"Kabupaten Rembang, Jawa Tengah";"JAWA TENGAH";"";"Indonesia";"";"";"";"-6.8613616";"111.3679689";"https://maps.google.com/?cid=0x0:0x1c00c5eb5b53df50";""
"komplek housing";"Komplek perumahan";"Pertelon njaten";"4CV2+8R7, Pejanten, Pasedan, Kec. Bulu, Kabupaten Rembang, Jawa Tengah 59255";"Pejanten, Pasedan, Kec. Bulu, Kabupaten Rembang";"JAWA TENGAH";"59255";"Indonesia";"";"";"";"-6.856705";"111.402032";"https://maps.google.com/?cid=0x0:0xd4ef7fbbfea3a94";""
"komplek housing";"Komplek perumahan";"Sujono";"5948+7FP, Gedung Wetan, Sumbermulyo, Kec. Bulu, Kabupaten Rembang, Jawa Tengah 59255";"Gedung Wetan, Sumbermulyo, Kec. Bulu, Kabupaten Rembang";"JAWA TENGAH";"59255";"Indonesia";"";"";"";"-6.8442962";"111.3661956";"https://maps.google.com/?cid=0x0:0x244cd557702d73aa";""
"komplek housing";"Komplek perumahan";"Abdul hafid";"49MP+Q8H, Pasedan Satu, Pasedan, Kec. Bulu, Kabupaten Rembang, Jawa Tengah 59255";"Pasedan Satu, Pasedan, Kec. Bulu, Kabupaten Rembang";"JAWA TENGAH";"59255";"Indonesia";"";"";"";"-6.8655729";"111.3858548";"https://maps.google.com/?cid=0x0:0xa3b1b44c0356c0ce";""
"komplek housing";"komplek housing";"Kec. Bulu";"Kabupaten Rembang, Jawa Tengah";"Kabupaten Rembang, Jawa Tengah";"JAWA TENGAH";"";"Indonesia";"";"";"";"-6.8597753";"111.4072508";"https://maps.google.com/?cid=0x0:0x4027a76e352f100";""
"komplek housing";"Komplek perumahan";"Pondok Gede Housing 1";"Jl. Cipta Raya No.45-3, RT.001/RW.003, Jatirahayu, Kec. Pd. Melati, Kota Bks, Jawa Barat 17414";"RT.001/RW.003, Jatirahayu, Kec. Pd. Melati, Kota Bks";"JAWA TENGAH";"17414";"Indonesia";"";"";"";"-6.2852504";"106.9163397";"https://maps.google.com/?cid=0x0:0x3132afedbf38cd61";""
"komplek housing";"Komplek perumahan";"Pondok Gede Housing II";"Housing II, Jl. Raya Hankam, RT.001/RW.004, Jatirahayu, Pondok Gede, Bekasi, West Java";"Kota Bks, Jawa Barat";"JAWA TENGAH";"";"Indonesia";"";"";"";"-6.2876701";"106.9147674";"https://maps.google.com/?cid=0x0:0x2a52e601c20d18f2";""
"komplek housing";"Otoritas Perumahan";"Pondok Gede Permai";"Jl. Pondok Gede Permai, RT.009/RW.003, Jatirasa, Kec. Jatiasih, Bekasi Kota, Jawa Barat 17424";"RT.009/RW.003, Jatirasa, Kec. Jatiasih, Bekasi Kota";"JAWA TENGAH";"17424";"Indonesia";"";"";"";"-6.2982893";"106.9707439";"https://maps.google.com/?cid=0x0:0xfa7dc2055773ba94";""
"komplek housing";"Perhimpunan Pengembang Perumahan";"Siap";"Jl. Nusa Indah No.5 Blok B1, RT.001/RW.004 CKP, Jatimakmur, Kec. Pd. Gede, Kota Bks, Jawa Barat 17421";"RT.001/RW.004 CKP, Jatimakmur, Kec. Pd. Gede, Kota Bks";"JAWA TENGAH";"17421";"Indonesia";"";"";"";"-6.2742373";"106.9382868";"https://maps.google.com/?cid=0x0:0x9591625582703194";""
"komplek housing";"Komplek perumahan";"Cluster Ayana";"Jl. H. Ramid No.70, RT.006/RW.008, Jatimakmur, Kec. Pd. Gede, Kota Bks, Jawa Barat 17413";"RT.006/RW.008, Jatimakmur, Kec. Pd. Gede, Kota Bks";"JAWA TENGAH";"17413";"Indonesia";"";"";"";"-6.2845255";"106.9286368";"https://maps.google.com/?cid=0x0:0xcb2269b448f6f8c3";""
"komplek housing";"Perumahan";"Perumahan Ameera Residence 1";"CQ25+29G, Jl. Gawok, Sawah, Jati, Kec. Gatak, Kabupaten Sukoharjo, Jawa Tengah 57557";"Jl. Gawok, Sawah, Jati, Kec. Gatak, Kabupaten Sukoharjo";"JAWA TENGAH";"57557";"Indonesia";" 082226901233";"";"";"-7.5999388";"110.7584652";"https://maps.google.com/?cid=0x0:0xc2329048797ca0aa";""
"komplek housing";"Kantor Perusahaan";"Greenville Residence";"CQ89+W4P, Unnamed Road, Area Sawah Dan Perkebunan, Mayang, Gatak, Sukoharjo Regency, Central Java 57557";"Unnamed Road, Area Sawah Dan Perkebunan, Mayang, Gatak, Sukoharjo Regency";"JAWA TENGAH";"57557";"Indonesia";"";"";"";"-7.5826599";"110.7678287";"https://maps.google.com/?cid=0x0:0x31162ac15e02a297";""
"komplek housing";"Pembangunan Perumahan";"Auleea Residence";"CQ95+6QH, Saripan, Mayang, Kec. Gatak, Kabupaten Sukoharjo, Jawa Tengah 57557";"Saripan, Mayang, Kec. Gatak, Kabupaten Sukoharjo";"JAWA TENGAH";"57557";"Indonesia";" 02717469890";"";"";"-7.581949";"110.7594881";"https://maps.google.com/?cid=0x0:0xdfea2d2e64a8e535";""
"komplek housing";"Komplek perumahan";"Rumah delishabisma";"CP7Q+Q4Q, Dusun II, Luwang, Kec. Gatak, Kabupaten Sukoharjo, Jawa Tengah 57557";"Dusun II, Luwang, Kec. Gatak, Kabupaten Sukoharjo";"JAWA TENGAH";"57557";"Indonesia";"";"";"";"-7.585744";"110.7378614";"https://maps.google.com/?cid=0x0:0xbc1e7f518f0ccfe1";""
"komplek housing";"Pembangunan Perumahan";"PANGESTU RESIDENCE";"CQ25+296, Jl. Gawok, Sawah, Jati, Kec. Gatak, Kabupaten Sukoharjo, Jawa Tengah 57557";"Jl. Gawok, Sawah, Jati, Kec. Gatak, Kabupaten Sukoharjo";"JAWA TENGAH";"57557";"Indonesia";" 085868177670";"";"/url?q>>u003dhttps://pangestu-residence.co.id/>>u0026opi>>u003d79508299>>u0026sa>>u003dU>>u0026ved>>u003d0ahUKEwjFjbb7vIqMAxU34jgGHexGOmsQ61gIFSgR>>u0026usg>>u003dAOvVaw0Wek4AnDwX7nia8xM4TQoZ";"-7.599954";"110.7586529";"https://maps.google.com/?cid=0x0:0x95ce78eb475e93f6";""
"komplek housing";"Pembangunan Perumahan";"Perumahan Trosemi 1";"CQ44+WHC, Sawah, Trosemi, Kec. Gatak, Kabupaten Sukoharjo, Jawa Tengah 57557";"Sawah, Trosemi, Kec. Gatak, Kabupaten Sukoharjo";"JAWA TENGAH";"57557";"Indonesia";"";"";"";"-7.5926945";"110.7563871";"https://maps.google.com/?cid=0x0:0xe906cb757eb2f9c5";""
"komplek housing";"Komplek perumahan";"Rumah Alm.mbah ngudi suwarno";"CP8P+4W6, Dagangan, Trangsan, Kec. Gatak, Kabupaten Sukoharjo, Jawa Tengah 57557";"Dagangan, Trangsan, Kec. Gatak, Kabupaten Sukoharjo";"JAWA TENGAH";"57557";"Indonesia";"";"";"";"-7.5847154";"110.7372728";"https://maps.google.com/?cid=0x0:0x680ff5046762b2ad";""
"komplek housing";"Komplek perumahan";"Khawauqi";"CP8R+QRM Jamur, Jl. Sega, RT.02/RW.08, Kramat, Trangsan, Gatak, Sukoharjo Regency, Central Java 57557";"Jl. Sega, RT.02/RW.08, Kramat, Trangsan, Gatak, Sukoharjo Regency";"JAWA TENGAH";"57557";"Indonesia";"";"";"";"-7.5830268";"110.7420383";"https://maps.google.com/?cid=0x0:0x3e9709f6bacfdf9";""
"komplek housing";"komplek housing";"Dalemipun Yangti";"CP3J+4JF, RT.003/RW.002, Dusun I, Blimbing, Kec. Gatak, Kabupaten Sukoharjo, Jawa Tengah 57557";"RT.003/RW.002, Dusun I, Blimbing, Kec. Gatak, Kabupaten Sukoharjo";"JAWA TENGAH";"57557";"Indonesia";"";"";"";"-7.597149";"110.7315465";"https://maps.google.com/?cid=0x0:0x71e9942c1f582ed6";""
"komplek housing";"Otoritas Perumahan";"Perum Griya Mayang Permai";"Perum Griya Mayang Permai, Area Sawah Dan Perkebunan, Mayang, Gatak, Sukoharjo Regency, Central Java 57557";"Area Sawah Dan Perkebunan, Mayang, Gatak, Sukoharjo Regency";"JAWA TENGAH";"57557";"Indonesia";"";"";"";"-7.5774409";"110.7632581";"https://maps.google.com/?cid=0x0:0x2505e6162f5c5632";""
"komplek housing";"Perumahan";"perumahan puri chantika trangsan";"CP8Q+2FJ, Dusun II, Luwang, Kec. Gatak, Kabupaten Sukoharjo, Jawa Tengah 57557";"Dusun II, Luwang, Kec. Gatak, Kabupaten Sukoharjo";"JAWA TENGAH";"57557";"Indonesia";" 089625388866";"";"";"-7.5849208";"110.7383114";"https://maps.google.com/?cid=0x0:0xd5820de81d044fe7";""
"komplek housing";"Komplek perumahan";"My home";"slarong rt No.04/10, Dusun II, Wironanggan, Kec. Gatak, Kabupaten Sukoharjo, Jawa Tengah 57557";"Dusun II, Wironanggan, Kec. Gatak, Kabupaten Sukoharjo";"JAWA TENGAH";"57557";"Indonesia";"";"";"";"-7.5813597";"110.7294614";"https://maps.google.com/?cid=0x0:0x6517c4997f30c0a4";""
"komplek housing";"Perumahan";"Perumahan griyan trosemi gatak sukoharjo";"CQ42+RX7, Jl. Griya Trosemi II, Sawah, Trosemi, Kec. Gatak, Kabupaten Sukoharjo, Jawa Tengah 57557";"Jl. Griya Trosemi II, Sawah, Trosemi, Kec. Gatak, Kabupaten Sukoharjo";"JAWA TENGAH";"57557";"Indonesia";"";"";"";"-7.5929521";"110.752432";"https://maps.google.com/?cid=0x0:0x48e919d941adcc6";""
"komplek housing";"Pembangunan Perumahan";"Perumahan D'Trosemi Blok B-26";"Brante, Trosemi, Kec. Gatak, Kabupaten Sukoharjo, Jawa Tengah 57557";"Trosemi, Kec. Gatak, Kabupaten Sukoharjo";"JAWA TENGAH";"57557";"Indonesia";"";"";"";"-7.5929714";"110.7573899";"https://maps.google.com/?cid=0x0:0x436fbe3bb8409f6b";""
"komplek housing";"Perumahan";"Kompelek Perumahan subsidi Bangsan Green 1 sukoharjo solo";"CQ34+XR6, Bangsan, Trosemi, Kec. Gatak, Kabupaten Sukoharjo, Jawa Tengah 57557";"Bangsan, Trosemi, Kec. Gatak, Kabupaten Sukoharjo";"JAWA TENGAH";"57557";"Indonesia";" 089504761868";"";"";"-7.5954109";"110.7579771";"https://maps.google.com/?cid=0x0:0xeeeed4a348c5e12a";""
"komplek housing";"Komplek perumahan";"Home Nawanda";"CP8H+JC9, Tegalsari, Klaseman, Kec. Gatak, Kabupaten Sukoharjo, Jawa Tengah 57557";"Tegalsari, Klaseman, Kec. Gatak, Kabupaten Sukoharjo";"JAWA TENGAH";"57557";"Indonesia";"";"";"";"-7.583268";"110.728686";"https://maps.google.com/?cid=0x0:0xebb9a035e3779aa7";""
"komplek housing";"Komplek perumahan";"Rumah Habib";"CP3J+98X, Dusun I, Blimbing, Kec. Gatak, Kabupaten Sukoharjo, Jawa Tengah 57557";"Dusun I, Blimbing, Kec. Gatak, Kabupaten Sukoharjo";"JAWA TENGAH";"57557";"Indonesia";"";"";"";"-7.5972449";"110.7316159";"https://maps.google.com/?cid=0x0:0xd49d52a81fb0f897";""
"komplek housing";"Pusat Perbelanjaan";"Rumah ratin jamur";"CP6V+GCM, Dusun II, Luwang, Kec. Gatak, Kabupaten Sukoharjo, Jawa Tengah 57557";"Dusun II, Luwang, Kec. Gatak, Kabupaten Sukoharjo";"JAWA TENGAH";"57557";"Indonesia";"";"";"";"-7.5886556";"110.7435364";"https://maps.google.com/?cid=0x0:0xd21c441dfcf04e8f";""
"komplek housing";"Komplek perumahan";"Rumah Teguh Ganteng";"Trangsan, Kec. Gatak, Kabupaten Sukoharjo, Jawa Tengah 57557";"Kec. Gatak, Kabupaten Sukoharjo";"JAWA TENGAH";"57557";"Indonesia";" 085328784605";"";"";"-7.5854366";"110.7481018";"https://maps.google.com/?cid=0x0:0x63c4b9952b37a161";""
"komplek housing";"komplek housing";"Jawa Tengah 57557";"Kec. Gatak, Kabupaten Sukoharjo, Jawa Tengah";"Kabupaten Sukoharjo, Jawa Tengah";"JAWA TENGAH";"";"Indonesia";"";"";"";"-7.5874497";"110.7420464";"https://maps.google.com/?cid=0x0:0x1c00c5eb5b53d5c0";""
"komplek housing";"Pembangunan Perumahan";"Mbok e kenul";"CPFX+RFQ, Jl. Mayang Kartasura, Ledok, Trangsan, Kec. Gatak, Kabupaten Sukoharjo, Jawa Tengah 57557";"Jl. Mayang Kartasura, Ledok, Trangsan, Kec. Gatak, Kabupaten Sukoharjo";"JAWA TENGAH";"57557";"Indonesia";"";"";"";"-7.5754199";"110.7487388";"https://maps.google.com/?cid=0x0:0x126d6d4dc9249e94";""
"komplek housing";"Dapur Umum";"Rumah Pak Chairudin";"Perumahan DTrosemi, Jl. Gatak Gawok No. A24, Brante, Sawah, Trosemi, Kec. Gatak, Kabupaten Sukoharjo, Jawa Tengah 57557";"Jl. Gatak Gawok No. A24, Brante, Sawah, Trosemi, Kec. Gatak, Kabupaten Sukoharjo";"JAWA TENGAH";"57557";"Indonesia";"";"";"";"-7.5919817";"110.7581872";"https://maps.google.com/?cid=0x0:0xc985ee92e61ff3bc";""
"komplek housing";"Komplek perumahan";"Nindita";"Krangan rt2/rw3, Dusun I, Geneng, Kec. Gatak, Kabupaten Sukoharjo, Jawa Tengah 57557";"Dusun I, Geneng, Kec. Gatak, Kabupaten Sukoharjo";"JAWA TENGAH";"57557";"Indonesia";"";"";"";"-7.600973";"110.7553692";"https://maps.google.com/?cid=0x0:0xdcbb86c59aee1963";""
"komplek housing";"Komplek perumahan";"rumah anas";"CP8P+857, Kwangen, Trangsan, Kec. Gatak, Kabupaten Sukoharjo, Jawa Tengah 57557";"Kwangen, Trangsan, Kec. Gatak, Kabupaten Sukoharjo";"JAWA TENGAH";"57557";"Indonesia";"";"";"";"-7.5842308";"110.7351236";"https://maps.google.com/?cid=0x0:0xfaf6c841076e3caa";""
"komplek housing";"Pembangunan Perumahan";"Dr.Waluyo home";"CQC2+CFF, Gani, Trangsan, Kec. Gatak, Kabupaten Sukoharjo, Jawa Tengah 57557";"Gani, Trangsan, Kec. Gatak, Kabupaten Sukoharjo";"JAWA TENGAH";"57557";"Indonesia";"";"";"";"-7.5788601";"110.7511712";"https://maps.google.com/?cid=0x0:0x4c0841a35b14620e";""
"komplek housing";"Komplek perumahan";"Home Whulan";"Jl. Boto No.1, Dusun III, Blimbing, Kec. Gatak, Kabupaten Sukoharjo, Jawa Tengah 57557";"Dusun III, Blimbing, Kec. Gatak, Kabupaten Sukoharjo";"JAWA TENGAH";"57557";"Indonesia";"";"";"";"-7.600065";"110.7478054";"https://maps.google.com/?cid=0x0:0x4e73df0584369006";""
"komplek housing";"Komplek perumahan";"Rumah Haikal";"CP3H+FXW, Dusun I, Blimbing, Kec. Gatak, Kabupaten Sukoharjo, Jawa Tengah 57557";"Dusun I, Blimbing, Kec. Gatak, Kabupaten Sukoharjo";"JAWA TENGAH";"57557";"Indonesia";"";"";"";"-7.5962545";"110.7299635";"https://maps.google.com/?cid=0x0:0x8f8c06a0e13d8c74";""
"komplek housing";"Komplek perumahan";"Omah e adit";"CP8R+59H, Kramat, Trangsan, Kec. Gatak, Kabupaten Sukoharjo, Jawa Tengah 57557";"Kramat, Trangsan, Kec. Gatak, Kabupaten Sukoharjo";"JAWA TENGAH";"57557";"Indonesia";"";"";"";"-7.5845555";"110.7409953";"https://maps.google.com/?cid=0x0:0xd25b5231dd87e998";""
"komplek housing";"komplek housing";"Kec. Gatak";"Kabupaten Sukoharjo, Jawa Tengah";"Kabupaten Sukoharjo, Jawa Tengah";"JAWA TENGAH";"";"Indonesia";"";"";"";"-7.5907735";"110.7447025";"https://maps.google.com/?cid=0x0:0x4027a76e3530180";""
"komplek housing";"Komplek perumahan";"My house";"indah, Jl. Anggrek 1 perum No.10B, Dusun III, Madegondo, Grogol, Sukoharjo Regency, Central Java 57552";"Jl. Anggrek 1 perum No.10B, Dusun III, Madegondo, Grogol, Sukoharjo Regency";"JAWA TENGAH";"57552";"Indonesia";"";"";"";"-7.6058499";"110.8180786";"https://maps.google.com/?cid=0x0:0xc8c94aa41aee938c";""
"komplek housing";"Pembangunan Perumahan";"Safira Grogol";"Jl. Yudistira Solo Baru No.B7, Dusun I, Telukan, Kec. Grogol, Kabupaten Sukoharjo, Jawa Tengah 57552";"Dusun I, Telukan, Kec. Grogol, Kabupaten Sukoharjo";"JAWA TENGAH";"57552";"Indonesia";" 082376156070";"";"/url?q>>u003dhttps://safiragrogol.com/>>u0026opi>>u003d79508299>>u0026sa>>u003dU>>u0026ved>>u003d0ahUKEwiesMWQvYqMAxWK1jgGHRquNAwQ61gIFigS>>u0026usg>>u003dAOvVaw3zerbFYZU8tuFtVpOn4yn1";"-7.6175333";"110.8178131";"https://maps.google.com/?cid=0x0:0x9b58bdcc4cd8bca6";""
"komplek housing";"Komplek perumahan";"Cluster House of Miracle ( HOME )";"Jl. Diponegoro, Dusun III, Madegondo, Kec. Grogol, Kabupaten Sukoharjo, Jawa Tengah 57552";"Dusun III, Madegondo, Kec. Grogol, Kabupaten Sukoharjo";"JAWA TENGAH";"57552";"Indonesia";"";"";"";"-7.6041259";"110.816168";"https://maps.google.com/?cid=0x0:0x24f36991cdcb6e9a";""
"komplek housing";"Komplek perumahan";"Omah Kadokan Asri 2";"Sawah, Kadokan, Kec. Grogol, Kabupaten Sukoharjo, Jawa Tengah 57552";"Kadokan, Kec. Grogol, Kabupaten Sukoharjo";"JAWA TENGAH";"57552";"Indonesia";" 081339476640";"";"";"-7.5987149";"110.8278394";"https://maps.google.com/?cid=0x0:0x9812615a3b15d35";""
"komplek housing";"Komplek perumahan";"Home";"9RM9+RC2, Dusun II, Telukan, Kec. Grogol, Kabupaten Sukoharjo, Jawa Tengah 57552";"Dusun II, Telukan, Kec. Grogol, Kabupaten Sukoharjo";"JAWA TENGAH";"57552";"Indonesia";"";"";"";"-7.6155917";"110.8188233";"https://maps.google.com/?cid=0x0:0xec41d1f6aa399168";""
"komplek housing";"Komplek perumahan";"Home";"9RM7+XG4, Gg. Manis 2, RT.03/RW.02, Dusun II, Langenharjo, Kec. Grogol, Kabupaten Sukoharjo, Jawa Tengah 57552";"Gg. Manis 2, RT.03/RW.02, Dusun II, Langenharjo, Kec. Grogol, Kabupaten Sukoharjo";"JAWA TENGAH";"57552";"Indonesia";"";"";"";"-7.6151044";"110.8138244";"https://maps.google.com/?cid=0x0:0xcc9913154e4f29c7";""
"komplek housing";"Penginapan";"Perumahan Vienna Ji-11";"9RX6+P6Q, Dusun I, Madegondo, Kec. Grogol, Kabupaten Sukoharjo, Jawa Tengah 57552";"Dusun I, Madegondo, Kec. Grogol, Kabupaten Sukoharjo";"JAWA TENGAH";"57552";"Indonesia";"";"";"";"-7.6006742";"110.8106137";"https://maps.google.com/?cid=0x0:0xba6e5a092b75d2c6";""
"komplek housing";"Komplek perumahan";"RUMAHKU";"9RQ7+W8H, Jl. Beruang, Dusun I, Langenharjo, Kec. Grogol, Kabupaten Sukoharjo, Jawa Tengah 57552";"Jl. Beruang, Dusun I, Langenharjo, Kec. Grogol, Kabupaten Sukoharjo";"JAWA TENGAH";"57552";"Indonesia";"";"";"";"-7.6101794";"110.8133656";"https://maps.google.com/?cid=0x0:0x80a6bea5a042b6aa";""
"komplek housing";"komplek housing";"PSDH INDONESIA";"9RC9+RF4, Jl. Albasia, Dusun III, Parangjoro, Kec. Grogol, Kabupaten Sukoharjo, Jawa Tengah 57552";"Jl. Albasia, Dusun III, Parangjoro, Kec. Grogol, Kabupaten Sukoharjo";"JAWA TENGAH";"57552";"Indonesia";" 082223722200";"";"/url?q>>u003dhttp://www.dayahikmah.com/>>u0026opi>>u003d79508299>>u0026sa>>u003dU>>u0026ved>>u003d0ahUKEwjb_KWSvYqMAxXPjGMGHdHRIWQQ61gIFSgR>>u0026usg>>u003dAOvVaw3_SMhsog0_QuE-fmfXni7o";"-7.627943";"110.81862";"https://maps.google.com/?cid=0x0:0x7d464ca0655349bb";""
"komplek housing";"Komplek perumahan";"Home Sweet Home";"Jl. Podang BG/4, Dusun III, Madegondo, Kec. Grogol, Kabupaten Sukoharjo, Jawa Tengah 57552";"Dusun III, Madegondo, Kec. Grogol, Kabupaten Sukoharjo";"JAWA TENGAH";"57552";"Indonesia";"";"";"";"-7.6068041";"110.8146572";"https://maps.google.com/?cid=0x0:0xf42e2b7abe953235";""
"komplek housing";"Komplek perumahan";"D";"Indah, Jl. Anggrek 3 No.B.16, Dusun III, Madegondo, Kec. Grogol, Kabupaten Sukoharjo, Jawa Tengah 57552";"Jl. Anggrek 3 No.B.16, Dusun III, Madegondo, Kec. Grogol, Kabupaten Sukoharjo";"JAWA TENGAH";"57552";"Indonesia";"";"";"";"-7.6056717";"110.8164756";"https://maps.google.com/?cid=0x0:0x4867523a41109351";""
"komplek housing";"komplek housing";"Ken's House";"Jl. Merpati BC No.1, Dusun I, Langenharjo, Kec. Grogol, Kabupaten Sukoharjo, Jawa Tengah 57552";"Dusun I, Langenharjo, Kec. Grogol, Kabupaten Sukoharjo";"JAWA TENGAH";"57552";"Indonesia";"";"";"";"-7.6073876";"110.8151546";"https://maps.google.com/?cid=0x0:0xaed68791fc530121";""
"komplek housing";"Perhimpunan Pengembang Perumahan";"Sumarno";"9RP2+G8G, Jl. Elang 2, Dusun IV, Langenharjo, Kec. Grogol, Kabupaten Sukoharjo, Jawa Tengah 57552";"Jl. Elang 2, Dusun IV, Langenharjo, Kec. Grogol, Kabupaten Sukoharjo";"JAWA TENGAH";"57552";"Indonesia";" 083834383745";"";"";"-7.613694";"110.8008437";"https://maps.google.com/?cid=0x0:0x69162e655b92195c";""
"komplek housing";"Komplek perumahan";"Rumah";"9RH4+JRJ, Pd. II, Pondok, Kec. Grogol, Kabupaten Sukoharjo, Jawa Tengah 57552";"Pd. II, Pondok, Kec. Grogol, Kabupaten Sukoharjo";"JAWA TENGAH";"57552";"Indonesia";"";"";"";"-7.6209023";"110.8070098";"https://maps.google.com/?cid=0x0:0x9fd0b50d10a1001b";""
"komplek housing";"Komplek perumahan";"Munzalan Grogol";"9R99+997, Jl. Kecuridan, Dusun III, Parangjoro, Kec. Grogol, Kabupaten Sukoharjo, Jawa Tengah 57552";"Jl. Kecuridan, Dusun III, Parangjoro, Kec. Grogol, Kabupaten Sukoharjo";"JAWA TENGAH";"57552";"Indonesia";" 085727372445";"";"/url?q>>u003dhttp://griyamunzalan.com/>>u0026opi>>u003d79508299>>u0026sa>>u003dU>>u0026ved>>u003d0ahUKEwifteKTvYqMAxVIzTgGHUR8C1QQ61gIFSgR>>u0026usg>>u003dAOvVaw3OqLbT8FHsbeDfXsIVULsN";"-7.6315845";"110.8184075";"https://maps.google.com/?cid=0x0:0x2229152cd539ccd5";""
"komplek housing";"Komplek perumahan";"DBK House";"Jl. Anggrek II No.2, Dusun III, Madegondo, Kec. Grogol, Kabupaten Sukoharjo, Jawa Tengah 57552";"Dusun III, Madegondo, Kec. Grogol, Kabupaten Sukoharjo";"JAWA TENGAH";"57552";"Indonesia";"";"";"";"-7.6061882";"110.8176488";"https://maps.google.com/?cid=0x0:0x96a5a23f9ae78d91";""
"komplek housing";"Komplek perumahan";"Perumahan Puri Gading";"CR3C+VJ7, Perumahan Puri Gading, Dusun I, Dusun I, Grogol, Sukoharjo Regency, Central Java 57552";"Perumahan Puri Gading, Dusun I, Dusun I, Grogol, Sukoharjo Regency";"JAWA TENGAH";"57552";"Indonesia";"";"";"";"-7.5953466";"110.8215591";"https://maps.google.com/?cid=0x0:0x60a87e60b4032436";""
"komplek housing";"Komplek perumahan";"Rumah Duwita (Danendra)";"9RRC+WH5, Dusun III, Grogol, Kec. Grogol, Kabupaten Sukoharjo, Jawa Tengah 57552";"Dusun III, Grogol, Kec. Grogol, Kabupaten Sukoharjo";"JAWA TENGAH";"57552";"Indonesia";"";"";"";"-7.6078817";"110.8215832";"https://maps.google.com/?cid=0x0:0x87bacea886526e27";""
"komplek housing";"Komplek perumahan";"omahe bara";"9RP6+5W8, Dusun II, Langenharjo, Kec. Grogol, Kabupaten Sukoharjo, Jawa Tengah 57552";"Dusun II, Langenharjo, Kec. Grogol, Kabupaten Sukoharjo";"JAWA TENGAH";"57552";"Indonesia";"";"";"";"-7.6145786";"110.8123309";"https://maps.google.com/?cid=0x0:0x7aa1a2e80f82b908";""
"komplek housing";"komplek housing";"Jawa Tengah 57552";"Kec. Grogol, Kabupaten Sukoharjo, Jawa Tengah";"Kabupaten Sukoharjo, Jawa Tengah";"JAWA TENGAH";"";"Indonesia";"";"";"";"-7.6146042";"110.8135688";"https://maps.google.com/?cid=0x0:0x1c00c5eb5b53d4f0";""
"komplek housing";"Komplek perumahan";"Perum De Malika 1";"Jl. De Malika 1, Sawah, Sanggrahan, Kec. Grogol, Kabupaten Sukoharjo, Jawa Tengah 57552";"Sawah, Sanggrahan, Kec. Grogol, Kabupaten Sukoharjo";"JAWA TENGAH";"57552";"Indonesia";"";"";"";"-7.595428";"110.7962655";"https://maps.google.com/?cid=0x0:0xffbed6bb82256297";""
"komplek housing";"Komplek perumahan";"Luky Solo Home";"Jl. Jambu No.22-24, Dusun 2, Gedangan, Kec. Grogol, Kabupaten Sukoharjo, Jawa Tengah 57552";"Dusun 2, Gedangan, Kec. Grogol, Kabupaten Sukoharjo";"JAWA TENGAH";"57552";"Indonesia";"";"";"";"-7.6077318";"110.7989662";"https://maps.google.com/?cid=0x0:0xc2a0f98f4dfc2ee";""
"komplek housing";"Agen Properti";"Perumahan Omah Kadokan Asri 1";"9RXJ+9QV, Tegalmangu, Kadokan, Kec. Grogol, Kabupaten Sukoharjo, Jawa Tengah 57552";"Tegalmangu, Kadokan, Kec. Grogol, Kabupaten Sukoharjo";"JAWA TENGAH";"57552";"Indonesia";"";"";"";"-7.601505";"110.831915";"https://maps.google.com/?cid=0x0:0xb93d251c49e52fa";""
"komplek housing";"Perumahan";"Ndalem Tentrem";"Perumahan Solo Baru Sektor 10 AA26, Jl Solo Daleman KM. 5, Grogol, Gedangan, Sukoharjo, Dusun 1, Gedangan, Kec. Grogol, Kabupaten Sukoharjo, Jawa Tengah 57552";"Jl Solo Daleman KM. 5, Grogol, Gedangan, Sukoharjo, Dusun 1, Gedangan, Kec. Grogol, Kabupaten Sukoharjo";"JAWA TENGAH";"57552";"Indonesia";" 02715680268";"";"";"-7.6014643";"110.7959004";"https://maps.google.com/?cid=0x0:0x61a6e3945237efea";""
"komplek housing";"Perhimpunan Pengembang Perumahan";"Rumah Keluarga besar roesdi hardjono";"Jl. Maya No.28b, Dusun II, Grogol, Kec. Grogol, Kabupaten Sukoharjo, Jawa Tengah 57552";"Dusun II, Grogol, Kec. Grogol, Kabupaten Sukoharjo";"JAWA TENGAH";"57552";"Indonesia";"";"";"";"-7.6017426";"110.8211873";"https://maps.google.com/?cid=0x0:0x309519b93c705a59";""
"komplek housing";"Komplek perumahan";"Rumah";"Jl. Puri Gading Selatan Jl. Mawar No.L5, Dusun I, Grogol, Kec. Grogol, Kabupaten Sukoharjo, Jawa Tengah 57552";"Dusun I, Grogol, Kec. Grogol, Kabupaten Sukoharjo";"JAWA TENGAH";"57552";"Indonesia";"";"";"";"-7.5975712";"110.8251869";"https://maps.google.com/?cid=0x0:0x581a7e707c3d7944";""
"komplek housing";"Komplek perumahan";"Home";"Jl. Dahlia No.F1, Dusun I, Grogol, Sukoharjo Regency, Central Java 57552";"Dusun I, Grogol, Sukoharjo Regency";"JAWA TENGAH";"57552";"Indonesia";"";"";"";"-7.5965111";"110.823862";"https://maps.google.com/?cid=0x0:0x3aaba6080389dd89";""
"komplek housing";"Komplek perumahan";"Rumah";"Jl. Madukoro AE No.15, Dusun I, Grogol, Kec. Grogol, Kabupaten Sukoharjo, Jawa Tengah 57552";"Dusun I, Grogol, Kec. Grogol, Kabupaten Sukoharjo";"JAWA TENGAH";"57552";"Indonesia";"";"";"";"-7.5991793";"110.8220492";"https://maps.google.com/?cid=0x0:0x405e5da4fb7946b0";""
"komplek housing";"Komplek perumahan";"Lp";"Jl. Vienna Utara blok ji No.25, Dusun I, Madegondo, Kec. Grogol, Kabupaten Sukoharjo, Jawa Tengah 57552";"Dusun I, Madegondo, Kec. Grogol, Kabupaten Sukoharjo";"JAWA TENGAH";"57552";"Indonesia";"";"";"";"-7.600515";"110.8101466";"https://maps.google.com/?cid=0x0:0x4bb837123165b02c";""
"komplek housing";"komplek housing";"Kec. Grogol";"Kabupaten Sukoharjo, Jawa Tengah";"Kabupaten Sukoharjo, Jawa Tengah";"JAWA TENGAH";"";"Indonesia";"";"";"";"-7.6014236";"110.8138837";"https://maps.google.com/?cid=0x0:0xd2c4ba434a3d411c";""
"komplek housing";"Komplek perumahan";"Rumah Okky Muhammad Al Qorni";"Jl. Mawar No.15, Dusun I, Grogol, Kec. Grogol, Kabupaten Sukoharjo, Jawa Tengah 57552";"Dusun I, Grogol, Kec. Grogol, Kabupaten Sukoharjo";"JAWA TENGAH";"57552";"Indonesia";"";"";"";"-7.59874";"110.8260515";"https://maps.google.com/?cid=0x0:0x3bc5e446611b075e";""
"komplek housing";"Perumahan";"al khoir loundry";"CR39+HV4, Jl. Kaliwingko, Dusun I, Grogol, Kec. Grogol, Kabupaten Sukoharjo, Jawa Tengah 57552";"Jl. Kaliwingko, Dusun I, Grogol, Kec. Grogol, Kabupaten Sukoharjo";"JAWA TENGAH";"57552";"Indonesia";"";"";"";"-7.596101";"110.819703";"https://maps.google.com/?cid=0x0:0xc594aa7295e02fa9";""
"komplek housing";"Komplek perumahan";"Perumahan Greenhill Residence 1";"Blok D3 No.10, RT.011/RW.010, Jatisari, Kec. Jatiasih, Kota Bks, Jawa Barat 17426";"RT.011/RW.010, Jatisari, Kec. Jatiasih, Kota Bks";"JAWA TENGAH";"17426";"Indonesia";"";"";"";"-6.3347433";"106.9473533";"https://maps.google.com/?cid=0x0:0x13f30517002dcbd";""
"komplek housing";"Otoritas Perumahan";"Pondok Gede Permai";"Jl. Pondok Gede Permai, RT.009/RW.003, Jatirasa, Kec. Jatiasih, Bekasi Kota, Jawa Barat 17424";"RT.009/RW.003, Jatirasa, Kec. Jatiasih, Bekasi Kota";"JAWA TENGAH";"17424";"Indonesia";"";"";"";"-6.2982893";"106.9707439";"https://maps.google.com/?cid=0x0:0xfa7dc2055773ba94";""
"komplek housing";"Pembangunan Perumahan";"Blok E1 Griya Grogol Residence";"7X3M+WH6, Sumbergambi Lor, Sonorejo, Kec. Grogol, Kabupaten Kediri, Jawa Timur 64151";"Sumbergambi Lor, Sonorejo, Kec. Grogol, Kabupaten Kediri";"JAWA TENGAH";"64151";"Indonesia";"";"";"";"-7.7452047";"111.9838772";"https://maps.google.com/?cid=0x0:0x390e41645a66df36";""
"komplek housing";"Komplek perumahan";"Citra Garden 1 Extension";"Jl. Taman Permai 2 No.26 blok ad 4, Kalideres, West Jakarta City, Jakarta 11840";"Kalideres, West Jakarta City";"JAWA TENGAH";"11840";"Indonesia";"";"";"/url?q>>u003dhttp://www.citragardencity.com/>>u0026opi>>u003d79508299>>u0026sa>>u003dU>>u0026ved>>u003d0ahUKEwiG26mmvYqMAxVCxzgGHbNNHdEQ61gIEigO>>u0026usg>>u003dAOvVaw0xtrhtQfI9qdSVLDXk6L90";"-6.153419";"106.6965266";"https://maps.google.com/?cid=0x0:0x4b9ae80ac53dc38b";""
"komplek housing";"Komplek perumahan";"House";"Jl. Gringging Regency No.blok B21, Sumbergambi Kidul, Sonorejo, Kec. Grogol, Kabupaten Kediri, Jawa Timur 64151";"Sumbergambi Kidul, Sonorejo, Kec. Grogol, Kabupaten Kediri";"JAWA TENGAH";"64151";"Indonesia";"";"";"";"-7.7515662";"111.9754269";"https://maps.google.com/?cid=0x0:0xaf65573ad1229d00";""
"komplek housing";"Komplek perumahan";"House of Blessing";"CQHG+GPP, Tirisan, RT.4/RW.23, Dusun III, Makamhaji, Kec. Kartasura, Kabupaten Sukoharjo, Jawa Tengah 57161";"Tirisan, RT.4/RW.23, Dusun III, Makamhaji, Kec. Kartasura, Kabupaten Sukoharjo";"JAWA TENGAH";"57161";"Indonesia";"";"";"";"-7.5711698";"110.776839";"https://maps.google.com/?cid=0x0:0x51b709fdc70eeefe";""
"komplek housing";"Komplek perumahan";"Rumah Jenong🖤🤍";"CQMH+GQV, Jl. Sumbulan Raya, RT.2/RW.13, Dusun I, Makamhaji, Kec. Kartasura, Kabupaten Sukoharjo, Jawa Tengah 57161";"Jl. Sumbulan Raya, RT.2/RW.13, Dusun I, Makamhaji, Kec. Kartasura, Kabupaten Sukoharjo";"JAWA TENGAH";"57161";"Indonesia";"";"";"";"-7.56615";"110.7794146";"https://maps.google.com/?cid=0x0:0xa985915bf32b469f";""
"komplek housing";"Pembangunan Perumahan";"Perumahan Zada Tower Land";"CQR7+GV8, Pabelan, Kartasura, Gumpang Lor, Pabelan, Sukoharjo, Kabupaten Sukoharjo, Jawa Tengah 57169";"Pabelan, Kartasura, Gumpang Lor, Pabelan, Sukoharjo, Kabupaten Sukoharjo";"JAWA TENGAH";"57169";"Indonesia";"";"";"";"-7.5587155";"110.7646955";"https://maps.google.com/?cid=0x0:0x4e249cc4cd452dac";""
"komplek housing";"Perumahan";"SUWANDI";"Kuyudan Rt02 Rw05, Jl. Bimasena No.27, Dusun II, Makamhaji, Kec. Kartasura, Kabupaten Sukoharjo, Jawa Tengah 57161";"Jl. Bimasena No.27, Dusun II, Makamhaji, Kec. Kartasura, Kabupaten Sukoharjo";"JAWA TENGAH";"57161";"Indonesia";"";"";"";"-7.5622793";"110.7789793";"https://maps.google.com/?cid=0x0:0x73e93f5b988b6df7";""
"komplek housing";"Komplek perumahan";"Hartono's 6 Family Home";"Jl. Sadewa No.78, Dusun II, Makamhaji, Kec. Kartasura, Kabupaten Sukoharjo, Jawa Tengah 57161";"Dusun II, Makamhaji, Kec. Kartasura, Kabupaten Sukoharjo";"JAWA TENGAH";"57161";"Indonesia";"";"";"";"-7.5634891";"110.781453";"https://maps.google.com/?cid=0x0:0x5badd68df4371fa4";""
"komplek housing";"Perhimpunan Pengembang Perumahan";"kobipetshop";"Jl. Sidomulyo Gg. X No.26, Dusun II, Makamhaji, Kec. Kartasura, Kabupaten Sukoharjo, Jawa Tengah 57161";"Dusun II, Makamhaji, Kec. Kartasura, Kabupaten Sukoharjo";"JAWA TENGAH";"57161";"Indonesia";"";"";"";"-7.5604199";"110.7778653";"https://maps.google.com/?cid=0x0:0xae58b289c6dad588";""
"komplek housing";"Komplek perumahan";"FesaYusuf";"CQMF+6M9, Dusun III, Makamhaji, Kec. Kartasura, Kabupaten Sukoharjo, Jawa Tengah 57161";"Dusun III, Makamhaji, Kec. Kartasura, Kabupaten Sukoharjo";"JAWA TENGAH";"57161";"Indonesia";"";"";"";"-7.5669536";"110.7742416";"https://maps.google.com/?cid=0x0:0x5fcd07b21a942b3d";""
"komplek housing";"Komplek perumahan";"Pajang Home";"Jl. Sekar Jagad No.27, Dusun I, Makamhaji, Kec. Kartasura, Kabupaten Sukoharjo, Jawa Tengah 57161";"Dusun I, Makamhaji, Kec. Kartasura, Kabupaten Sukoharjo";"JAWA TENGAH";"57161";"Indonesia";"";"";"";"-7.5657708";"110.7820769";"https://maps.google.com/?cid=0x0:0x637b28c171713ae7";""
"komplek housing";"Komplek perumahan";"Rumah Wahyu DK";"Tirisan Rt 01/23Makamhaji, Dusun III, Makamhaji, Kec. Kartasura, Kabupaten Sukoharjo, Jawa Tengah 57161";"Dusun III, Makamhaji, Kec. Kartasura, Kabupaten Sukoharjo";"JAWA TENGAH";"57161";"Indonesia";"";"";"";"-7.5718226";"110.7772368";"https://maps.google.com/?cid=0x0:0xb4a4ebdfc0af8c86";""
"komplek housing";"Komplek perumahan";"Rumah LJ";"Jl. Slamet Riyadi No.376a, Dusun III, Makamhaji, Kec. Kartasura, Kabupaten Sukoharjo, Jawa Tengah 57161";"Dusun III, Makamhaji, Kec. Kartasura, Kabupaten Sukoharjo";"JAWA TENGAH";"57161";"Indonesia";"";"";"";"-7.5668676";"110.7739827";"https://maps.google.com/?cid=0x0:0xd54004aae5c78028";""
"komplek housing";"Komplek perumahan";"MASOED";"Griya Aji Raharja D1, Dk. Widororejo Rt/Rw 01/03, Dusun II, Makamhaji, Kec. Kartasura, Kabupaten Sukoharjo, Jawa Tengah 57161";"Dk. Widororejo Rt/Rw 01/03, Dusun II, Makamhaji, Kec. Kartasura, Kabupaten Sukoharjo";"JAWA TENGAH";"57161";"Indonesia";"";"";"";"-7.5617041";"110.7772826";"https://maps.google.com/?cid=0x0:0x66938a7ceabf9183";""
"komplek housing";"Komplek perumahan";"Rumah Dery";"CQPH+QWP, Gg. Al-Huda, Dusun II, Makamhaji, Kec. Kartasura, Kabupaten Sukoharjo, Jawa Tengah 57161";"Gg. Al-Huda, Dusun II, Makamhaji, Kec. Kartasura, Kabupaten Sukoharjo";"JAWA TENGAH";"57161";"Indonesia";"";"";"";"-7.5630304";"110.7798322";"https://maps.google.com/?cid=0x0:0xb8f705115fc41436";""
"komplek housing";"Komplek perumahan";"Rumah Mas Yusuf";"Windan RT 01/ 09, Dusun IV, Makamhaji, Kec. Kartasura, Kabupaten Sukoharjo, Jawa Tengah 57161";"Dusun IV, Makamhaji, Kec. Kartasura, Kabupaten Sukoharjo";"JAWA TENGAH";"57161";"Indonesia";"";"";"";"-7.5644108";"110.7717612";"https://maps.google.com/?cid=0x0:0x9aa916de2cefad2a";""
"komplek housing";"Kompleks Apartemen";"Kost ONE TOP";"CQHJ+2WJ, Dusun I, Makamhaji, Kec. Kartasura, Kabupaten Sukoharjo, Jawa Tengah 57161";"Dusun I, Makamhaji, Kec. Kartasura, Kabupaten Sukoharjo";"JAWA TENGAH";"57161";"Indonesia";" 08164277725";"";"";"-7.572618";"110.7823227";"https://maps.google.com/?cid=0x0:0x6a526d1e84b823c1";""
"komplek housing";"Komplek perumahan";"Omah e MetallicA Putih";"Jl. Hamzah 1 No.10, Dusun III, Gumpang, Kec. Kartasura, Kabupaten Sukoharjo, Jawa Tengah 57161";"Dusun III, Gumpang, Kec. Kartasura, Kabupaten Sukoharjo";"JAWA TENGAH";"57161";"Indonesia";"";"";"";"-7.5694374";"110.7704583";"https://maps.google.com/?cid=0x0:0xb00f6bbd1c247ba6";""
"komplek housing";"Pembangunan Perumahan";"AZALEA RESIDENCE 1";"Azalea Residence 1, RT.03/RW.07, Windan Baru, Gumpang, Kartasura, Sukoharjo Regency, Central Java 57161";"RT.03/RW.07, Windan Baru, Gumpang, Kartasura, Sukoharjo Regency";"JAWA TENGAH";"57161";"Indonesia";" 082216647548";"";"/url?q>>u003dhttps://bit.ly/infopropertisolorayaa>>u0026opi>>u003d79508299>>u0026sa>>u003dU>>u0026ved>>u003d0ahUKEwjG56-5vYqMAxWgzTgGHax_LgsQ61gIFigS>>u0026usg>>u003dAOvVaw2lcOsl30TZY0QwcjwhcUwC";"-7.5684957";"110.7703159";"https://maps.google.com/?cid=0x0:0x1431ca95d583d66c";""
"komplek housing";"Komplek perumahan";"Rumah Galang";"CQPJ+94F, Kuyudan, RT.5/RW.5, Dusun II, Makamhaji, Kec. Kartasura, Kabupaten Sukoharjo, Jawa Tengah";"Kabupaten Sukoharjo, Jawa Tengah";"JAWA TENGAH";"";"Indonesia";"";"";"";"-7.5640535";"110.7802963";"https://maps.google.com/?cid=0x0:0xd1cff52c996933db";""
"komplek housing";"Komplek perumahan";"MufidahRumi";"CQMG+HC3, Dusun III, Makamhaji, Kec. Kartasura, Kabupaten Sukoharjo, Jawa Tengah 57161";"Dusun III, Makamhaji, Kec. Kartasura, Kabupaten Sukoharjo";"JAWA TENGAH";"57161";"Indonesia";" 085728916691";"";"";"-7.5662038";"110.7763122";"https://maps.google.com/?cid=0x0:0x3d1739f9eb8b9255";""
"komplek housing";"Perumahan";"Griya EPRO";"Jl. Benowo 6 No.14 Rt. 01 Rw. 21, Dusun I, Makamhaji, Kec. Kartasura, Kabupaten Sukoharjo, Jawa Tengah 57161";"Dusun I, Makamhaji, Kec. Kartasura, Kabupaten Sukoharjo";"JAWA TENGAH";"57161";"Indonesia";"";"";"";"-7.575305";"110.7814621";"https://maps.google.com/?cid=0x0:0xd0cb7824a7196e82";""
"komplek housing";"komplek housing";"Jawa Tengah 57161";"Kec. Kartasura, Kabupaten Sukoharjo, Jawa Tengah";"Kabupaten Sukoharjo, Jawa Tengah";"JAWA TENGAH";"";"Indonesia";"";"";"";"-7.5627984";"110.774827";"https://maps.google.com/?cid=0x0:0x5d93cbb445c6da46";""
"komplek housing";"Komplek perumahan";"Rumah P. Bambang";"CQQG+CH7, Gg. V, Dusun II, Makamhaji, Kec. Kartasura, Kabupaten Sukoharjo, Jawa Tengah 57161";"Gg. V, Dusun II, Makamhaji, Kec. Kartasura, Kabupaten Sukoharjo";"JAWA TENGAH";"57161";"Indonesia";"";"";"";"-7.5614502";"110.7764099";"https://maps.google.com/?cid=0x0:0xb9b58337ae0f8c2a";""
"komplek housing";"Komplek perumahan";"Rumah putih Giyarso";"CQQF+VXV, Jl. Widororejo No.26, Dusun II, Makamhaji, Kec. Kartasura, Kabupaten Sukoharjo, Jawa Tengah 57161";"Jl. Widororejo No.26, Dusun II, Makamhaji, Kec. Kartasura, Kabupaten Sukoharjo";"JAWA TENGAH";"57161";"Indonesia";"";"";"";"-7.5602476";"110.7749406";"https://maps.google.com/?cid=0x0:0x4769ddbf43b0cf9a";""
"komplek housing";"Komplek perumahan";"Griya Kreatif Mamah Enny";"CQMH+XP8, Kuyudan, RT.5/RW.5, Dusun II, Makamhaji, Kec. Kartasura, Kabupaten Sukoharjo, Jawa Tengah 57161";"Kuyudan, RT.5/RW.5, Dusun II, Makamhaji, Kec. Kartasura, Kabupaten Sukoharjo";"JAWA TENGAH";"57161";"Indonesia";"";"";"";"-7.5650904";"110.7793431";"https://maps.google.com/?cid=0x0:0xf91e211f75858366";""
"komplek housing";"Komplek perumahan";"Rumah Alyuka";"CQHH+Q22, Jl. Benowo III, RT.03/RW.22, Dusun I, Makamhaji, Kec. Kartasura, Kabupaten Sukoharjo, Jawa Tengah 57161";"Jl. Benowo III, RT.03/RW.22, Dusun I, Makamhaji, Kec. Kartasura, Kabupaten Sukoharjo";"JAWA TENGAH";"57161";"Indonesia";"";"";"";"-7.5706144";"110.7775159";"https://maps.google.com/?cid=0x0:0xf7cb1299b2e9ff2";""
"komplek housing";"Komplek perumahan";"Keluarga Imron";"Jl. Hamzah 4 No.2, Dusun III, Gumpang, Kec. Kartasura, Kabupaten Sukoharjo, Jawa Tengah 57161";"Dusun III, Gumpang, Kec. Kartasura, Kabupaten Sukoharjo";"JAWA TENGAH";"57161";"Indonesia";" 081329394470";"";"";"-7.5690018";"110.769796";"https://maps.google.com/?cid=0x0:0x41a4b497c04043a0";""
"komplek housing";"Komplek perumahan";"Ps trend 13";"CQQH+R37, Jl. Sidomulyo, RT.02/RW.03, Dusun II, Makamhaji, Kec. Kartasura, Kabupaten Sukoharjo, Jawa Tengah 57161";"Jl. Sidomulyo, RT.02/RW.03, Dusun II, Makamhaji, Kec. Kartasura, Kabupaten Sukoharjo";"JAWA TENGAH";"57161";"Indonesia";"";"";"";"-7.5604726";"110.7776859";"https://maps.google.com/?cid=0x0:0xb42bb5a6a80bccfc";""
"komplek housing";"Komplek perumahan";"nDalem HS";"Jl. Malangan, Rt3 Rw17, Dusun I, Makamhaji, Kartasura, Sukoharjo Regency, Central Java 57161";"Rt3 Rw17, Dusun I, Makamhaji, Kartasura, Sukoharjo Regency";"JAWA TENGAH";"57161";"Indonesia";"";"";"";"-7.5678181";"110.7805464";"https://maps.google.com/?cid=0x0:0x725bdcb4047608d8";""
"komplek housing";"Komplek perumahan";"Dnhome";"Karang lor rt01 rw 15, Dusun I, Makamhaji, Kec. Kartasura, Kabupaten Sukoharjo, Jawa Tengah 57161";"Dusun I, Makamhaji, Kec. Kartasura, Kabupaten Sukoharjo";"JAWA TENGAH";"57161";"Indonesia";"";"";"";"-7.5668305";"110.7823971";"https://maps.google.com/?cid=0x0:0xc11ddba5d6320184";""
"komplek housing";"Komplek perumahan";"Tanah RN NUP 2";"Jl. Ngadirejo No.42, Dusun II, Makamhaji, Kec. Kartasura, Kabupaten Sukoharjo, Jawa Tengah 57161";"Dusun II, Makamhaji, Kec. Kartasura, Kabupaten Sukoharjo";"JAWA TENGAH";"57161";"Indonesia";"";"";"";"-7.561668";"110.7769745";"https://maps.google.com/?cid=0x0:0xa8076ed87853432e";""
"komplek housing";"Pembangunan Perumahan";"D10 Syafeeya Kartasura";"CPMV+3V9, Rojonatan, Ngemplak, Kec. Kartasura, Kabupaten Sukoharjo, Jawa Tengah";"Kabupaten Sukoharjo, Jawa Tengah";"JAWA TENGAH";"";"Indonesia";"";"";"";"-7.5673472";"110.7447245";"https://maps.google.com/?cid=0x0:0xbe089f84d94d8b13";""
"komplek housing";"Komplek perumahan";"Gang Kecil Kenteng";"Jl. Slamet Riyadi No.229-233, Somotalen, Ngadirejo, Kec. Kartasura, Kabupaten Sukoharjo, Jawa Tengah 57163";"Somotalen, Ngadirejo, Kec. Kartasura, Kabupaten Sukoharjo";"JAWA TENGAH";"57163";"Indonesia";"";"";"";"-7.5607539";"110.7542667";"https://maps.google.com/?cid=0x0:0x77d80247190733e";""
"komplek housing";"Otoritas Perumahan";"Perumahan Babussalam Asri 1 Ngemplak Bothi Kartasura";"CPHR+94Q, Jalan Daratan Kulon, RT.01/RW.05, Gebyok, Ngemplak, Kec. Kartasura, Kabupaten Sukoharjo, Jawa Tengah 57169";"Jalan Daratan Kulon, RT.01/RW.05, Gebyok, Ngemplak, Kec. Kartasura, Kabupaten Sukoharjo";"JAWA TENGAH";"57169";"Indonesia";"";"";"";"-7.5715375";"110.7403594";"https://maps.google.com/?cid=0x0:0x11a3825f6458a48f";""
"komplek housing";"Komplek perumahan";"Rumah Ku";"CQQ2+RFH, Jl. Pisang, Ngadijayan Utara, Ngadirejo, Kec. Kartasura, Kabupaten Sukoharjo, Jawa Tengah 57163";"Jl. Pisang, Ngadijayan Utara, Ngadirejo, Kec. Kartasura, Kabupaten Sukoharjo";"JAWA TENGAH";"57163";"Indonesia";"";"";"";"-7.5604922";"110.7512504";"https://maps.google.com/?cid=0x0:0xa9842f74a69d669f";""
